<?xml version="1.0" encoding="UTF-8"?>
<TransXChange xml:lang="en" RegistrationDocument="false" xsi:schemaLocation="http://www.transxchange.org.uk/ http://www.transxchange.org.uk/schema/2.4/TransXChange_general.xsd" CreationDateTime="2025-02-27T17:43:33+00:00" xmlns:apd="http://www.govtalk.gov.uk/people/AddressAndPersonalDetails" RevisionNumber="0" ModificationDateTime="2025-02-27T17:43:33+00:00" FileName="metrobus-411.xml" xmlns:xsi="http://www.w3.org/2001/XMLSchema-instance" SchemaVersion="2.4" xmlns="http://www.transxchange.org.uk/" Modification="new"> <!-- ExportProgramVersion="4.184" -->

   <ServicedOrganisations>
   <ServicedOrganisation>
   <OrganisationCode>Sch</OrganisationCode>
   <Name>AnySchool</Name>
   <WorkingDays>
   <DateRange>
   <StartDate>2025-03-03</StartDate>
   <EndDate>2025-03-07</EndDate>
   </DateRange>
   <DateRange>
   <StartDate>2025-03-10</StartDate>
   <EndDate>2025-03-14</EndDate>
   </DateRange>
   <DateRange>
   <StartDate>2025-03-17</StartDate>
   <EndDate>2025-03-21</EndDate>
   </DateRange>
   <DateRange>
   <StartDate>2025-03-24</StartDate>
   <EndDate>2025-03-28</EndDate>
   </DateRange>
   <DateRange>
   <StartDate>2025-03-31</StartDate>
   <EndDate>2025-04-04</EndDate>
   </DateRange>
   <DateRange>
   <StartDate>2025-04-22</StartDate>
   <EndDate>2025-04-25</EndDate>
   </DateRange>
   <DateRange>
   <StartDate>2025-04-28</StartDate>
   <EndDate>2025-05-02</EndDate>
   </DateRange>
   <DateRange>
   <StartDate>2025-05-06</StartDate>
   <EndDate>2025-05-09</EndDate>
   </DateRange>
   <DateRange>
   <StartDate>2025-05-12</StartDate>
   <EndDate>2025-05-16</EndDate>
   </DateRange>
   <DateRange>
   <StartDate>2025-05-19</StartDate>
   <EndDate>2025-05-23</EndDate>
   </DateRange>
   </WorkingDays>
   </ServicedOrganisation>
   </ServicedOrganisations>
   <StopPoints>
   <AnnotatedStopPointRef>
   <StopPointRef>40004409100A</StopPointRef>
   <CommonName>Reigate, Red Cross</CommonName>
   <Location>
   <Longitude>-0.209773</Longitude>
   <Latitude>51.238565</Latitude>
   </Location>
   </AnnotatedStopPointRef>
   <AnnotatedStopPointRef>
   <StopPointRef>40004409234B</StopPointRef>
   <CommonName>Reigate College</CommonName>
   <LocalityName>Reigate and Banstead</LocalityName>
   <Location>
   <Longitude>-0.203778</Longitude>
   <Latitude>51.240971</Latitude>
   </Location>
   </AnnotatedStopPointRef>
   <AnnotatedStopPointRef>
   <StopPointRef>40004409120A</StopPointRef>
   <CommonName>Chart Lane</CommonName>
   <Location>
   <Longitude>-0.197140</Longitude>
   <Latitude>51.237965</Latitude>
   </Location>
   </AnnotatedStopPointRef>
   <AnnotatedStopPointRef>
   <StopPointRef>40004409121A</StopPointRef>
   <CommonName>Reigate Grammar School</CommonName>
   <Location>
   <Longitude>-0.191897</Longitude>
   <Latitude>51.237250</Latitude>
   </Location>
   </AnnotatedStopPointRef>
   <AnnotatedStopPointRef>
   <StopPointRef>40004409122A</StopPointRef>
   <CommonName>Police Station</CommonName>
   <Location>
   <Longitude>-0.188531</Longitude>
   <Latitude>51.237217</Latitude>
   </Location>
   </AnnotatedStopPointRef>
   <AnnotatedStopPointRef>
   <StopPointRef>40004409128A</StopPointRef>
   <CommonName>Doran Drive</CommonName>
   <LocalityName>Reigate and Banstead</LocalityName>
   <Location>
   <Longitude>-0.183591</Longitude>
   <Latitude>51.237760</Latitude>
   </Location>
   </AnnotatedStopPointRef>
   <AnnotatedStopPointRef>
   <StopPointRef>40004409129A</StopPointRef>
   <CommonName>Donyngs Leisure Centre</CommonName>
   <Location>
   <Longitude>-0.178023</Longitude>
   <Latitude>51.239562</Latitude>
   </Location>
   </AnnotatedStopPointRef>
   <AnnotatedStopPointRef>
   <StopPointRef>40004409130A</StopPointRef>
   <CommonName>St Matthews Church</CommonName>
   <Location>
   <Longitude>-0.172210</Longitude>
   <Latitude>51.240447</Latitude>
   </Location>
   </AnnotatedStopPointRef>
   <AnnotatedStopPointRef>
   <StopPointRef>40004406938A</StopPointRef>
   <CommonName>Redhill High Street</CommonName>
   <Location>
   <Longitude>-0.168784</Longitude>
   <Latitude>51.238588</Latitude>
   </Location>
   </AnnotatedStopPointRef>
   <AnnotatedStopPointRef>
   <StopPointRef>40004409222C</StopPointRef>
   <CommonName>Redhill Bus Station</CommonName>
   <Location>
   <Longitude>-0.166710</Longitude>
   <Latitude>51.240783</Latitude>
   </Location>
   </AnnotatedStopPointRef>
   <AnnotatedStopPointRef>
   <StopPointRef>40004409175A</StopPointRef>
   <CommonName>Lynwood Road</CommonName>
   <Location>
   <Longitude>-0.167146</Longitude>
   <Latitude>51.244586</Latitude>
   </Location>
   </AnnotatedStopPointRef>
   <AnnotatedStopPointRef>
   <StopPointRef>40004409175C</StopPointRef>
   <CommonName>Carlton Road</CommonName>
   <Location>
   <Longitude>-0.166420</Longitude>
   <Latitude>51.247472</Latitude>
   </Location>
   </AnnotatedStopPointRef>
   <AnnotatedStopPointRef>
   <StopPointRef>40004409189A</StopPointRef>
   <CommonName>Redhill, South Mead</CommonName>
   <Location>
   <Longitude>-0.169173</Longitude>
   <Latitude>51.249476</Latitude>
   </Location>
   </AnnotatedStopPointRef>
   <AnnotatedStopPointRef>
   <StopPointRef>40004409190A</StopPointRef>
   <CommonName>Northmead</CommonName>
   <Location>
   <Longitude>-0.171856</Longitude>
   <Latitude>51.251802</Latitude>
   </Location>
   </AnnotatedStopPointRef>
   <AnnotatedStopPointRef>
   <StopPointRef>40004409934A</StopPointRef>
   <CommonName>East Surrey College, Gatton Point</CommonName>
   <Location>
   <Longitude>-0.166400</Longitude>
   <Latitude>51.253721</Latitude>
   </Location>
   </AnnotatedStopPointRef>
   <AnnotatedStopPointRef>
   <StopPointRef>40004409192A</StopPointRef>
   <CommonName>Rocky Lane</CommonName>
   <Location>
   <Longitude>-0.159026</Longitude>
   <Latitude>51.256422</Latitude>
   </Location>
   </AnnotatedStopPointRef>
   <AnnotatedStopPointRef>
   <StopPointRef>40004409193A</StopPointRef>
   <CommonName>The Grove</CommonName>
   <Location>
   <Longitude>-0.155935</Longitude>
   <Latitude>51.259274</Latitude>
   </Location>
   </AnnotatedStopPointRef>
   <AnnotatedStopPointRef>
   <StopPointRef>40004409194A</StopPointRef>
   <CommonName>Merstham, The Feathers</CommonName>
   <Location>
   <Longitude>-0.152660</Longitude>
   <Latitude>51.264418</Latitude>
   </Location>
   </AnnotatedStopPointRef>
   <AnnotatedStopPointRef>
   <StopPointRef>40004409195A</StopPointRef>
   <CommonName>Church Hill</CommonName>
   <Location>
   <Longitude>-0.151089</Longitude>
   <Latitude>51.269390</Latitude>
   </Location>
   </AnnotatedStopPointRef>
   <AnnotatedStopPointRef>
   <StopPointRef>40004409196A</StopPointRef>
   <CommonName>London Road North, Shepherd's Hill</CommonName>
   <Location>
   <Longitude>-0.151652</Longitude>
   <Latitude>51.272375</Latitude>
   </Location>
   </AnnotatedStopPointRef>
   <AnnotatedStopPointRef>
   <StopPointRef>40004409809A</StopPointRef>
   <CommonName>Shepherd's Hill</CommonName>
   <LocalityName>Reigate and Banstead</LocalityName>
   <Location>
   <Longitude>-0.146694</Longitude>
   <Latitude>51.273231</Latitude>
   </Location>
   </AnnotatedStopPointRef>
   <AnnotatedStopPointRef>
   <StopPointRef>40004406970A</StopPointRef>
   <CommonName>Ridge House</CommonName>
   <LocalityName>Reigate and Banstead</LocalityName>
   <Location>
   <Longitude>-0.142108</Longitude>
   <Latitude>51.274240</Latitude>
   </Location>
   </AnnotatedStopPointRef>
   <AnnotatedStopPointRef>
   <StopPointRef>40004409809B</StopPointRef>
   <CommonName>Alderstead Lane</CommonName>
   <LocalityName>Reigate and Banstead</LocalityName>
   <Location>
   <Longitude>-0.139258</Longitude>
   <Latitude>51.277145</Latitude>
   </Location>
   </AnnotatedStopPointRef>
   <AnnotatedStopPointRef>
   <StopPointRef>40004409203A</StopPointRef>
   <CommonName>Alderstead Heath</CommonName>
   <LocalityName>Reigate and Banstead</LocalityName>
   <Location>
   <Longitude>-0.137885</Longitude>
   <Latitude>51.280436</Latitude>
   </Location>
   </AnnotatedStopPointRef>
   <AnnotatedStopPointRef>
   <StopPointRef>40004409809C</StopPointRef>
   <CommonName>Dean Lane</CommonName>
   <LocalityName>Reigate and Banstead</LocalityName>
   <Location>
   <Longitude>-0.134244</Longitude>
   <Latitude>51.280212</Latitude>
   </Location>
   </AnnotatedStopPointRef>
   <AnnotatedStopPointRef>
   <StopPointRef>40004410801A</StopPointRef>
   <CommonName>Rook Lane</CommonName>
   <Location>
   <Longitude>-0.125456</Longitude>
   <Latitude>51.278830</Latitude>
   </Location>
   </AnnotatedStopPointRef>
   <AnnotatedStopPointRef>
   <StopPointRef>40004410098A</StopPointRef>
   <CommonName>Chaldon, Crossroads</CommonName>
   <Location>
   <Longitude>-0.120352</Longitude>
   <Latitude>51.278607</Latitude>
   </Location>
   </AnnotatedStopPointRef>
   <AnnotatedStopPointRef>
   <StopPointRef>40004410097A</StopPointRef>
   <CommonName>Doctors Lane</CommonName>
   <Location>
   <Longitude>-0.113831</Longitude>
   <Latitude>51.280127</Latitude>
   </Location>
   </AnnotatedStopPointRef>
   <AnnotatedStopPointRef>
   <StopPointRef>40004410096A</StopPointRef>
   <CommonName>Mount Avenue</CommonName>
   <Location>
   <Longitude>-0.108054</Longitude>
   <Latitude>51.280910</Latitude>
   </Location>
   </AnnotatedStopPointRef>
   <AnnotatedStopPointRef>
   <StopPointRef>40004410095A</StopPointRef>
   <CommonName>Chaldon Common Road</CommonName>
   <Location>
   <Longitude>-0.105703</Longitude>
   <Latitude>51.281315</Latitude>
   </Location>
   </AnnotatedStopPointRef>
   <AnnotatedStopPointRef>
   <StopPointRef>40004410094A</StopPointRef>
   <CommonName>Roffes Lane</CommonName>
   <Location>
   <Longitude>-0.100858</Longitude>
   <Latitude>51.282502</Latitude>
   </Location>
   </AnnotatedStopPointRef>
   <AnnotatedStopPointRef>
   <StopPointRef>40004410089A</StopPointRef>
   <CommonName>Caterham, Coulsdon Road</CommonName>
   <LocalityName>Tandridge</LocalityName>
   <Location>
   <Longitude>-0.096127</Longitude>
   <Latitude>51.284803</Latitude>
   </Location>
   </AnnotatedStopPointRef>
   <AnnotatedStopPointRef>
   <StopPointRef>40004410088A</StopPointRef>
   <CommonName>Douglas Brunton Day Centre</CommonName>
   <Location>
   <Longitude>-0.092643</Longitude>
   <Latitude>51.286503</Latitude>
   </Location>
   </AnnotatedStopPointRef>
   <AnnotatedStopPointRef>
   <StopPointRef>40004410087C</StopPointRef>
   <CommonName>High Street</CommonName>
   <Location>
   <Longitude>-0.088915</Longitude>
   <Latitude>51.287258</Latitude>
   </Location>
   </AnnotatedStopPointRef>
   <AnnotatedStopPointRef>
   <StopPointRef>40004410086C</StopPointRef>
   <CommonName>Caterham, Court Road</CommonName>
   <Location>
   <Longitude>-0.088141</Longitude>
   <Latitude>51.285630</Latitude>
   </Location>
   </AnnotatedStopPointRef>
   <AnnotatedStopPointRef>
   <StopPointRef>40004410085A</StopPointRef>
   <CommonName>Caterham Hospital</CommonName>
   <Location>
   <Longitude>-0.086206</Longitude>
   <Latitude>51.283221</Latitude>
   </Location>
   </AnnotatedStopPointRef>
   <AnnotatedStopPointRef>
   <StopPointRef>40004410084A</StopPointRef>
   <CommonName>Caterham Station</CommonName>
   <Location>
   <Longitude>-0.078064</Longitude>
   <Latitude>51.282015</Latitude>
   </Location>
   </AnnotatedStopPointRef>
   <AnnotatedStopPointRef>
   <StopPointRef>40004410084B</StopPointRef>
   <CommonName>Caterham Station</CommonName>
   <Location>
   <Longitude>-0.078135</Longitude>
   <Latitude>51.281997</Latitude>
   </Location>
   </AnnotatedStopPointRef>
   <AnnotatedStopPointRef>
   <StopPointRef>40004410085B</StopPointRef>
   <CommonName>Caterham Hospital</CommonName>
   <Location>
   <Longitude>-0.086163</Longitude>
   <Latitude>51.282870</Latitude>
   </Location>
   </AnnotatedStopPointRef>
   <AnnotatedStopPointRef>
   <StopPointRef>40004410086B</StopPointRef>
   <CommonName>Caterham, Court Road</CommonName>
   <Location>
   <Longitude>-0.087940</Longitude>
   <Latitude>51.284632</Latitude>
   </Location>
   </AnnotatedStopPointRef>
   <AnnotatedStopPointRef>
   <StopPointRef>40004410087D</StopPointRef>
   <CommonName>High Street</CommonName>
   <Location>
   <Longitude>-0.088729</Longitude>
   <Latitude>51.286736</Latitude>
   </Location>
   </AnnotatedStopPointRef>
   <AnnotatedStopPointRef>
   <StopPointRef>40004410088B</StopPointRef>
   <CommonName>Douglas Brunton Day Centre</CommonName>
   <Location>
   <Longitude>-0.093102</Longitude>
   <Latitude>51.286206</Latitude>
   </Location>
   </AnnotatedStopPointRef>
   <AnnotatedStopPointRef>
   <StopPointRef>40004410089B</StopPointRef>
   <CommonName>Caterham, Coulsdon Road</CommonName>
   <Location>
   <Longitude>-0.095740</Longitude>
   <Latitude>51.284965</Latitude>
   </Location>
   </AnnotatedStopPointRef>
   <AnnotatedStopPointRef>
   <StopPointRef>40004410090A</StopPointRef>
   <CommonName>Hambledon Road</CommonName>
   <Location>
   <Longitude>-0.097962</Longitude>
   <Latitude>51.287330</Latitude>
   </Location>
   </AnnotatedStopPointRef>
   <AnnotatedStopPointRef>
   <StopPointRef>40004410091A</StopPointRef>
   <CommonName>The Village</CommonName>
   <Location>
   <Longitude>-0.100385</Longitude>
   <Latitude>51.290665</Latitude>
   </Location>
   </AnnotatedStopPointRef>
   <AnnotatedStopPointRef>
   <StopPointRef>40004410317A</StopPointRef>
   <CommonName>The Village, Brigade Place</CommonName>
   <Location>
   <Longitude>-0.105361</Longitude>
   <Latitude>51.291330</Latitude>
   </Location>
   </AnnotatedStopPointRef>
   <AnnotatedStopPointRef>
   <StopPointRef>40004410314A</StopPointRef>
   <CommonName>Guards Avenue</CommonName>
   <Location>
   <Longitude>-0.101733</Longitude>
   <Latitude>51.291070</Latitude>
   </Location>
   </AnnotatedStopPointRef>
   <AnnotatedStopPointRef>
   <StopPointRef>40004410310A</StopPointRef>
   <CommonName>Milton Road</CommonName>
   <Location>
   <Longitude>-0.099969</Longitude>
   <Latitude>51.292203</Latitude>
   </Location>
   </AnnotatedStopPointRef>
   <AnnotatedStopPointRef>
   <StopPointRef>40004410311A</StopPointRef>
   <CommonName>Banstead Road</CommonName>
   <Location>
   <Longitude>-0.096327</Longitude>
   <Latitude>51.290917</Latitude>
   </Location>
   </AnnotatedStopPointRef>
   <AnnotatedStopPointRef>
   <StopPointRef>40004410044B</StopPointRef>
   <CommonName>Banstead Road, Recreation Ground</CommonName>
   <Location>
   <Longitude>-0.090147</Longitude>
   <Latitude>51.290467</Latitude>
   </Location>
   </AnnotatedStopPointRef>
   <AnnotatedStopPointRef>
   <StopPointRef>40004410100A</StopPointRef>
   <CommonName>MaCaulay Road</CommonName>
   <Location>
   <Longitude>-0.090162</Longitude>
   <Latitude>51.292238</Latitude>
   </Location>
   </AnnotatedStopPointRef>
   <AnnotatedStopPointRef>
   <StopPointRef>40004410101A</StopPointRef>
   <CommonName>Portley Lane</CommonName>
   <Location>
   <Longitude>-0.090892</Longitude>
   <Latitude>51.294918</Latitude>
   </Location>
   </AnnotatedStopPointRef>
   <AnnotatedStopPointRef>
   <StopPointRef>40004410102A</StopPointRef>
   <CommonName>Buxton Lane, Ninehams Road</CommonName>
   <Location>
   <Longitude>-0.092685</Longitude>
   <Latitude>51.297210</Latitude>
   </Location>
   </AnnotatedStopPointRef>
   <AnnotatedStopPointRef>
   <StopPointRef>40004410103A</StopPointRef>
   <CommonName>Salmons Lane Green</CommonName>
   <Location>
   <Longitude>-0.089630</Longitude>
   <Latitude>51.298343</Latitude>
   </Location>
   </AnnotatedStopPointRef>
   <AnnotatedStopPointRef>
   <StopPointRef>40004410226A</StopPointRef>
   <CommonName>Radio Agency</CommonName>
   <Location>
   <Longitude>-0.088281</Longitude>
   <Latitude>51.301444</Latitude>
   </Location>
   </AnnotatedStopPointRef>
   <AnnotatedStopPointRef>
   <StopPointRef>40004410105A</StopPointRef>
   <CommonName>Badgers Walk</CommonName>
   <Location>
   <Longitude>-0.086344</Longitude>
   <Latitude>51.305535</Latitude>
   </Location>
   </AnnotatedStopPointRef>
   <AnnotatedStopPointRef>
   <StopPointRef>40004410106B</StopPointRef>
   <CommonName>Whyteleafe Station</CommonName>
   <Location>
   <Longitude>-0.080103</Longitude>
   <Latitude>51.309958</Latitude>
   </Location>
   </AnnotatedStopPointRef>
   <AnnotatedStopPointRef>
   <StopPointRef>40004410154A</StopPointRef>
   <CommonName>Upper Warlingham Station</CommonName>
   <Location>
   <Longitude>-0.077307</Longitude>
   <Latitude>51.308483</Latitude>
   </Location>
   </AnnotatedStopPointRef>
   <AnnotatedStopPointRef>
   <StopPointRef>40004410155A</StopPointRef>
   <CommonName>Oakley Road</CommonName>
   <Location>
   <Longitude>-0.075342</Longitude>
   <Latitude>51.307233</Latitude>
   </Location>
   </AnnotatedStopPointRef>
   <AnnotatedStopPointRef>
   <StopPointRef>40004410156A</StopPointRef>
   <CommonName>Westview Road</CommonName>
   <Location>
   <Longitude>-0.070179</Longitude>
   <Latitude>51.305730</Latitude>
   </Location>
   </AnnotatedStopPointRef>
   <AnnotatedStopPointRef>
   <StopPointRef>40004410157A</StopPointRef>
   <CommonName>Paddock Walk</CommonName>
   <Location>
   <Longitude>-0.068388</Longitude>
   <Latitude>51.304067</Latitude>
   </Location>
   </AnnotatedStopPointRef>
   <AnnotatedStopPointRef>
   <StopPointRef>40004410007A</StopPointRef>
   <CommonName>Clovelly Avenue</CommonName>
   <Location>
   <Longitude>-0.066179</Longitude>
   <Latitude>51.303625</Latitude>
   </Location>
   </AnnotatedStopPointRef>
   <AnnotatedStopPointRef>
   <StopPointRef>40004410158A</StopPointRef>
   <CommonName>Homefield Road</CommonName>
   <Location>
   <Longitude>-0.061861</Longitude>
   <Latitude>51.304640</Latitude>
   </Location>
   </AnnotatedStopPointRef>
   <AnnotatedStopPointRef>
   <StopPointRef>40004410159A</StopPointRef>
   <CommonName>Hillbury Road</CommonName>
   <Location>
   <Longitude>-0.059221</Longitude>
   <Latitude>51.306231</Latitude>
   </Location>
   </AnnotatedStopPointRef>
   <AnnotatedStopPointRef>
   <StopPointRef>40004410161A</StopPointRef>
   <CommonName>Warlingham Green</CommonName>
   <Location>
   <Longitude>-0.055890</Longitude>
   <Latitude>51.309889</Latitude>
   </Location>
   </AnnotatedStopPointRef>
   <AnnotatedStopPointRef>
   <StopPointRef>40004410153A</StopPointRef>
   <CommonName>Marks Road</CommonName>
   <Location>
   <Longitude>-0.048003</Longitude>
   <Latitude>51.307692</Latitude>
   </Location>
   </AnnotatedStopPointRef>
   <AnnotatedStopPointRef>
   <StopPointRef>40004410152A</StopPointRef>
   <CommonName>Warlingham Sainsburys</CommonName>
   <Location>
   <Longitude>-0.043500</Longitude>
   <Latitude>51.307114</Latitude>
   </Location>
   </AnnotatedStopPointRef>
   <AnnotatedStopPointRef>
   <StopPointRef>40004410152D</StopPointRef>
   <CommonName>Chelsham Road</CommonName>
   <Location>
   <Longitude>-0.042050</Longitude>
   <Latitude>51.308112</Latitude>
   </Location>
   </AnnotatedStopPointRef>
   <AnnotatedStopPointRef>
   <StopPointRef>40004410151A</StopPointRef>
   <CommonName>Sunnybank</CommonName>
   <Location>
   <Longitude>-0.043482</Longitude>
   <Latitude>51.309839</Latitude>
   </Location>
   </AnnotatedStopPointRef>
   <AnnotatedStopPointRef>
   <StopPointRef>40004410150A</StopPointRef>
   <CommonName>Green Lane</CommonName>
   <Location>
   <Longitude>-0.045701</Longitude>
   <Latitude>51.313643</Latitude>
   </Location>
   </AnnotatedStopPointRef>
   <AnnotatedStopPointRef>
   <StopPointRef>40004410228A</StopPointRef>
   <CommonName>Parsonage Close</CommonName>
   <Location>
   <Longitude>-0.044178</Longitude>
   <Latitude>51.316024</Latitude>
   </Location>
   </AnnotatedStopPointRef>
   <AnnotatedStopPointRef>
   <StopPointRef>40004410149A</StopPointRef>
   <CommonName>Farleigh, Harrow</CommonName>
   <Location>
   <Longitude>-0.041850</Longitude>
   <Latitude>51.319260</Latitude>
   </Location>
   </AnnotatedStopPointRef>
   <AnnotatedStopPointRef>
   <StopPointRef>40004410148A</StopPointRef>
   <CommonName>Daniels Lane</CommonName>
   <Location>
   <Longitude>-0.039412</Longitude>
   <Latitude>51.317964</Latitude>
   </Location>
   </AnnotatedStopPointRef>
   <AnnotatedStopPointRef>
   <StopPointRef>40004410313A</StopPointRef>
   <CommonName>Bramber Way</CommonName>
   <Location>
   <Longitude>-0.036402</Longitude>
   <Latitude>51.316317</Latitude>
   </Location>
   </AnnotatedStopPointRef>
   <AnnotatedStopPointRef>
   <StopPointRef>40004410147B</StopPointRef>
   <CommonName>Chelsham Common</CommonName>
   <LocalityName>Tandridge</LocalityName>
   <Location>
   <Longitude>-0.033319</Longitude>
   <Latitude>51.315138</Latitude>
   </Location>
   </AnnotatedStopPointRef>
   <AnnotatedStopPointRef>
   <StopPointRef>40004410146A</StopPointRef>
   <CommonName>Chelsham Common, Great Park</CommonName>
   <Location>
   <Longitude>-0.029443</Longitude>
   <Latitude>51.316628</Latitude>
   </Location>
   </AnnotatedStopPointRef>
   <AnnotatedStopPointRef>
   <StopPointRef>40004410147A</StopPointRef>
   <CommonName>Chelsham Common</CommonName>
   <Location>
   <Longitude>-0.033362</Longitude>
   <Latitude>51.315012</Latitude>
   </Location>
   </AnnotatedStopPointRef>
   <AnnotatedStopPointRef>
   <StopPointRef>40004410313B</StopPointRef>
   <CommonName>Bramber Way</CommonName>
   <Location>
   <Longitude>-0.036875</Longitude>
   <Latitude>51.316434</Latitude>
   </Location>
   </AnnotatedStopPointRef>
   <AnnotatedStopPointRef>
   <StopPointRef>40004410148B</StopPointRef>
   <CommonName>Daniels Lane</CommonName>
   <Location>
   <Longitude>-0.039541</Longitude>
   <Latitude>51.318027</Latitude>
   </Location>
   </AnnotatedStopPointRef>
   <AnnotatedStopPointRef>
   <StopPointRef>40004410149B</StopPointRef>
   <CommonName>Farleigh, Harrow</CommonName>
   <Location>
   <Longitude>-0.042223</Longitude>
   <Latitude>51.319305</Latitude>
   </Location>
   </AnnotatedStopPointRef>
   <AnnotatedStopPointRef>
   <StopPointRef>40004410144B</StopPointRef>
   <CommonName>Cranmer Court</CommonName>
   <LocalityName>Tandridge</LocalityName>
   <Location>
   <Longitude>-0.043921</Longitude>
   <Latitude>51.327559</Latitude>
   </Location>
   </AnnotatedStopPointRef>
   <AnnotatedStopPointRef>
   <StopPointRef>490015666N</StopPointRef>
   <CommonName>Beech Way</CommonName>
   <Location>
   <Longitude>-0.051233</Longitude>
   <Latitude>51.333828</Latitude>
   </Location>
   </AnnotatedStopPointRef>
   <AnnotatedStopPointRef>
   <StopPointRef>490011991N</StopPointRef>
   <CommonName>Selsdon Nature Reserve</CommonName>
   <Location>
   <Longitude>-0.052078</Longitude>
   <Latitude>51.335501</Latitude>
   </Location>
   </AnnotatedStopPointRef>
   <AnnotatedStopPointRef>
   <StopPointRef>490011910N</StopPointRef>
   <CommonName>Ravenshead Close</CommonName>
   <Location>
   <Longitude>-0.055434</Longitude>
   <Latitude>51.337705</Latitude>
   </Location>
   </AnnotatedStopPointRef>
   <AnnotatedStopPointRef>
   <StopPointRef>490007928N</StopPointRef>
   <CommonName>Hawthorn Crescent</CommonName>
   <Location>
   <Longitude>-0.058275</Longitude>
   <Latitude>51.339540</Latitude>
   </Location>
   </AnnotatedStopPointRef>
   <AnnotatedStopPointRef>
   <StopPointRef>490006230W</StopPointRef>
   <CommonName>Selsdon Library</CommonName>
   <Location>
   <Longitude>-0.061904</Longitude>
   <Latitude>51.342418</Latitude>
   </Location>
   </AnnotatedStopPointRef>
   <AnnotatedStopPointRef>
   <StopPointRef>490011990N</StopPointRef>
   <CommonName>Selsdon Library</CommonName>
   <Location>
   <Longitude>-0.062952</Longitude>
   <Latitude>51.342769</Latitude>
   </Location>
   </AnnotatedStopPointRef>
   <AnnotatedStopPointRef>
   <StopPointRef>40004409809E</StopPointRef>
   <CommonName>Alderstead Lane</CommonName>
   <LocalityName>Reigate and Banstead</LocalityName>
   <Location>
   <Longitude>-0.139158</Longitude>
   <Latitude>51.277127</Latitude>
   </Location>
   </AnnotatedStopPointRef>
   <AnnotatedStopPointRef>
   <StopPointRef>40004409203B</StopPointRef>
   <CommonName>Alderstead Heath</CommonName>
   <Location>
   <Longitude>-0.137942</Longitude>
   <Latitude>51.280382</Latitude>
   </Location>
   </AnnotatedStopPointRef>
   <AnnotatedStopPointRef>
   <StopPointRef>40004410105B</StopPointRef>
   <CommonName>Badgers Walk</CommonName>
   <Location>
   <Longitude>-0.086230</Longitude>
   <Latitude>51.305112</Latitude>
   </Location>
   </AnnotatedStopPointRef>
   <AnnotatedStopPointRef>
   <StopPointRef>40004410311B</StopPointRef>
   <CommonName>Banstead Road</CommonName>
   <Location>
   <Longitude>-0.096342</Longitude>
   <Latitude>51.290845</Latitude>
   </Location>
   </AnnotatedStopPointRef>
   <AnnotatedStopPointRef>
   <StopPointRef>40004410102B</StopPointRef>
   <CommonName>Buxton Lane, Ninehams Road</CommonName>
   <Location>
   <Longitude>-0.092240</Longitude>
   <Latitude>51.296725</Latitude>
   </Location>
   </AnnotatedStopPointRef>
   <AnnotatedStopPointRef>
   <StopPointRef>40004410098B</StopPointRef>
   <CommonName>Chaldon, Crossroads</CommonName>
   <Location>
   <Longitude>-0.120768</Longitude>
   <Latitude>51.278490</Latitude>
   </Location>
   </AnnotatedStopPointRef>
   <AnnotatedStopPointRef>
   <StopPointRef>40004410095B</StopPointRef>
   <CommonName>Chaldon Common Road</CommonName>
   <Location>
   <Longitude>-0.105889</Longitude>
   <Latitude>51.281243</Latitude>
   </Location>
   </AnnotatedStopPointRef>
   <AnnotatedStopPointRef>
   <StopPointRef>40004409120B</StopPointRef>
   <CommonName>Chart Lane</CommonName>
   <Location>
   <Longitude>-0.196825</Longitude>
   <Latitude>51.237848</Latitude>
   </Location>
   </AnnotatedStopPointRef>
   <AnnotatedStopPointRef>
   <StopPointRef>40004409195B</StopPointRef>
   <CommonName>Church Hill</CommonName>
   <Location>
   <Longitude>-0.150787</Longitude>
   <Latitude>51.267961</Latitude>
   </Location>
   </AnnotatedStopPointRef>
   <AnnotatedStopPointRef>
   <StopPointRef>40004410007B</StopPointRef>
   <CommonName>Clovelly Avenue</CommonName>
   <Location>
   <Longitude>-0.066423</Longitude>
   <Latitude>51.303679</Latitude>
   </Location>
   </AnnotatedStopPointRef>
   <AnnotatedStopPointRef>
   <StopPointRef>40004410144A</StopPointRef>
   <CommonName>Cranmer Court</CommonName>
   <LocalityName>Tandridge</LocalityName>
   <Location>
   <Longitude>-0.043806</Longitude>
   <Latitude>51.327559</Latitude>
   </Location>
   </AnnotatedStopPointRef>
   <AnnotatedStopPointRef>
   <StopPointRef>40004409809D</StopPointRef>
   <CommonName>Dean Lane</CommonName>
   <LocalityName>Reigate and Banstead</LocalityName>
   <Location>
   <Longitude>-0.134244</Longitude>
   <Latitude>51.280149</Latitude>
   </Location>
   </AnnotatedStopPointRef>
   <AnnotatedStopPointRef>
   <StopPointRef>40004410097B</StopPointRef>
   <CommonName>Doctors Lane</CommonName>
   <Location>
   <Longitude>-0.114318</Longitude>
   <Latitude>51.280001</Latitude>
   </Location>
   </AnnotatedStopPointRef>
   <AnnotatedStopPointRef>
   <StopPointRef>40004409129B</StopPointRef>
   <CommonName>Donyngs Leisure Centre</CommonName>
   <Location>
   <Longitude>-0.178352</Longitude>
   <Latitude>51.239301</Latitude>
   </Location>
   </AnnotatedStopPointRef>
   <AnnotatedStopPointRef>
   <StopPointRef>40004409191B</StopPointRef>
   <CommonName>East Surrey College</CommonName>
   <Location>
   <Longitude>-0.164837</Longitude>
   <Latitude>51.252697</Latitude>
   </Location>
   </AnnotatedStopPointRef>
   <AnnotatedStopPointRef>
   <StopPointRef>40004409191D</StopPointRef>
   <CommonName>East Surrey College, Gatton Point</CommonName>
   <Location>
   <Longitude>-0.165999</Longitude>
   <Latitude>51.253694</Latitude>
   </Location>
   </AnnotatedStopPointRef>
   <AnnotatedStopPointRef>
   <StopPointRef>40004410150B</StopPointRef>
   <CommonName>Green Lane</CommonName>
   <Location>
   <Longitude>-0.045371</Longitude>
   <Latitude>51.314038</Latitude>
   </Location>
   </AnnotatedStopPointRef>
   <AnnotatedStopPointRef>
   <StopPointRef>40004410227B</StopPointRef>
   <CommonName>Green Hill Lane</CommonName>
   <Location>
   <Longitude>-0.044198</Longitude>
   <Latitude>51.310702</Latitude>
   </Location>
   </AnnotatedStopPointRef>
   <AnnotatedStopPointRef>
   <StopPointRef>40004410090B</StopPointRef>
   <CommonName>Hambledon Road</CommonName>
   <Location>
   <Longitude>-0.097632</Longitude>
   <Latitude>51.286997</Latitude>
   </Location>
   </AnnotatedStopPointRef>
   <AnnotatedStopPointRef>
   <StopPointRef>490007928S1</StopPointRef>
   <CommonName>Hawthorn Crescent</CommonName>
   <Location>
   <Longitude>-0.058174</Longitude>
   <Latitude>51.339666</Latitude>
   </Location>
   </AnnotatedStopPointRef>
   <AnnotatedStopPointRef>
   <StopPointRef>40004410159B</StopPointRef>
   <CommonName>Hillbury Road</CommonName>
   <Location>
   <Longitude>-0.059651</Longitude>
   <Latitude>51.305907</Latitude>
   </Location>
   </AnnotatedStopPointRef>
   <AnnotatedStopPointRef>
   <StopPointRef>40004410158B</StopPointRef>
   <CommonName>Homefield Road</CommonName>
   <Location>
   <Longitude>-0.062378</Longitude>
   <Latitude>51.304407</Latitude>
   </Location>
   </AnnotatedStopPointRef>
   <AnnotatedStopPointRef>
   <StopPointRef>40004410104B</StopPointRef>
   <CommonName>Kenley Aerodrome</CommonName>
   <Location>
   <Longitude>-0.088540</Longitude>
   <Latitude>51.299718</Latitude>
   </Location>
   </AnnotatedStopPointRef>
   <AnnotatedStopPointRef>
   <StopPointRef>40004409175B</StopPointRef>
   <CommonName>Linkfield Lane</CommonName>
   <Location>
   <Longitude>-0.166732</Longitude>
   <Latitude>51.245827</Latitude>
   </Location>
   </AnnotatedStopPointRef>
   <AnnotatedStopPointRef>
   <StopPointRef>40004410100B</StopPointRef>
   <CommonName>MaCaulay Road</CommonName>
   <Location>
   <Longitude>-0.090104</Longitude>
   <Latitude>51.292607</Latitude>
   </Location>
   </AnnotatedStopPointRef>
   <AnnotatedStopPointRef>
   <StopPointRef>40004410153B</StopPointRef>
   <CommonName>Marks Road</CommonName>
   <Location>
   <Longitude>-0.047845</Longitude>
   <Latitude>51.307593</Latitude>
   </Location>
   </AnnotatedStopPointRef>
   <AnnotatedStopPointRef>
   <StopPointRef>40004409194B</StopPointRef>
   <CommonName>Merstham, The Feathers</CommonName>
   <Location>
   <Longitude>-0.152143</Longitude>
   <Latitude>51.263834</Latitude>
   </Location>
   </AnnotatedStopPointRef>
   <AnnotatedStopPointRef>
   <StopPointRef>40004410310B</StopPointRef>
   <CommonName>Milton Road</CommonName>
   <Location>
   <Longitude>-0.099955</Longitude>
   <Latitude>51.292113</Latitude>
   </Location>
   </AnnotatedStopPointRef>
   <AnnotatedStopPointRef>
   <StopPointRef>40004409188B</StopPointRef>
   <CommonName>Monson Road</CommonName>
   <Location>
   <Longitude>-0.165877</Longitude>
   <Latitude>51.248911</Latitude>
   </Location>
   </AnnotatedStopPointRef>
   <AnnotatedStopPointRef>
   <StopPointRef>40004410096B</StopPointRef>
   <CommonName>Mount Avenue</CommonName>
   <Location>
   <Longitude>-0.107953</Longitude>
   <Latitude>51.280865</Latitude>
   </Location>
   </AnnotatedStopPointRef>
   <AnnotatedStopPointRef>
   <StopPointRef>40004409190B</StopPointRef>
   <CommonName>Northmead</CommonName>
   <Location>
   <Longitude>-0.171669</Longitude>
   <Latitude>51.251632</Latitude>
   </Location>
   </AnnotatedStopPointRef>
   <AnnotatedStopPointRef>
   <StopPointRef>40004410155B</StopPointRef>
   <CommonName>Oakley Road</CommonName>
   <Location>
   <Longitude>-0.074410</Longitude>
   <Latitude>51.307188</Latitude>
   </Location>
   </AnnotatedStopPointRef>
   <AnnotatedStopPointRef>
   <StopPointRef>40004410157B</StopPointRef>
   <CommonName>Paddock Walk</CommonName>
   <Location>
   <Longitude>-0.068531</Longitude>
   <Latitude>51.304013</Latitude>
   </Location>
   </AnnotatedStopPointRef>
   <AnnotatedStopPointRef>
   <StopPointRef>40004410228B</StopPointRef>
   <CommonName>Parsonage Close</CommonName>
   <Location>
   <Longitude>-0.043890</Longitude>
   <Latitude>51.316375</Latitude>
   </Location>
   </AnnotatedStopPointRef>
   <AnnotatedStopPointRef>
   <StopPointRef>40004409122B</StopPointRef>
   <CommonName>Police Station</CommonName>
   <Location>
   <Longitude>-0.189061</Longitude>
   <Latitude>51.237100</Latitude>
   </Location>
   </AnnotatedStopPointRef>
   <AnnotatedStopPointRef>
   <StopPointRef>40004410101B</StopPointRef>
   <CommonName>Portley Lane</CommonName>
   <Location>
   <Longitude>-0.090505</Longitude>
   <Latitude>51.294288</Latitude>
   </Location>
   </AnnotatedStopPointRef>
   <AnnotatedStopPointRef>
   <StopPointRef>40004410226B</StopPointRef>
   <CommonName>Radio Agency</CommonName>
   <Location>
   <Longitude>-0.087808</Longitude>
   <Latitude>51.302272</Latitude>
   </Location>
   </AnnotatedStopPointRef>
   <AnnotatedStopPointRef>
   <StopPointRef>40004410044A</StopPointRef>
   <CommonName>Banstead Road, Recreation Ground</CommonName>
   <Location>
   <Longitude>-0.090033</Longitude>
   <Latitude>51.290440</Latitude>
   </Location>
   </AnnotatedStopPointRef>
   <AnnotatedStopPointRef>
   <StopPointRef>40004409165A</StopPointRef>
   <CommonName>Redhill High Street</CommonName>
   <Location>
   <Longitude>-0.168841</Longitude>
   <Latitude>51.238552</Latitude>
   </Location>
   </AnnotatedStopPointRef>
   <AnnotatedStopPointRef>
   <StopPointRef>40004409189B</StopPointRef>
   <CommonName>Redhill, South Mead</CommonName>
   <Location>
   <Longitude>-0.170034</Longitude>
   <Latitude>51.250023</Latitude>
   </Location>
   </AnnotatedStopPointRef>
   <AnnotatedStopPointRef>
   <StopPointRef>40004409234A</StopPointRef>
   <CommonName>Reigate College</CommonName>
   <LocalityName>Reigate and Banstead</LocalityName>
   <Location>
   <Longitude>-0.204050</Longitude>
   <Latitude>51.240944</Latitude>
   </Location>
   </AnnotatedStopPointRef>
   <AnnotatedStopPointRef>
   <StopPointRef>40004409121B</StopPointRef>
   <CommonName>Reigate Grammar School</CommonName>
   <Location>
   <Longitude>-0.192627</Longitude>
   <Latitude>51.237250</Latitude>
   </Location>
   </AnnotatedStopPointRef>
   <AnnotatedStopPointRef>
   <StopPointRef>40004406970B</StopPointRef>
   <CommonName>Ridge House</CommonName>
   <LocalityName>Reigate and Banstead</LocalityName>
   <Location>
   <Longitude>-0.141993</Longitude>
   <Latitude>51.274168</Latitude>
   </Location>
   </AnnotatedStopPointRef>
   <AnnotatedStopPointRef>
   <StopPointRef>40004409192B</StopPointRef>
   <CommonName>Rocky Lane</CommonName>
   <Location>
   <Longitude>-0.159355</Longitude>
   <Latitude>51.256116</Latitude>
   </Location>
   </AnnotatedStopPointRef>
   <AnnotatedStopPointRef>
   <StopPointRef>40004410094B</StopPointRef>
   <CommonName>Roffes Lane</CommonName>
   <Location>
   <Longitude>-0.100169</Longitude>
   <Latitude>51.282736</Latitude>
   </Location>
   </AnnotatedStopPointRef>
   <AnnotatedStopPointRef>
   <StopPointRef>40004410801B</StopPointRef>
   <CommonName>Rook Lane</CommonName>
   <Location>
   <Longitude>-0.125470</Longitude>
   <Latitude>51.278713</Latitude>
   </Location>
   </AnnotatedStopPointRef>
   <AnnotatedStopPointRef>
   <StopPointRef>40004410103B</StopPointRef>
   <CommonName>Salmons Lane Green</CommonName>
   <Location>
   <Longitude>-0.089358</Longitude>
   <Latitude>51.297480</Latitude>
   </Location>
   </AnnotatedStopPointRef>
   <AnnotatedStopPointRef>
   <StopPointRef>490006230S</StopPointRef>
   <CommonName>Selsdon Library</CommonName>
   <Location>
   <Longitude>-0.061875</Longitude>
   <Latitude>51.342463</Latitude>
   </Location>
   </AnnotatedStopPointRef>
   <AnnotatedStopPointRef>
   <StopPointRef>490011991S1</StopPointRef>
   <CommonName>Selsdon Nature Reserve</CommonName>
   <Location>
   <Longitude>-0.053340</Longitude>
   <Latitude>51.336823</Latitude>
   </Location>
   </AnnotatedStopPointRef>
   <AnnotatedStopPointRef>
   <StopPointRef>40004409196B</StopPointRef>
   <CommonName>London Road North, Shepherd's Hill</CommonName>
   <Location>
   <Longitude>-0.151537</Longitude>
   <Latitude>51.272438</Latitude>
   </Location>
   </AnnotatedStopPointRef>
   <AnnotatedStopPointRef>
   <StopPointRef>40004409809F</StopPointRef>
   <CommonName>Shepherd's Hill</CommonName>
   <LocalityName>Reigate and Banstead</LocalityName>
   <Location>
   <Longitude>-0.146665</Longitude>
   <Latitude>51.273150</Latitude>
   </Location>
   </AnnotatedStopPointRef>
   <AnnotatedStopPointRef>
   <StopPointRef>40004409342A</StopPointRef>
   <CommonName>St Bede's School</CommonName>
   <Location>
   <Longitude>-0.174718</Longitude>
   <Latitude>51.249921</Latitude>
   </Location>
   </AnnotatedStopPointRef>
   <AnnotatedStopPointRef>
   <StopPointRef>40004409166A</StopPointRef>
   <CommonName>St Matthews Road</CommonName>
   <Location>
   <Longitude>-0.171823</Longitude>
   <Latitude>51.240394</Latitude>
   </Location>
   </AnnotatedStopPointRef>
   <AnnotatedStopPointRef>
   <StopPointRef>40004410151B</StopPointRef>
   <CommonName>Sunnybank</CommonName>
   <Location>
   <Longitude>-0.042680</Longitude>
   <Latitude>51.308993</Latitude>
   </Location>
   </AnnotatedStopPointRef>
   <AnnotatedStopPointRef>
   <StopPointRef>40004409193B</StopPointRef>
   <CommonName>The Grove</CommonName>
   <Location>
   <Longitude>-0.155176</Longitude>
   <Latitude>51.259876</Latitude>
   </Location>
   </AnnotatedStopPointRef>
   <AnnotatedStopPointRef>
   <StopPointRef>40004410091B</StopPointRef>
   <CommonName>The Village</CommonName>
   <Location>
   <Longitude>-0.101116</Longitude>
   <Latitude>51.291843</Latitude>
   </Location>
   </AnnotatedStopPointRef>
   <AnnotatedStopPointRef>
   <StopPointRef>40004410154B</StopPointRef>
   <CommonName>Upper Warlingham Station</CommonName>
   <Location>
   <Longitude>-0.077508</Longitude>
   <Latitude>51.308770</Latitude>
   </Location>
   </AnnotatedStopPointRef>
   <AnnotatedStopPointRef>
   <StopPointRef>40004409334B</StopPointRef>
   <CommonName>Victoria Alms Houses</CommonName>
   <Location>
   <Longitude>-0.165350</Longitude>
   <Latitude>51.250862</Latitude>
   </Location>
   </AnnotatedStopPointRef>
   <AnnotatedStopPointRef>
   <StopPointRef>40004410152B</StopPointRef>
   <CommonName>Warlingham Sainsburys</CommonName>
   <Location>
   <Longitude>-0.045034</Longitude>
   <Latitude>51.307259</Latitude>
   </Location>
   </AnnotatedStopPointRef>
   <AnnotatedStopPointRef>
   <StopPointRef>40004410161B</StopPointRef>
   <CommonName>Warlingham Green</CommonName>
   <Location>
   <Longitude>-0.055618</Longitude>
   <Latitude>51.309403</Latitude>
   </Location>
   </AnnotatedStopPointRef>
   <AnnotatedStopPointRef>
   <StopPointRef>40004410156B</StopPointRef>
   <CommonName>Westview Road</CommonName>
   <Location>
   <Longitude>-0.070036</Longitude>
   <Latitude>51.305532</Latitude>
   </Location>
   </AnnotatedStopPointRef>
   <AnnotatedStopPointRef>
   <StopPointRef>40004410106A</StopPointRef>
   <CommonName>Whyteleafe Station</CommonName>
   <Location>
   <Longitude>-0.080247</Longitude>
   <Latitude>51.309661</Latitude>
   </Location>
   </AnnotatedStopPointRef>
   <AnnotatedStopPointRef>
   <StopPointRef>40004410038A</StopPointRef>
   <CommonName>Yorke Gate</CommonName>
   <Location>
   <Longitude>-0.099209</Longitude>
   <Latitude>51.289191</Latitude>
   </Location>
   </AnnotatedStopPointRef>
   </StopPoints>
   <RouteSections>
   <RouteSection id="bQN_baZP">
   <RouteLink id="i411_11_1">
   <From>
   <StopPointRef>40004409100A</StopPointRef>
   </From>
   <To>
   <StopPointRef>40004409234B</StopPointRef>
   </To>
   <Direction>inbound</Direction>
   <Track>
   <Mapping>
   <Location>
   <Longitude>-0.209702</Longitude>
   <Latitude>51.238538</Latitude>
   </Location>
   <Location>
   <Longitude>-0.209516</Longitude>
   <Latitude>51.238745</Latitude>
   </Location>
   <Location>
   <Longitude>-0.209402</Longitude>
   <Latitude>51.238934</Latitude>
   </Location>
   <Location>
   <Longitude>-0.209245</Longitude>
   <Latitude>51.239069</Latitude>
   </Location>
   <Location>
   <Longitude>-0.208844</Longitude>
   <Latitude>51.239348</Latitude>
   </Location>
   <Location>
   <Longitude>-0.208258</Longitude>
   <Latitude>51.239591</Latitude>
   </Location>
   <Location>
   <Longitude>-0.207943</Longitude>
   <Latitude>51.239690</Latitude>
   </Location>
   <Location>
   <Longitude>-0.207700</Longitude>
   <Latitude>51.239762</Latitude>
   </Location>
   <Location>
   <Longitude>-0.206798</Longitude>
   <Latitude>51.239871</Latitude>
   </Location>
   <Location>
   <Longitude>-0.206411</Longitude>
   <Latitude>51.239997</Latitude>
   </Location>
   <Location>
   <Longitude>-0.206068</Longitude>
   <Latitude>51.240205</Latitude>
   </Location>
   <Location>
   <Longitude>-0.205768</Longitude>
   <Latitude>51.240448</Latitude>
   </Location>
   <Location>
   <Longitude>-0.205611</Longitude>
   <Latitude>51.240646</Latitude>
   </Location>
   <Location>
   <Longitude>-0.205582</Longitude>
   <Latitude>51.240691</Latitude>
   </Location>
   <Location>
   <Longitude>-0.205369</Longitude>
   <Latitude>51.241284</Latitude>
   </Location>
   <Location>
   <Longitude>-0.204480</Longitude>
   <Latitude>51.241078</Latitude>
   </Location>
   <Location>
   <Longitude>-0.204409</Longitude>
   <Latitude>51.241069</Latitude>
   </Location>
   <Location>
   <Longitude>-0.204351</Longitude>
   <Latitude>51.241051</Latitude>
   </Location>
   <Location>
   <Longitude>-0.203807</Longitude>
   <Latitude>51.240926</Latitude>
   </Location>
   </Mapping>
   </Track>
   </RouteLink>
   <RouteLink id="i411_11_2">
   <From>
   <StopPointRef>40004409234B</StopPointRef>
   </From>
   <To>
   <StopPointRef>40004409120A</StopPointRef>
   </To>
   <Direction>inbound</Direction>
   <Track>
   <Mapping>
   <Location>
   <Longitude>-0.203807</Longitude>
   <Latitude>51.240926</Latitude>
   </Location>
   <Location>
   <Longitude>-0.202875</Longitude>
   <Latitude>51.240720</Latitude>
   </Location>
   <Location>
   <Longitude>-0.202288</Longitude>
   <Latitude>51.240658</Latitude>
   </Location>
   <Location>
   <Longitude>-0.201371</Longitude>
   <Latitude>51.240649</Latitude>
   </Location>
   <Location>
   <Longitude>-0.200798</Longitude>
   <Latitude>51.240650</Latitude>
   </Location>
   <Location>
   <Longitude>-0.200010</Longitude>
   <Latitude>51.240579</Latitude>
   </Location>
   <Location>
   <Longitude>-0.199466</Longitude>
   <Latitude>51.240489</Latitude>
   </Location>
   <Location>
   <Longitude>-0.199208</Longitude>
   <Latitude>51.240454</Latitude>
   </Location>
   <Location>
   <Longitude>-0.198735</Longitude>
   <Latitude>51.240328</Latitude>
   </Location>
   <Location>
   <Longitude>-0.198262</Longitude>
   <Latitude>51.240194</Latitude>
   </Location>
   <Location>
   <Longitude>-0.198004</Longitude>
   <Latitude>51.240167</Latitude>
   </Location>
   <Location>
   <Longitude>-0.197216</Longitude>
   <Latitude>51.240078</Latitude>
   </Location>
   <Location>
   <Longitude>-0.197445</Longitude>
   <Latitude>51.239853</Latitude>
   </Location>
   <Location>
   <Longitude>-0.198717</Longitude>
   <Latitude>51.238539</Latitude>
   </Location>
   <Location>
   <Longitude>-0.198831</Longitude>
   <Latitude>51.238449</Latitude>
   </Location>
   <Location>
   <Longitude>-0.198888</Longitude>
   <Latitude>51.238341</Latitude>
   </Location>
   <Location>
   <Longitude>-0.198874</Longitude>
   <Latitude>51.238269</Latitude>
   </Location>
   <Location>
   <Longitude>-0.198787</Longitude>
   <Latitude>51.238143</Latitude>
   </Location>
   <Location>
   <Longitude>-0.198544</Longitude>
   <Latitude>51.238081</Latitude>
   </Location>
   <Location>
   <Longitude>-0.198143</Longitude>
   <Latitude>51.238027</Latitude>
   </Location>
   <Location>
   <Longitude>-0.197455</Longitude>
   <Latitude>51.237965</Latitude>
   </Location>
   <Location>
   <Longitude>-0.197154</Longitude>
   <Latitude>51.237920</Latitude>
   </Location>
   </Mapping>
   </Track>
   </RouteLink>
   <RouteLink id="i411_11_3">
   <From>
   <StopPointRef>40004409120A</StopPointRef>
   </From>
   <To>
   <StopPointRef>40004409121A</StopPointRef>
   </To>
   <Direction>inbound</Direction>
   <Track>
   <Mapping>
   <Location>
   <Longitude>-0.197154</Longitude>
   <Latitude>51.237920</Latitude>
   </Location>
   <Location>
   <Longitude>-0.193458</Longitude>
   <Latitude>51.237384</Latitude>
   </Location>
   <Location>
   <Longitude>-0.192957</Longitude>
   <Latitude>51.237312</Latitude>
   </Location>
   <Location>
   <Longitude>-0.191897</Longitude>
   <Latitude>51.237223</Latitude>
   </Location>
   </Mapping>
   </Track>
   </RouteLink>
   <RouteLink id="i411_11_4">
   <From>
   <StopPointRef>40004409121A</StopPointRef>
   </From>
   <To>
   <StopPointRef>40004409122A</StopPointRef>
   </To>
   <Direction>inbound</Direction>
   <Track>
   <Mapping>
   <Location>
   <Longitude>-0.191897</Longitude>
   <Latitude>51.237223</Latitude>
   </Location>
   <Location>
   <Longitude>-0.190880</Longitude>
   <Latitude>51.237143</Latitude>
   </Location>
   <Location>
   <Longitude>-0.189863</Longitude>
   <Latitude>51.237126</Latitude>
   </Location>
   <Location>
   <Longitude>-0.189089</Longitude>
   <Latitude>51.237118</Latitude>
   </Location>
   <Location>
   <Longitude>-0.188774</Longitude>
   <Latitude>51.237118</Latitude>
   </Location>
   <Location>
   <Longitude>-0.188531</Longitude>
   <Latitude>51.237118</Latitude>
   </Location>
   </Mapping>
   </Track>
   </RouteLink>
   <RouteLink id="i411_11_5">
   <From>
   <StopPointRef>40004409122A</StopPointRef>
   </From>
   <To>
   <StopPointRef>40004409128A</StopPointRef>
   </To>
   <Direction>inbound</Direction>
   <Track>
   <Mapping>
   <Location>
   <Longitude>-0.188531</Longitude>
   <Latitude>51.237118</Latitude>
   </Location>
   <Location>
   <Longitude>-0.188030</Longitude>
   <Latitude>51.237118</Latitude>
   </Location>
   <Location>
   <Longitude>-0.187371</Longitude>
   <Latitude>51.237155</Latitude>
   </Location>
   <Location>
   <Longitude>-0.186784</Longitude>
   <Latitude>51.237245</Latitude>
   </Location>
   <Location>
   <Longitude>-0.186097</Longitude>
   <Latitude>51.237381</Latitude>
   </Location>
   <Location>
   <Longitude>-0.185567</Longitude>
   <Latitude>51.237525</Latitude>
   </Location>
   <Location>
   <Longitude>-0.184708</Longitude>
   <Latitude>51.237687</Latitude>
   </Location>
   <Location>
   <Longitude>-0.184651</Longitude>
   <Latitude>51.237705</Latitude>
   </Location>
   <Location>
   <Longitude>-0.184006</Longitude>
   <Latitude>51.237751</Latitude>
   </Location>
   <Location>
   <Longitude>-0.183763</Longitude>
   <Latitude>51.237733</Latitude>
   </Location>
   <Location>
   <Longitude>-0.183591</Longitude>
   <Latitude>51.237724</Latitude>
   </Location>
   </Mapping>
   </Track>
   </RouteLink>
   <RouteLink id="i411_11_6">
   <From>
   <StopPointRef>40004409128A</StopPointRef>
   </From>
   <To>
   <StopPointRef>40004409129A</StopPointRef>
   </To>
   <Direction>inbound</Direction>
   <Track>
   <Mapping>
   <Location>
   <Longitude>-0.183591</Longitude>
   <Latitude>51.237724</Latitude>
   </Location>
   <Location>
   <Longitude>-0.183390</Longitude>
   <Latitude>51.237715</Latitude>
   </Location>
   <Location>
   <Longitude>-0.182889</Longitude>
   <Latitude>51.237581</Latitude>
   </Location>
   <Location>
   <Longitude>-0.182731</Longitude>
   <Latitude>51.237518</Latitude>
   </Location>
   <Location>
   <Longitude>-0.182416</Longitude>
   <Latitude>51.237491</Latitude>
   </Location>
   <Location>
   <Longitude>-0.182359</Longitude>
   <Latitude>51.237482</Latitude>
   </Location>
   <Location>
   <Longitude>-0.182287</Longitude>
   <Latitude>51.237473</Latitude>
   </Location>
   <Location>
   <Longitude>-0.182187</Longitude>
   <Latitude>51.237482</Latitude>
   </Location>
   <Location>
   <Longitude>-0.182087</Longitude>
   <Latitude>51.237501</Latitude>
   </Location>
   <Location>
   <Longitude>-0.181958</Longitude>
   <Latitude>51.237537</Latitude>
   </Location>
   <Location>
   <Longitude>-0.181886</Longitude>
   <Latitude>51.237573</Latitude>
   </Location>
   <Location>
   <Longitude>-0.181858</Longitude>
   <Latitude>51.237591</Latitude>
   </Location>
   <Location>
   <Longitude>-0.181772</Longitude>
   <Latitude>51.237654</Latitude>
   </Location>
   <Location>
   <Longitude>-0.181729</Longitude>
   <Latitude>51.237690</Latitude>
   </Location>
   <Location>
   <Longitude>-0.181615</Longitude>
   <Latitude>51.237807</Latitude>
   </Location>
   <Location>
   <Longitude>-0.181515</Longitude>
   <Latitude>51.237888</Latitude>
   </Location>
   <Location>
   <Longitude>-0.181100</Longitude>
   <Latitude>51.238418</Latitude>
   </Location>
   <Location>
   <Longitude>-0.180914</Longitude>
   <Latitude>51.238553</Latitude>
   </Location>
   <Location>
   <Longitude>-0.180800</Longitude>
   <Latitude>51.238607</Latitude>
   </Location>
   <Location>
   <Longitude>-0.180757</Longitude>
   <Latitude>51.238643</Latitude>
   </Location>
   <Location>
   <Longitude>-0.180313</Longitude>
   <Latitude>51.238742</Latitude>
   </Location>
   <Location>
   <Longitude>-0.179898</Longitude>
   <Latitude>51.238815</Latitude>
   </Location>
   <Location>
   <Longitude>-0.179526</Longitude>
   <Latitude>51.238896</Latitude>
   </Location>
   <Location>
   <Longitude>-0.179025</Longitude>
   <Latitude>51.239067</Latitude>
   </Location>
   <Location>
   <Longitude>-0.178438</Longitude>
   <Latitude>51.239310</Latitude>
   </Location>
   <Location>
   <Longitude>-0.178381</Longitude>
   <Latitude>51.239328</Latitude>
   </Location>
   <Location>
   <Longitude>-0.178238</Longitude>
   <Latitude>51.239409</Latitude>
   </Location>
   <Location>
   <Longitude>-0.178195</Longitude>
   <Latitude>51.239436</Latitude>
   </Location>
   <Location>
   <Longitude>-0.178023</Longitude>
   <Latitude>51.239526</Latitude>
   </Location>
   <Location>
   <Longitude>-0.177994</Longitude>
   <Latitude>51.239544</Latitude>
   </Location>
   </Mapping>
   </Track>
   </RouteLink>
   <RouteLink id="i411_11_7">
   <From>
   <StopPointRef>40004409129A</StopPointRef>
   </From>
   <To>
   <StopPointRef>40004409130A</StopPointRef>
   </To>
   <Direction>inbound</Direction>
   <Track>
   <Mapping>
   <Location>
   <Longitude>-0.177994</Longitude>
   <Latitude>51.239544</Latitude>
   </Location>
   <Location>
   <Longitude>-0.177565</Longitude>
   <Latitude>51.239787</Latitude>
   </Location>
   <Location>
   <Longitude>-0.177551</Longitude>
   <Latitude>51.239814</Latitude>
   </Location>
   <Location>
   <Longitude>-0.177322</Longitude>
   <Latitude>51.239985</Latitude>
   </Location>
   <Location>
   <Longitude>-0.177165</Longitude>
   <Latitude>51.240165</Latitude>
   </Location>
   <Location>
   <Longitude>-0.177122</Longitude>
   <Latitude>51.240255</Latitude>
   </Location>
   <Location>
   <Longitude>-0.177036</Longitude>
   <Latitude>51.240300</Latitude>
   </Location>
   <Location>
   <Longitude>-0.176950</Longitude>
   <Latitude>51.240309</Latitude>
   </Location>
   <Location>
   <Longitude>-0.176836</Longitude>
   <Latitude>51.240291</Latitude>
   </Location>
   <Location>
   <Longitude>-0.176764</Longitude>
   <Latitude>51.240228</Latitude>
   </Location>
   <Location>
   <Longitude>-0.176563</Longitude>
   <Latitude>51.240166</Latitude>
   </Location>
   <Location>
   <Longitude>-0.174329</Longitude>
   <Latitude>51.240356</Latitude>
   </Location>
   <Location>
   <Longitude>-0.173570</Longitude>
   <Latitude>51.240392</Latitude>
   </Location>
   <Location>
   <Longitude>-0.172210</Longitude>
   <Latitude>51.240420</Latitude>
   </Location>
   </Mapping>
   </Track>
   </RouteLink>
   <RouteLink id="i411_11_8">
   <From>
   <StopPointRef>40004409130A</StopPointRef>
   </From>
   <To>
   <StopPointRef>40004406938A</StopPointRef>
   </To>
   <Direction>inbound</Direction>
   <Track>
   <Mapping>
   <Location>
   <Longitude>-0.172210</Longitude>
   <Latitude>51.240420</Latitude>
   </Location>
   <Location>
   <Longitude>-0.171579</Longitude>
   <Latitude>51.240439</Latitude>
   </Location>
   <Location>
   <Longitude>-0.171350</Longitude>
   <Latitude>51.240448</Latitude>
   </Location>
   <Location>
   <Longitude>-0.171336</Longitude>
   <Latitude>51.240331</Latitude>
   </Location>
   <Location>
   <Longitude>-0.171321</Longitude>
   <Latitude>51.240214</Latitude>
   </Location>
   <Location>
   <Longitude>-0.171307</Longitude>
   <Latitude>51.240142</Latitude>
   </Location>
   <Location>
   <Longitude>-0.171149</Longitude>
   <Latitude>51.239881</Latitude>
   </Location>
   <Location>
   <Longitude>-0.171077</Longitude>
   <Latitude>51.239756</Latitude>
   </Location>
   <Location>
   <Longitude>-0.171005</Longitude>
   <Latitude>51.239657</Latitude>
   </Location>
   <Location>
   <Longitude>-0.170804</Longitude>
   <Latitude>51.239324</Latitude>
   </Location>
   <Location>
   <Longitude>-0.170704</Longitude>
   <Latitude>51.239243</Latitude>
   </Location>
   <Location>
   <Longitude>-0.170575</Longitude>
   <Latitude>51.239199</Latitude>
   </Location>
   <Location>
   <Longitude>-0.169343</Longitude>
   <Latitude>51.239127</Latitude>
   </Location>
   <Location>
   <Longitude>-0.168899</Longitude>
   <Latitude>51.239092</Latitude>
   </Location>
   <Location>
   <Longitude>-0.168885</Longitude>
   <Latitude>51.239092</Latitude>
   </Location>
   <Location>
   <Longitude>-0.168856</Longitude>
   <Latitude>51.239083</Latitude>
   </Location>
   <Location>
   <Longitude>-0.168842</Longitude>
   <Latitude>51.239074</Latitude>
   </Location>
   <Location>
   <Longitude>-0.168799</Longitude>
   <Latitude>51.239056</Latitude>
   </Location>
   <Location>
   <Longitude>-0.168684</Longitude>
   <Latitude>51.238966</Latitude>
   </Location>
   <Location>
   <Longitude>-0.168798</Longitude>
   <Latitude>51.238588</Latitude>
   </Location>
   </Mapping>
   </Track>
   </RouteLink>
   <RouteLink id="i411_11_9">
   <From>
   <StopPointRef>40004406938A</StopPointRef>
   </From>
   <To>
   <StopPointRef>40004409222C</StopPointRef>
   </To>
   <Direction>inbound</Direction>
   <Track>
   <Mapping>
   <Location>
   <Longitude>-0.168798</Longitude>
   <Latitude>51.238588</Latitude>
   </Location>
   <Location>
   <Longitude>-0.168898</Longitude>
   <Latitude>51.238301</Latitude>
   </Location>
   <Location>
   <Longitude>-0.168898</Longitude>
   <Latitude>51.238247</Latitude>
   </Location>
   <Location>
   <Longitude>-0.168883</Longitude>
   <Latitude>51.238175</Latitude>
   </Location>
   <Location>
   <Longitude>-0.168840</Longitude>
   <Latitude>51.238103</Latitude>
   </Location>
   <Location>
   <Longitude>-0.168811</Longitude>
   <Latitude>51.238076</Latitude>
   </Location>
   <Location>
   <Longitude>-0.168783</Longitude>
   <Latitude>51.238040</Latitude>
   </Location>
   <Location>
   <Longitude>-0.168697</Longitude>
   <Latitude>51.238058</Latitude>
   </Location>
   <Location>
   <Longitude>-0.168597</Longitude>
   <Latitude>51.238031</Latitude>
   </Location>
   <Location>
   <Longitude>-0.168539</Longitude>
   <Latitude>51.237977</Latitude>
   </Location>
   <Location>
   <Longitude>-0.167981</Longitude>
   <Latitude>51.238373</Latitude>
   </Location>
   <Location>
   <Longitude>-0.167567</Longitude>
   <Latitude>51.238859</Latitude>
   </Location>
   <Location>
   <Longitude>-0.167310</Longitude>
   <Latitude>51.239461</Latitude>
   </Location>
   <Location>
   <Longitude>-0.167324</Longitude>
   <Latitude>51.239506</Latitude>
   </Location>
   <Location>
   <Longitude>-0.167324</Longitude>
   <Latitude>51.239596</Latitude>
   </Location>
   <Location>
   <Longitude>-0.167081</Longitude>
   <Latitude>51.239911</Latitude>
   </Location>
   <Location>
   <Longitude>-0.166981</Longitude>
   <Latitude>51.240118</Latitude>
   </Location>
   <Location>
   <Longitude>-0.166996</Longitude>
   <Latitude>51.240163</Latitude>
   </Location>
   <Location>
   <Longitude>-0.167010</Longitude>
   <Latitude>51.240199</Latitude>
   </Location>
   <Location>
   <Longitude>-0.166996</Longitude>
   <Latitude>51.240253</Latitude>
   </Location>
   <Location>
   <Longitude>-0.166982</Longitude>
   <Latitude>51.240289</Latitude>
   </Location>
   <Location>
   <Longitude>-0.166953</Longitude>
   <Latitude>51.240325</Latitude>
   </Location>
   <Location>
   <Longitude>-0.166910</Longitude>
   <Latitude>51.240352</Latitude>
   </Location>
   <Location>
   <Longitude>-0.166853</Longitude>
   <Latitude>51.240379</Latitude>
   </Location>
   <Location>
   <Longitude>-0.166767</Longitude>
   <Latitude>51.240406</Latitude>
   </Location>
   <Location>
   <Longitude>-0.166695</Longitude>
   <Latitude>51.240406</Latitude>
   </Location>
   <Location>
   <Longitude>-0.166609</Longitude>
   <Latitude>51.240406</Latitude>
   </Location>
   <Location>
   <Longitude>-0.166366</Longitude>
   <Latitude>51.240595</Latitude>
   </Location>
   <Location>
   <Longitude>-0.166323</Longitude>
   <Latitude>51.240667</Latitude>
   </Location>
   <Location>
   <Longitude>-0.166223</Longitude>
   <Latitude>51.240811</Latitude>
   </Location>
   <Location>
   <Longitude>-0.166324</Longitude>
   <Latitude>51.240828</Latitude>
   </Location>
   <Location>
   <Longitude>-0.166452</Longitude>
   <Latitude>51.240837</Latitude>
   </Location>
   <Location>
   <Longitude>-0.166739</Longitude>
   <Latitude>51.240810</Latitude>
   </Location>
   <Location>
   <Longitude>-0.166739</Longitude>
   <Latitude>51.240783</Latitude>
   </Location>
   </Mapping>
   </Track>
   </RouteLink>
   <RouteLink id="i411_11_10">
   <From>
   <StopPointRef>40004409222C</StopPointRef>
   </From>
   <To>
   <StopPointRef>40004409175A</StopPointRef>
   </To>
   <Direction>inbound</Direction>
   <Track>
   <Mapping>
   <Location>
   <Longitude>-0.166739</Longitude>
   <Latitude>51.240783</Latitude>
   </Location>
   <Location>
   <Longitude>-0.166767</Longitude>
   <Latitude>51.240406</Latitude>
   </Location>
   <Location>
   <Longitude>-0.166695</Longitude>
   <Latitude>51.240406</Latitude>
   </Location>
   <Location>
   <Longitude>-0.166609</Longitude>
   <Latitude>51.240406</Latitude>
   </Location>
   <Location>
   <Longitude>-0.166366</Longitude>
   <Latitude>51.240595</Latitude>
   </Location>
   <Location>
   <Longitude>-0.166223</Longitude>
   <Latitude>51.240811</Latitude>
   </Location>
   <Location>
   <Longitude>-0.166180</Longitude>
   <Latitude>51.240865</Latitude>
   </Location>
   <Location>
   <Longitude>-0.166123</Longitude>
   <Latitude>51.240954</Latitude>
   </Location>
   <Location>
   <Longitude>-0.166066</Longitude>
   <Latitude>51.241143</Latitude>
   </Location>
   <Location>
   <Longitude>-0.166052</Longitude>
   <Latitude>51.241224</Latitude>
   </Location>
   <Location>
   <Longitude>-0.166038</Longitude>
   <Latitude>51.241377</Latitude>
   </Location>
   <Location>
   <Longitude>-0.166081</Longitude>
   <Latitude>51.241548</Latitude>
   </Location>
   <Location>
   <Longitude>-0.166167</Longitude>
   <Latitude>51.241728</Latitude>
   </Location>
   <Location>
   <Longitude>-0.166182</Longitude>
   <Latitude>51.241773</Latitude>
   </Location>
   <Location>
   <Longitude>-0.166440</Longitude>
   <Latitude>51.242078</Latitude>
   </Location>
   <Location>
   <Longitude>-0.166698</Longitude>
   <Latitude>51.242258</Latitude>
   </Location>
   <Location>
   <Longitude>-0.167013</Longitude>
   <Latitude>51.242374</Latitude>
   </Location>
   <Location>
   <Longitude>-0.167486</Longitude>
   <Latitude>51.242464</Latitude>
   </Location>
   <Location>
   <Longitude>-0.167529</Longitude>
   <Latitude>51.242446</Latitude>
   </Location>
   <Location>
   <Longitude>-0.167601</Longitude>
   <Latitude>51.242446</Latitude>
   </Location>
   <Location>
   <Longitude>-0.167701</Longitude>
   <Latitude>51.242464</Latitude>
   </Location>
   <Location>
   <Longitude>-0.167744</Longitude>
   <Latitude>51.242500</Latitude>
   </Location>
   <Location>
   <Longitude>-0.167773</Longitude>
   <Latitude>51.242545</Latitude>
   </Location>
   <Location>
   <Longitude>-0.167759</Longitude>
   <Latitude>51.242599</Latitude>
   </Location>
   <Location>
   <Longitude>-0.167687</Longitude>
   <Latitude>51.242653</Latitude>
   </Location>
   <Location>
   <Longitude>-0.167559</Longitude>
   <Latitude>51.243129</Latitude>
   </Location>
   <Location>
   <Longitude>-0.167231</Longitude>
   <Latitude>51.244244</Latitude>
   </Location>
   <Location>
   <Longitude>-0.167146</Longitude>
   <Latitude>51.244586</Latitude>
   </Location>
   </Mapping>
   </Track>
   </RouteLink>
   <RouteLink id="i411_11_11">
   <From>
   <StopPointRef>40004409175A</StopPointRef>
   </From>
   <To>
   <StopPointRef>40004409175C</StopPointRef>
   </To>
   <Direction>inbound</Direction>
   <Track>
   <Mapping>
   <Location>
   <Longitude>-0.167146</Longitude>
   <Latitude>51.244586</Latitude>
   </Location>
   <Location>
   <Longitude>-0.167117</Longitude>
   <Latitude>51.244667</Latitude>
   </Location>
   <Location>
   <Longitude>-0.167103</Longitude>
   <Latitude>51.244721</Latitude>
   </Location>
   <Location>
   <Longitude>-0.167003</Longitude>
   <Latitude>51.245099</Latitude>
   </Location>
   <Location>
   <Longitude>-0.166961</Longitude>
   <Latitude>51.245296</Latitude>
   </Location>
   <Location>
   <Longitude>-0.166889</Longitude>
   <Latitude>51.245584</Latitude>
   </Location>
   <Location>
   <Longitude>-0.166918</Longitude>
   <Latitude>51.245656</Latitude>
   </Location>
   <Location>
   <Longitude>-0.166762</Longitude>
   <Latitude>51.246339</Latitude>
   </Location>
   <Location>
   <Longitude>-0.166719</Longitude>
   <Latitude>51.246456</Latitude>
   </Location>
   <Location>
   <Longitude>-0.166548</Longitude>
   <Latitude>51.247005</Latitude>
   </Location>
   <Location>
   <Longitude>-0.166491</Longitude>
   <Latitude>51.247041</Latitude>
   </Location>
   <Location>
   <Longitude>-0.166462</Longitude>
   <Latitude>51.247113</Latitude>
   </Location>
   <Location>
   <Longitude>-0.166362</Longitude>
   <Latitude>51.247463</Latitude>
   </Location>
   </Mapping>
   </Track>
   </RouteLink>
   <RouteLink id="i411_11_12">
   <From>
   <StopPointRef>40004409175C</StopPointRef>
   </From>
   <To>
   <StopPointRef>40004409189A</StopPointRef>
   </To>
   <Direction>inbound</Direction>
   <Track>
   <Mapping>
   <Location>
   <Longitude>-0.166362</Longitude>
   <Latitude>51.247463</Latitude>
   </Location>
   <Location>
   <Longitude>-0.166035</Longitude>
   <Latitude>51.248623</Latitude>
   </Location>
   <Location>
   <Longitude>-0.166880</Longitude>
   <Latitude>51.248722</Latitude>
   </Location>
   <Location>
   <Longitude>-0.167611</Longitude>
   <Latitude>51.248802</Latitude>
   </Location>
   <Location>
   <Longitude>-0.167940</Longitude>
   <Latitude>51.248892</Latitude>
   </Location>
   <Location>
   <Longitude>-0.168370</Longitude>
   <Latitude>51.249062</Latitude>
   </Location>
   <Location>
   <Longitude>-0.168557</Longitude>
   <Latitude>51.249179</Latitude>
   </Location>
   <Location>
   <Longitude>-0.169130</Longitude>
   <Latitude>51.249503</Latitude>
   </Location>
   </Mapping>
   </Track>
   </RouteLink>
   <RouteLink id="i411_11_13">
   <From>
   <StopPointRef>40004409189A</StopPointRef>
   </From>
   <To>
   <StopPointRef>40004409190A</StopPointRef>
   </To>
   <Direction>inbound</Direction>
   <Track>
   <Mapping>
   <Location>
   <Longitude>-0.169130</Longitude>
   <Latitude>51.249503</Latitude>
   </Location>
   <Location>
   <Longitude>-0.170076</Longitude>
   <Latitude>51.250023</Latitude>
   </Location>
   <Location>
   <Longitude>-0.170693</Longitude>
   <Latitude>51.250374</Latitude>
   </Location>
   <Location>
   <Longitude>-0.170865</Longitude>
   <Latitude>51.250490</Latitude>
   </Location>
   <Location>
   <Longitude>-0.170994</Longitude>
   <Latitude>51.250625</Latitude>
   </Location>
   <Location>
   <Longitude>-0.171827</Longitude>
   <Latitude>51.251811</Latitude>
   </Location>
   </Mapping>
   </Track>
   </RouteLink>
   <RouteLink id="i411_11_14">
   <From>
   <StopPointRef>40004409190A</StopPointRef>
   </From>
   <To>
   <StopPointRef>40004409934A</StopPointRef>
   </To>
   <Direction>inbound</Direction>
   <Track>
   <Mapping>
   <Location>
   <Longitude>-0.171827</Longitude>
   <Latitude>51.251811</Latitude>
   </Location>
   <Location>
   <Longitude>-0.172114</Longitude>
   <Latitude>51.252234</Latitude>
   </Location>
   <Location>
   <Longitude>-0.172445</Longitude>
   <Latitude>51.252710</Latitude>
   </Location>
   <Location>
   <Longitude>-0.172473</Longitude>
   <Latitude>51.252764</Latitude>
   </Location>
   <Location>
   <Longitude>-0.171242</Longitude>
   <Latitude>51.253115</Latitude>
   </Location>
   <Location>
   <Longitude>-0.170440</Longitude>
   <Latitude>51.253269</Latitude>
   </Location>
   <Location>
   <Longitude>-0.169122</Longitude>
   <Latitude>51.253548</Latitude>
   </Location>
   <Location>
   <Longitude>-0.167188</Longitude>
   <Latitude>51.253648</Latitude>
   </Location>
   <Location>
   <Longitude>-0.166644</Longitude>
   <Latitude>51.253694</Latitude>
   </Location>
   <Location>
   <Longitude>-0.166400</Longitude>
   <Latitude>51.253712</Latitude>
   </Location>
   </Mapping>
   </Track>
   </RouteLink>
   <RouteLink id="i411_11_15">
   <From>
   <StopPointRef>40004409934A</StopPointRef>
   </From>
   <To>
   <StopPointRef>40004409192A</StopPointRef>
   </To>
   <Direction>inbound</Direction>
   <Track>
   <Mapping>
   <Location>
   <Longitude>-0.166400</Longitude>
   <Latitude>51.253712</Latitude>
   </Location>
   <Location>
   <Longitude>-0.165813</Longitude>
   <Latitude>51.253766</Latitude>
   </Location>
   <Location>
   <Longitude>-0.165426</Longitude>
   <Latitude>51.253829</Latitude>
   </Location>
   <Location>
   <Longitude>-0.165154</Longitude>
   <Latitude>51.253874</Latitude>
   </Location>
   <Location>
   <Longitude>-0.164839</Longitude>
   <Latitude>51.253910</Latitude>
   </Location>
   <Location>
   <Longitude>-0.164753</Longitude>
   <Latitude>51.253928</Latitude>
   </Location>
   <Location>
   <Longitude>-0.164653</Longitude>
   <Latitude>51.253920</Latitude>
   </Location>
   <Location>
   <Longitude>-0.164581</Longitude>
   <Latitude>51.253902</Latitude>
   </Location>
   <Location>
   <Longitude>-0.164538</Longitude>
   <Latitude>51.253884</Latitude>
   </Location>
   <Location>
   <Longitude>-0.164452</Longitude>
   <Latitude>51.253848</Latitude>
   </Location>
   <Location>
   <Longitude>-0.164366</Longitude>
   <Latitude>51.253929</Latitude>
   </Location>
   <Location>
   <Longitude>-0.164295</Longitude>
   <Latitude>51.253992</Latitude>
   </Location>
   <Location>
   <Longitude>-0.164137</Longitude>
   <Latitude>51.254082</Latitude>
   </Location>
   <Location>
   <Longitude>-0.164123</Longitude>
   <Latitude>51.254082</Latitude>
   </Location>
   <Location>
   <Longitude>-0.164008</Longitude>
   <Latitude>51.254127</Latitude>
   </Location>
   <Location>
   <Longitude>-0.162920</Longitude>
   <Latitude>51.254541</Latitude>
   </Location>
   <Location>
   <Longitude>-0.162319</Longitude>
   <Latitude>51.254802</Latitude>
   </Location>
   <Location>
   <Longitude>-0.161159</Longitude>
   <Latitude>51.255306</Latitude>
   </Location>
   <Location>
   <Longitude>-0.160357</Longitude>
   <Latitude>51.255684</Latitude>
   </Location>
   <Location>
   <Longitude>-0.160042</Longitude>
   <Latitude>51.255828</Latitude>
   </Location>
   <Location>
   <Longitude>-0.159699</Longitude>
   <Latitude>51.255990</Latitude>
   </Location>
   <Location>
   <Longitude>-0.159054</Longitude>
   <Latitude>51.256314</Latitude>
   </Location>
   <Location>
   <Longitude>-0.158954</Longitude>
   <Latitude>51.256386</Latitude>
   </Location>
   </Mapping>
   </Track>
   </RouteLink>
   <RouteLink id="i411_11_16">
   <From>
   <StopPointRef>40004409192A</StopPointRef>
   </From>
   <To>
   <StopPointRef>40004409193A</StopPointRef>
   </To>
   <Direction>inbound</Direction>
   <Track>
   <Mapping>
   <Location>
   <Longitude>-0.158954</Longitude>
   <Latitude>51.256386</Latitude>
   </Location>
   <Location>
   <Longitude>-0.158911</Longitude>
   <Latitude>51.256422</Latitude>
   </Location>
   <Location>
   <Longitude>-0.158811</Longitude>
   <Latitude>51.256512</Latitude>
   </Location>
   <Location>
   <Longitude>-0.158324</Longitude>
   <Latitude>51.256926</Latitude>
   </Location>
   <Location>
   <Longitude>-0.158181</Longitude>
   <Latitude>51.257034</Latitude>
   </Location>
   <Location>
   <Longitude>-0.157652</Longitude>
   <Latitude>51.257601</Latitude>
   </Location>
   <Location>
   <Longitude>-0.156865</Longitude>
   <Latitude>51.258347</Latitude>
   </Location>
   <Location>
   <Longitude>-0.155906</Longitude>
   <Latitude>51.259256</Latitude>
   </Location>
   </Mapping>
   </Track>
   </RouteLink>
   <RouteLink id="i411_11_17">
   <From>
   <StopPointRef>40004409193A</StopPointRef>
   </From>
   <To>
   <StopPointRef>40004409194A</StopPointRef>
   </To>
   <Direction>inbound</Direction>
   <Track>
   <Mapping>
   <Location>
   <Longitude>-0.155906</Longitude>
   <Latitude>51.259256</Latitude>
   </Location>
   <Location>
   <Longitude>-0.155763</Longitude>
   <Latitude>51.259391</Latitude>
   </Location>
   <Location>
   <Longitude>-0.154232</Longitude>
   <Latitude>51.260920</Latitude>
   </Location>
   <Location>
   <Longitude>-0.154131</Longitude>
   <Latitude>51.261037</Latitude>
   </Location>
   <Location>
   <Longitude>-0.152400</Longitude>
   <Latitude>51.262952</Latitude>
   </Location>
   <Location>
   <Longitude>-0.152171</Longitude>
   <Latitude>51.263402</Latitude>
   </Location>
   <Location>
   <Longitude>-0.152157</Longitude>
   <Latitude>51.263717</Latitude>
   </Location>
   <Location>
   <Longitude>-0.152287</Longitude>
   <Latitude>51.263968</Latitude>
   </Location>
   <Location>
   <Longitude>-0.152373</Longitude>
   <Latitude>51.264103</Latitude>
   </Location>
   <Location>
   <Longitude>-0.152545</Longitude>
   <Latitude>51.264445</Latitude>
   </Location>
   </Mapping>
   </Track>
   </RouteLink>
   <RouteLink id="i411_11_18">
   <From>
   <StopPointRef>40004409194A</StopPointRef>
   </From>
   <To>
   <StopPointRef>40004409195A</StopPointRef>
   </To>
   <Direction>inbound</Direction>
   <Track>
   <Mapping>
   <Location>
   <Longitude>-0.152545</Longitude>
   <Latitude>51.264445</Latitude>
   </Location>
   <Location>
   <Longitude>-0.152646</Longitude>
   <Latitude>51.264634</Latitude>
   </Location>
   <Location>
   <Longitude>-0.152775</Longitude>
   <Latitude>51.264786</Latitude>
   </Location>
   <Location>
   <Longitude>-0.152775</Longitude>
   <Latitude>51.264813</Latitude>
   </Location>
   <Location>
   <Longitude>-0.152703</Longitude>
   <Latitude>51.264885</Latitude>
   </Location>
   <Location>
   <Longitude>-0.152159</Longitude>
   <Latitude>51.265344</Latitude>
   </Location>
   <Location>
   <Longitude>-0.151887</Longitude>
   <Latitude>51.265623</Latitude>
   </Location>
   <Location>
   <Longitude>-0.151887</Longitude>
   <Latitude>51.265677</Latitude>
   </Location>
   <Location>
   <Longitude>-0.151515</Longitude>
   <Latitude>51.266306</Latitude>
   </Location>
   <Location>
   <Longitude>-0.151458</Longitude>
   <Latitude>51.266423</Latitude>
   </Location>
   <Location>
   <Longitude>-0.151358</Longitude>
   <Latitude>51.266594</Latitude>
   </Location>
   <Location>
   <Longitude>-0.151301</Longitude>
   <Latitude>51.266774</Latitude>
   </Location>
   <Location>
   <Longitude>-0.151215</Longitude>
   <Latitude>51.267017</Latitude>
   </Location>
   <Location>
   <Longitude>-0.151130</Longitude>
   <Latitude>51.267322</Latitude>
   </Location>
   <Location>
   <Longitude>-0.151087</Longitude>
   <Latitude>51.267430</Latitude>
   </Location>
   <Location>
   <Longitude>-0.151087</Longitude>
   <Latitude>51.267565</Latitude>
   </Location>
   <Location>
   <Longitude>-0.151059</Longitude>
   <Latitude>51.267790</Latitude>
   </Location>
   <Location>
   <Longitude>-0.151016</Longitude>
   <Latitude>51.268159</Latitude>
   </Location>
   <Location>
   <Longitude>-0.150930</Longitude>
   <Latitude>51.268267</Latitude>
   </Location>
   <Location>
   <Longitude>-0.150974</Longitude>
   <Latitude>51.268941</Latitude>
   </Location>
   <Location>
   <Longitude>-0.150960</Longitude>
   <Latitude>51.269390</Latitude>
   </Location>
   </Mapping>
   </Track>
   </RouteLink>
   <RouteLink id="i411_11_19">
   <From>
   <StopPointRef>40004409195A</StopPointRef>
   </From>
   <To>
   <StopPointRef>40004409196A</StopPointRef>
   </To>
   <Direction>inbound</Direction>
   <Track>
   <Mapping>
   <Location>
   <Longitude>-0.150960</Longitude>
   <Latitude>51.269390</Latitude>
   </Location>
   <Location>
   <Longitude>-0.150961</Longitude>
   <Latitude>51.269813</Latitude>
   </Location>
   <Location>
   <Longitude>-0.151048</Longitude>
   <Latitude>51.270541</Latitude>
   </Location>
   <Location>
   <Longitude>-0.151249</Longitude>
   <Latitude>51.271269</Latitude>
   </Location>
   <Location>
   <Longitude>-0.151580</Longitude>
   <Latitude>51.272384</Latitude>
   </Location>
   </Mapping>
   </Track>
   </RouteLink>
   <RouteLink id="i411_11_20">
   <From>
   <StopPointRef>40004409196A</StopPointRef>
   </From>
   <To>
   <StopPointRef>40004409809A</StopPointRef>
   </To>
   <Direction>inbound</Direction>
   <Track>
   <Mapping>
   <Location>
   <Longitude>-0.151580</Longitude>
   <Latitude>51.272384</Latitude>
   </Location>
   <Location>
   <Longitude>-0.151652</Longitude>
   <Latitude>51.272600</Latitude>
   </Location>
   <Location>
   <Longitude>-0.151839</Longitude>
   <Latitude>51.273004</Latitude>
   </Location>
   <Location>
   <Longitude>-0.151968</Longitude>
   <Latitude>51.273184</Latitude>
   </Location>
   <Location>
   <Longitude>-0.151753</Longitude>
   <Latitude>51.273238</Latitude>
   </Location>
   <Location>
   <Longitude>-0.150793</Longitude>
   <Latitude>51.273265</Latitude>
   </Location>
   <Location>
   <Longitude>-0.150420</Longitude>
   <Latitude>51.273274</Latitude>
   </Location>
   <Location>
   <Longitude>-0.149947</Longitude>
   <Latitude>51.273284</Latitude>
   </Location>
   <Location>
   <Longitude>-0.148858</Longitude>
   <Latitude>51.273302</Latitude>
   </Location>
   <Location>
   <Longitude>-0.146665</Longitude>
   <Latitude>51.273177</Latitude>
   </Location>
   </Mapping>
   </Track>
   </RouteLink>
   <RouteLink id="i411_11_21">
   <From>
   <StopPointRef>40004409809A</StopPointRef>
   </From>
   <To>
   <StopPointRef>40004406970A</StopPointRef>
   </To>
   <Direction>inbound</Direction>
   <Track>
   <Mapping>
   <Location>
   <Longitude>-0.146665</Longitude>
   <Latitude>51.273177</Latitude>
   </Location>
   <Location>
   <Longitude>-0.145977</Longitude>
   <Latitude>51.273249</Latitude>
   </Location>
   <Location>
   <Longitude>-0.145275</Longitude>
   <Latitude>51.273376</Latitude>
   </Location>
   <Location>
   <Longitude>-0.143856</Longitude>
   <Latitude>51.273664</Latitude>
   </Location>
   <Location>
   <Longitude>-0.142194</Longitude>
   <Latitude>51.274123</Latitude>
   </Location>
   <Location>
   <Longitude>-0.142008</Longitude>
   <Latitude>51.274186</Latitude>
   </Location>
   </Mapping>
   </Track>
   </RouteLink>
   <RouteLink id="i411_11_22">
   <From>
   <StopPointRef>40004406970A</StopPointRef>
   </From>
   <To>
   <StopPointRef>40004409809B</StopPointRef>
   </To>
   <Direction>inbound</Direction>
   <Track>
   <Mapping>
   <Location>
   <Longitude>-0.142008</Longitude>
   <Latitude>51.274186</Latitude>
   </Location>
   <Location>
   <Longitude>-0.141635</Longitude>
   <Latitude>51.274312</Latitude>
   </Location>
   <Location>
   <Longitude>-0.141349</Longitude>
   <Latitude>51.274456</Latitude>
   </Location>
   <Location>
   <Longitude>-0.141248</Longitude>
   <Latitude>51.274564</Latitude>
   </Location>
   <Location>
   <Longitude>-0.141191</Longitude>
   <Latitude>51.274663</Latitude>
   </Location>
   <Location>
   <Longitude>-0.141120</Longitude>
   <Latitude>51.275005</Latitude>
   </Location>
   <Location>
   <Longitude>-0.141091</Longitude>
   <Latitude>51.275139</Latitude>
   </Location>
   <Location>
   <Longitude>-0.140676</Longitude>
   <Latitude>51.276066</Latitude>
   </Location>
   <Location>
   <Longitude>-0.140619</Longitude>
   <Latitude>51.276173</Latitude>
   </Location>
   <Location>
   <Longitude>-0.140548</Longitude>
   <Latitude>51.276263</Latitude>
   </Location>
   <Location>
   <Longitude>-0.140161</Longitude>
   <Latitude>51.276614</Latitude>
   </Location>
   <Location>
   <Longitude>-0.140089</Longitude>
   <Latitude>51.276668</Latitude>
   </Location>
   <Location>
   <Longitude>-0.140018</Longitude>
   <Latitude>51.276713</Latitude>
   </Location>
   <Location>
   <Longitude>-0.139487</Longitude>
   <Latitude>51.276902</Latitude>
   </Location>
   <Location>
   <Longitude>-0.139373</Longitude>
   <Latitude>51.276956</Latitude>
   </Location>
   <Location>
   <Longitude>-0.139258</Longitude>
   <Latitude>51.277028</Latitude>
   </Location>
   <Location>
   <Longitude>-0.139215</Longitude>
   <Latitude>51.277100</Latitude>
   </Location>
   <Location>
   <Longitude>-0.139201</Longitude>
   <Latitude>51.277136</Latitude>
   </Location>
   </Mapping>
   </Track>
   </RouteLink>
   <RouteLink id="i411_11_23">
   <From>
   <StopPointRef>40004409809B</StopPointRef>
   </From>
   <To>
   <StopPointRef>40004409203A</StopPointRef>
   </To>
   <Direction>inbound</Direction>
   <Track>
   <Mapping>
   <Location>
   <Longitude>-0.139201</Longitude>
   <Latitude>51.277136</Latitude>
   </Location>
   <Location>
   <Longitude>-0.139187</Longitude>
   <Latitude>51.277154</Latitude>
   </Location>
   <Location>
   <Longitude>-0.139172</Longitude>
   <Latitude>51.277217</Latitude>
   </Location>
   <Location>
   <Longitude>-0.139144</Longitude>
   <Latitude>51.277496</Latitude>
   </Location>
   <Location>
   <Longitude>-0.139159</Longitude>
   <Latitude>51.277819</Latitude>
   </Location>
   <Location>
   <Longitude>-0.139173</Longitude>
   <Latitude>51.277936</Latitude>
   </Location>
   <Location>
   <Longitude>-0.139231</Longitude>
   <Latitude>51.278089</Latitude>
   </Location>
   <Location>
   <Longitude>-0.139231</Longitude>
   <Latitude>51.278179</Latitude>
   </Location>
   <Location>
   <Longitude>-0.139216</Longitude>
   <Latitude>51.278278</Latitude>
   </Location>
   <Location>
   <Longitude>-0.139202</Longitude>
   <Latitude>51.278377</Latitude>
   </Location>
   <Location>
   <Longitude>-0.139174</Longitude>
   <Latitude>51.278458</Latitude>
   </Location>
   <Location>
   <Longitude>-0.139159</Longitude>
   <Latitude>51.278485</Latitude>
   </Location>
   <Location>
   <Longitude>-0.139116</Longitude>
   <Latitude>51.278530</Latitude>
   </Location>
   <Location>
   <Longitude>-0.138844</Longitude>
   <Latitude>51.278889</Latitude>
   </Location>
   <Location>
   <Longitude>-0.138673</Longitude>
   <Latitude>51.279339</Latitude>
   </Location>
   <Location>
   <Longitude>-0.138501</Longitude>
   <Latitude>51.279716</Latitude>
   </Location>
   <Location>
   <Longitude>-0.138358</Longitude>
   <Latitude>51.280193</Latitude>
   </Location>
   <Location>
   <Longitude>-0.138315</Longitude>
   <Latitude>51.280274</Latitude>
   </Location>
   <Location>
   <Longitude>-0.138287</Longitude>
   <Latitude>51.280346</Latitude>
   </Location>
   <Location>
   <Longitude>-0.138158</Longitude>
   <Latitude>51.280400</Latitude>
   </Location>
   <Location>
   <Longitude>-0.138000</Longitude>
   <Latitude>51.280427</Latitude>
   </Location>
   <Location>
   <Longitude>-0.137885</Longitude>
   <Latitude>51.280418</Latitude>
   </Location>
   </Mapping>
   </Track>
   </RouteLink>
   <RouteLink id="i411_11_24">
   <From>
   <StopPointRef>40004409203A</StopPointRef>
   </From>
   <To>
   <StopPointRef>40004409809C</StopPointRef>
   </To>
   <Direction>inbound</Direction>
   <Track>
   <Mapping>
   <Location>
   <Longitude>-0.137885</Longitude>
   <Latitude>51.280418</Latitude>
   </Location>
   <Location>
   <Longitude>-0.137570</Longitude>
   <Latitude>51.280400</Latitude>
   </Location>
   <Location>
   <Longitude>-0.137455</Longitude>
   <Latitude>51.280373</Latitude>
   </Location>
   <Location>
   <Longitude>-0.134244</Longitude>
   <Latitude>51.280176</Latitude>
   </Location>
   </Mapping>
   </Track>
   </RouteLink>
   <RouteLink id="i411_11_25">
   <From>
   <StopPointRef>40004409809C</StopPointRef>
   </From>
   <To>
   <StopPointRef>40004410801A</StopPointRef>
   </To>
   <Direction>inbound</Direction>
   <Track>
   <Mapping>
   <Location>
   <Longitude>-0.134244</Longitude>
   <Latitude>51.280176</Latitude>
   </Location>
   <Location>
   <Longitude>-0.134043</Longitude>
   <Latitude>51.280168</Latitude>
   </Location>
   <Location>
   <Longitude>-0.132595</Longitude>
   <Latitude>51.279799</Latitude>
   </Location>
   <Location>
   <Longitude>-0.132366</Longitude>
   <Latitude>51.279772</Latitude>
   </Location>
   <Location>
   <Longitude>-0.132208</Longitude>
   <Latitude>51.279755</Latitude>
   </Location>
   <Location>
   <Longitude>-0.131118</Longitude>
   <Latitude>51.279557</Latitude>
   </Location>
   <Location>
   <Longitude>-0.130660</Longitude>
   <Latitude>51.279476</Latitude>
   </Location>
   <Location>
   <Longitude>-0.130330</Longitude>
   <Latitude>51.279467</Latitude>
   </Location>
   <Location>
   <Longitude>-0.129756</Longitude>
   <Latitude>51.279459</Latitude>
   </Location>
   <Location>
   <Longitude>-0.129369</Longitude>
   <Latitude>51.279414</Latitude>
   </Location>
   <Location>
   <Longitude>-0.128079</Longitude>
   <Latitude>51.279216</Latitude>
   </Location>
   <Location>
   <Longitude>-0.127735</Longitude>
   <Latitude>51.279180</Latitude>
   </Location>
   <Location>
   <Longitude>-0.127491</Longitude>
   <Latitude>51.279162</Latitude>
   </Location>
   <Location>
   <Longitude>-0.126330</Longitude>
   <Latitude>51.278965</Latitude>
   </Location>
   <Location>
   <Longitude>-0.125484</Longitude>
   <Latitude>51.278767</Latitude>
   </Location>
   </Mapping>
   </Track>
   </RouteLink>
   <RouteLink id="i411_11_26">
   <From>
   <StopPointRef>40004410801A</StopPointRef>
   </From>
   <To>
   <StopPointRef>40004410098A</StopPointRef>
   </To>
   <Direction>inbound</Direction>
   <Track>
   <Mapping>
   <Location>
   <Longitude>-0.125484</Longitude>
   <Latitude>51.278767</Latitude>
   </Location>
   <Location>
   <Longitude>-0.124825</Longitude>
   <Latitude>51.278615</Latitude>
   </Location>
   <Location>
   <Longitude>-0.124481</Longitude>
   <Latitude>51.278561</Latitude>
   </Location>
   <Location>
   <Longitude>-0.123563</Longitude>
   <Latitude>51.278534</Latitude>
   </Location>
   <Location>
   <Longitude>-0.122029</Longitude>
   <Latitude>51.278588</Latitude>
   </Location>
   <Location>
   <Longitude>-0.120797</Longitude>
   <Latitude>51.278571</Latitude>
   </Location>
   <Location>
   <Longitude>-0.120539</Longitude>
   <Latitude>51.278571</Latitude>
   </Location>
   <Location>
   <Longitude>-0.120481</Longitude>
   <Latitude>51.278571</Latitude>
   </Location>
   <Location>
   <Longitude>-0.120352</Longitude>
   <Latitude>51.278580</Latitude>
   </Location>
   </Mapping>
   </Track>
   </RouteLink>
   <RouteLink id="i411_11_27">
   <From>
   <StopPointRef>40004410098A</StopPointRef>
   </From>
   <To>
   <StopPointRef>40004410097A</StopPointRef>
   </To>
   <Direction>inbound</Direction>
   <Track>
   <Mapping>
   <Location>
   <Longitude>-0.120352</Longitude>
   <Latitude>51.278580</Latitude>
   </Location>
   <Location>
   <Longitude>-0.120223</Longitude>
   <Latitude>51.278580</Latitude>
   </Location>
   <Location>
   <Longitude>-0.119492</Longitude>
   <Latitude>51.278697</Latitude>
   </Location>
   <Location>
   <Longitude>-0.118589</Longitude>
   <Latitude>51.278751</Latitude>
   </Location>
   <Location>
   <Longitude>-0.118303</Longitude>
   <Latitude>51.278868</Latitude>
   </Location>
   <Location>
   <Longitude>-0.118116</Longitude>
   <Latitude>51.279012</Latitude>
   </Location>
   <Location>
   <Longitude>-0.117930</Longitude>
   <Latitude>51.279138</Latitude>
   </Location>
   <Location>
   <Longitude>-0.117758</Longitude>
   <Latitude>51.279228</Latitude>
   </Location>
   <Location>
   <Longitude>-0.116654</Longitude>
   <Latitude>51.279578</Latitude>
   </Location>
   <Location>
   <Longitude>-0.116067</Longitude>
   <Latitude>51.279731</Latitude>
   </Location>
   <Location>
   <Longitude>-0.113902</Longitude>
   <Latitude>51.280100</Latitude>
   </Location>
   <Location>
   <Longitude>-0.113831</Longitude>
   <Latitude>51.280109</Latitude>
   </Location>
   </Mapping>
   </Track>
   </RouteLink>
   <RouteLink id="i411_11_28">
   <From>
   <StopPointRef>40004410097A</StopPointRef>
   </From>
   <To>
   <StopPointRef>40004410096A</StopPointRef>
   </To>
   <Direction>inbound</Direction>
   <Track>
   <Mapping>
   <Location>
   <Longitude>-0.113831</Longitude>
   <Latitude>51.280109</Latitude>
   </Location>
   <Location>
   <Longitude>-0.113730</Longitude>
   <Latitude>51.280118</Latitude>
   </Location>
   <Location>
   <Longitude>-0.113544</Longitude>
   <Latitude>51.280109</Latitude>
   </Location>
   <Location>
   <Longitude>-0.112856</Longitude>
   <Latitude>51.280082</Latitude>
   </Location>
   <Location>
   <Longitude>-0.112569</Longitude>
   <Latitude>51.280118</Latitude>
   </Location>
   <Location>
   <Longitude>-0.112082</Longitude>
   <Latitude>51.280244</Latitude>
   </Location>
   <Location>
   <Longitude>-0.111451</Longitude>
   <Latitude>51.280487</Latitude>
   </Location>
   <Location>
   <Longitude>-0.110892</Longitude>
   <Latitude>51.280604</Latitude>
   </Location>
   <Location>
   <Longitude>-0.109287</Longitude>
   <Latitude>51.280721</Latitude>
   </Location>
   <Location>
   <Longitude>-0.108871</Longitude>
   <Latitude>51.280784</Latitude>
   </Location>
   <Location>
   <Longitude>-0.108068</Longitude>
   <Latitude>51.280901</Latitude>
   </Location>
   </Mapping>
   </Track>
   </RouteLink>
   <RouteLink id="i411_11_29">
   <From>
   <StopPointRef>40004410096A</StopPointRef>
   </From>
   <To>
   <StopPointRef>40004410095A</StopPointRef>
   </To>
   <Direction>inbound</Direction>
   <Track>
   <Mapping>
   <Location>
   <Longitude>-0.108068</Longitude>
   <Latitude>51.280901</Latitude>
   </Location>
   <Location>
   <Longitude>-0.107609</Longitude>
   <Latitude>51.280973</Latitude>
   </Location>
   <Location>
   <Longitude>-0.107050</Longitude>
   <Latitude>51.281072</Latitude>
   </Location>
   <Location>
   <Longitude>-0.105703</Longitude>
   <Latitude>51.281306</Latitude>
   </Location>
   </Mapping>
   </Track>
   </RouteLink>
   <RouteLink id="i411_11_30">
   <From>
   <StopPointRef>40004410095A</StopPointRef>
   </From>
   <To>
   <StopPointRef>40004410094A</StopPointRef>
   </To>
   <Direction>inbound</Direction>
   <Track>
   <Mapping>
   <Location>
   <Longitude>-0.105703</Longitude>
   <Latitude>51.281306</Latitude>
   </Location>
   <Location>
   <Longitude>-0.105559</Longitude>
   <Latitude>51.281333</Latitude>
   </Location>
   <Location>
   <Longitude>-0.104040</Longitude>
   <Latitude>51.281630</Latitude>
   </Location>
   <Location>
   <Longitude>-0.102735</Longitude>
   <Latitude>51.281971</Latitude>
   </Location>
   <Location>
   <Longitude>-0.102033</Longitude>
   <Latitude>51.282097</Latitude>
   </Location>
   <Location>
   <Longitude>-0.101316</Longitude>
   <Latitude>51.282268</Latitude>
   </Location>
   <Location>
   <Longitude>-0.100987</Longitude>
   <Latitude>51.282394</Latitude>
   </Location>
   <Location>
   <Longitude>-0.100829</Longitude>
   <Latitude>51.282475</Latitude>
   </Location>
   </Mapping>
   </Track>
   </RouteLink>
   <RouteLink id="i411_11_31">
   <From>
   <StopPointRef>40004410094A</StopPointRef>
   </From>
   <To>
   <StopPointRef>40004410089A</StopPointRef>
   </To>
   <Direction>inbound</Direction>
   <Track>
   <Mapping>
   <Location>
   <Longitude>-0.100829</Longitude>
   <Latitude>51.282475</Latitude>
   </Location>
   <Location>
   <Longitude>-0.100628</Longitude>
   <Latitude>51.282583</Latitude>
   </Location>
   <Location>
   <Longitude>-0.099854</Longitude>
   <Latitude>51.282960</Latitude>
   </Location>
   <Location>
   <Longitude>-0.099711</Longitude>
   <Latitude>51.283023</Latitude>
   </Location>
   <Location>
   <Longitude>-0.099395</Longitude>
   <Latitude>51.283176</Latitude>
   </Location>
   <Location>
   <Longitude>-0.098707</Longitude>
   <Latitude>51.283518</Latitude>
   </Location>
   <Location>
   <Longitude>-0.098320</Longitude>
   <Latitude>51.283707</Latitude>
   </Location>
   <Location>
   <Longitude>-0.096714</Longitude>
   <Latitude>51.284480</Latitude>
   </Location>
   <Location>
   <Longitude>-0.096327</Longitude>
   <Latitude>51.284669</Latitude>
   </Location>
   <Location>
   <Longitude>-0.096098</Longitude>
   <Latitude>51.284786</Latitude>
   </Location>
   </Mapping>
   </Track>
   </RouteLink>
   <RouteLink id="i411_11_32">
   <From>
   <StopPointRef>40004410089A</StopPointRef>
   </From>
   <To>
   <StopPointRef>40004410088A</StopPointRef>
   </To>
   <Direction>inbound</Direction>
   <Track>
   <Mapping>
   <Location>
   <Longitude>-0.096098</Longitude>
   <Latitude>51.284786</Latitude>
   </Location>
   <Location>
   <Longitude>-0.095539</Longitude>
   <Latitude>51.285064</Latitude>
   </Location>
   <Location>
   <Longitude>-0.094793</Longitude>
   <Latitude>51.285424</Latitude>
   </Location>
   <Location>
   <Longitude>-0.093403</Longitude>
   <Latitude>51.286107</Latitude>
   </Location>
   <Location>
   <Longitude>-0.092628</Longitude>
   <Latitude>51.286485</Latitude>
   </Location>
   </Mapping>
   </Track>
   </RouteLink>
   <RouteLink id="i411_11_33">
   <From>
   <StopPointRef>40004410088A</StopPointRef>
   </From>
   <To>
   <StopPointRef>40004410087C</StopPointRef>
   </To>
   <Direction>inbound</Direction>
   <Track>
   <Mapping>
   <Location>
   <Longitude>-0.092628</Longitude>
   <Latitude>51.286485</Latitude>
   </Location>
   <Location>
   <Longitude>-0.092485</Longitude>
   <Latitude>51.286557</Latitude>
   </Location>
   <Location>
   <Longitude>-0.091281</Longitude>
   <Latitude>51.287195</Latitude>
   </Location>
   <Location>
   <Longitude>-0.090979</Longitude>
   <Latitude>51.287294</Latitude>
   </Location>
   <Location>
   <Longitude>-0.090635</Longitude>
   <Latitude>51.287384</Latitude>
   </Location>
   <Location>
   <Longitude>-0.089187</Longitude>
   <Latitude>51.287617</Latitude>
   </Location>
   <Location>
   <Longitude>-0.089015</Longitude>
   <Latitude>51.287366</Latitude>
   </Location>
   <Location>
   <Longitude>-0.088958</Longitude>
   <Latitude>51.287249</Latitude>
   </Location>
   </Mapping>
   </Track>
   </RouteLink>
   <RouteLink id="i411_11_34">
   <From>
   <StopPointRef>40004410087C</StopPointRef>
   </From>
   <To>
   <StopPointRef>40004410086C</StopPointRef>
   </To>
   <Direction>inbound</Direction>
   <Track>
   <Mapping>
   <Location>
   <Longitude>-0.088958</Longitude>
   <Latitude>51.287249</Latitude>
   </Location>
   <Location>
   <Longitude>-0.088929</Longitude>
   <Latitude>51.287204</Latitude>
   </Location>
   <Location>
   <Longitude>-0.088829</Longitude>
   <Latitude>51.287024</Latitude>
   </Location>
   <Location>
   <Longitude>-0.088471</Longitude>
   <Latitude>51.286161</Latitude>
   </Location>
   <Location>
   <Longitude>-0.088385</Longitude>
   <Latitude>51.286035</Latitude>
   </Location>
   <Location>
   <Longitude>-0.088184</Longitude>
   <Latitude>51.285621</Latitude>
   </Location>
   </Mapping>
   </Track>
   </RouteLink>
   <RouteLink id="i411_11_35">
   <From>
   <StopPointRef>40004410086C</StopPointRef>
   </From>
   <To>
   <StopPointRef>40004410085A</StopPointRef>
   </To>
   <Direction>inbound</Direction>
   <Track>
   <Mapping>
   <Location>
   <Longitude>-0.088184</Longitude>
   <Latitude>51.285621</Latitude>
   </Location>
   <Location>
   <Longitude>-0.088170</Longitude>
   <Latitude>51.285594</Latitude>
   </Location>
   <Location>
   <Longitude>-0.088055</Longitude>
   <Latitude>51.285019</Latitude>
   </Location>
   <Location>
   <Longitude>-0.088026</Longitude>
   <Latitude>51.284857</Latitude>
   </Location>
   <Location>
   <Longitude>-0.087897</Longitude>
   <Latitude>51.284659</Latitude>
   </Location>
   <Location>
   <Longitude>-0.087654</Longitude>
   <Latitude>51.284515</Latitude>
   </Location>
   <Location>
   <Longitude>-0.086808</Longitude>
   <Latitude>51.284318</Latitude>
   </Location>
   <Location>
   <Longitude>-0.086693</Longitude>
   <Latitude>51.284264</Latitude>
   </Location>
   <Location>
   <Longitude>-0.086622</Longitude>
   <Latitude>51.284192</Latitude>
   </Location>
   <Location>
   <Longitude>-0.086493</Longitude>
   <Latitude>51.283940</Latitude>
   </Location>
   <Location>
   <Longitude>-0.086349</Longitude>
   <Latitude>51.283553</Latitude>
   </Location>
   <Location>
   <Longitude>-0.086220</Longitude>
   <Latitude>51.283221</Latitude>
   </Location>
   </Mapping>
   </Track>
   </RouteLink>
   <RouteLink id="i411_11_36">
   <From>
   <StopPointRef>40004410085A</StopPointRef>
   </From>
   <To>
   <StopPointRef>40004410084A</StopPointRef>
   </To>
   <Direction>inbound</Direction>
   <Track>
   <Mapping>
   <Location>
   <Longitude>-0.086220</Longitude>
   <Latitude>51.283221</Latitude>
   </Location>
   <Location>
   <Longitude>-0.086134</Longitude>
   <Latitude>51.282969</Latitude>
   </Location>
   <Location>
   <Longitude>-0.086091</Longitude>
   <Latitude>51.282870</Latitude>
   </Location>
   <Location>
   <Longitude>-0.085963</Longitude>
   <Latitude>51.282501</Latitude>
   </Location>
   <Location>
   <Longitude>-0.085834</Longitude>
   <Latitude>51.282259</Latitude>
   </Location>
   <Location>
   <Longitude>-0.085776</Longitude>
   <Latitude>51.282142</Latitude>
   </Location>
   <Location>
   <Longitude>-0.085475</Longitude>
   <Latitude>51.281557</Latitude>
   </Location>
   <Location>
   <Longitude>-0.085332</Longitude>
   <Latitude>51.281342</Latitude>
   </Location>
   <Location>
   <Longitude>-0.085031</Longitude>
   <Latitude>51.281261</Latitude>
   </Location>
   <Location>
   <Longitude>-0.084572</Longitude>
   <Latitude>51.281225</Latitude>
   </Location>
   <Location>
   <Longitude>-0.083927</Longitude>
   <Latitude>51.281225</Latitude>
   </Location>
   <Location>
   <Longitude>-0.082981</Longitude>
   <Latitude>51.281108</Latitude>
   </Location>
   <Location>
   <Longitude>-0.082522</Longitude>
   <Latitude>51.281081</Latitude>
   </Location>
   <Location>
   <Longitude>-0.081806</Longitude>
   <Latitude>51.281143</Latitude>
   </Location>
   <Location>
   <Longitude>-0.081304</Longitude>
   <Latitude>51.281278</Latitude>
   </Location>
   <Location>
   <Longitude>-0.080028</Longitude>
   <Latitude>51.281826</Latitude>
   </Location>
   <Location>
   <Longitude>-0.079540</Longitude>
   <Latitude>51.281952</Latitude>
   </Location>
   <Location>
   <Longitude>-0.078824</Longitude>
   <Latitude>51.281916</Latitude>
   </Location>
   <Location>
   <Longitude>-0.078522</Longitude>
   <Latitude>51.281925</Latitude>
   </Location>
   <Location>
   <Longitude>-0.078365</Longitude>
   <Latitude>51.281961</Latitude>
   </Location>
   <Location>
   <Longitude>-0.078221</Longitude>
   <Latitude>51.281988</Latitude>
   </Location>
   <Location>
   <Longitude>-0.078064</Longitude>
   <Latitude>51.282015</Latitude>
   </Location>
   </Mapping>
   </Track>
   </RouteLink>
   <RouteLink id="i411_11_37">
   <From>
   <StopPointRef>40004410084A</StopPointRef>
   </From>
   <To>
   <StopPointRef>40004410084B</StopPointRef>
   </To>
   <Direction>inbound</Direction>
   <Track>
   <Mapping>
   <Location>
   <Longitude>-0.078064</Longitude>
   <Latitude>51.282015</Latitude>
   </Location>
   <Location>
   <Longitude>-0.078135</Longitude>
   <Latitude>51.282006</Latitude>
   </Location>
   </Mapping>
   </Track>
   </RouteLink>
   <RouteLink id="i411_11_38">
   <From>
   <StopPointRef>40004410084B</StopPointRef>
   </From>
   <To>
   <StopPointRef>40004410085B</StopPointRef>
   </To>
   <Direction>inbound</Direction>
   <Track>
   <Mapping>
   <Location>
   <Longitude>-0.078135</Longitude>
   <Latitude>51.282006</Latitude>
   </Location>
   <Location>
   <Longitude>-0.078006</Longitude>
   <Latitude>51.282024</Latitude>
   </Location>
   <Location>
   <Longitude>-0.077978</Longitude>
   <Latitude>51.282051</Latitude>
   </Location>
   <Location>
   <Longitude>-0.077648</Longitude>
   <Latitude>51.282132</Latitude>
   </Location>
   <Location>
   <Longitude>-0.077404</Longitude>
   <Latitude>51.282213</Latitude>
   </Location>
   <Location>
   <Longitude>-0.077390</Longitude>
   <Latitude>51.282240</Latitude>
   </Location>
   <Location>
   <Longitude>-0.077347</Longitude>
   <Latitude>51.282267</Latitude>
   </Location>
   <Location>
   <Longitude>-0.077318</Longitude>
   <Latitude>51.282285</Latitude>
   </Location>
   <Location>
   <Longitude>-0.077261</Longitude>
   <Latitude>51.282293</Latitude>
   </Location>
   <Location>
   <Longitude>-0.077203</Longitude>
   <Latitude>51.282293</Latitude>
   </Location>
   <Location>
   <Longitude>-0.077146</Longitude>
   <Latitude>51.282275</Latitude>
   </Location>
   <Location>
   <Longitude>-0.077103</Longitude>
   <Latitude>51.282249</Latitude>
   </Location>
   <Location>
   <Longitude>-0.077103</Longitude>
   <Latitude>51.282222</Latitude>
   </Location>
   <Location>
   <Longitude>-0.077103</Longitude>
   <Latitude>51.282204</Latitude>
   </Location>
   <Location>
   <Longitude>-0.077117</Longitude>
   <Latitude>51.282168</Latitude>
   </Location>
   <Location>
   <Longitude>-0.077160</Longitude>
   <Latitude>51.282141</Latitude>
   </Location>
   <Location>
   <Longitude>-0.077204</Longitude>
   <Latitude>51.282123</Latitude>
   </Location>
   <Location>
   <Longitude>-0.077275</Longitude>
   <Latitude>51.282114</Latitude>
   </Location>
   <Location>
   <Longitude>-0.077347</Longitude>
   <Latitude>51.282123</Latitude>
   </Location>
   <Location>
   <Longitude>-0.077634</Longitude>
   <Latitude>51.282087</Latitude>
   </Location>
   <Location>
   <Longitude>-0.077963</Longitude>
   <Latitude>51.282015</Latitude>
   </Location>
   <Location>
   <Longitude>-0.078006</Longitude>
   <Latitude>51.282024</Latitude>
   </Location>
   <Location>
   <Longitude>-0.078064</Longitude>
   <Latitude>51.282015</Latitude>
   </Location>
   <Location>
   <Longitude>-0.078221</Longitude>
   <Latitude>51.281988</Latitude>
   </Location>
   <Location>
   <Longitude>-0.078365</Longitude>
   <Latitude>51.281961</Latitude>
   </Location>
   <Location>
   <Longitude>-0.078522</Longitude>
   <Latitude>51.281925</Latitude>
   </Location>
   <Location>
   <Longitude>-0.078824</Longitude>
   <Latitude>51.281916</Latitude>
   </Location>
   <Location>
   <Longitude>-0.079540</Longitude>
   <Latitude>51.281952</Latitude>
   </Location>
   <Location>
   <Longitude>-0.080028</Longitude>
   <Latitude>51.281826</Latitude>
   </Location>
   <Location>
   <Longitude>-0.081304</Longitude>
   <Latitude>51.281278</Latitude>
   </Location>
   <Location>
   <Longitude>-0.081806</Longitude>
   <Latitude>51.281143</Latitude>
   </Location>
   <Location>
   <Longitude>-0.082522</Longitude>
   <Latitude>51.281081</Latitude>
   </Location>
   <Location>
   <Longitude>-0.082981</Longitude>
   <Latitude>51.281108</Latitude>
   </Location>
   <Location>
   <Longitude>-0.083927</Longitude>
   <Latitude>51.281225</Latitude>
   </Location>
   <Location>
   <Longitude>-0.084572</Longitude>
   <Latitude>51.281225</Latitude>
   </Location>
   <Location>
   <Longitude>-0.085031</Longitude>
   <Latitude>51.281261</Latitude>
   </Location>
   <Location>
   <Longitude>-0.085332</Longitude>
   <Latitude>51.281342</Latitude>
   </Location>
   <Location>
   <Longitude>-0.085475</Longitude>
   <Latitude>51.281557</Latitude>
   </Location>
   <Location>
   <Longitude>-0.085776</Longitude>
