<?xml version="1.0" encoding="UTF-8"?>
<TransXChange SchemaVersion="2.4" RevisionNumber="0" xmlns="http://www.transxchange.org.uk/" RegistrationDocument="false" xsi:schemaLocation="http://www.transxchange.org.uk/ http://www.transxchange.org.uk/schema/2.4/TransXChange_general.xsd" xml:lang="en" CreationDateTime="2025-02-27T17:36:18+00:00" xmlns:apd="http://www.govtalk.gov.uk/people/AddressAndPersonalDetails" xmlns:xsi="http://www.w3.org/2001/XMLSchema-instance" ModificationDateTime="2025-02-27T17:36:18+00:00" FileName="metrobus-281.xml" Modification="new"> <!-- ExportProgramVersion="4.184" -->

   <ServicedOrganisations>
   <ServicedOrganisation>
   <OrganisationCode>Sch</OrganisationCode>
   <Name>AnySchool</Name>
   <WorkingDays>
   <DateRange>
   <StartDate>2025-03-03</StartDate>
   <EndDate>2025-03-07</EndDate>
   </DateRange>
   <DateRange>
   <StartDate>2025-03-10</StartDate>
   <EndDate>2025-03-14</EndDate>
   </DateRange>
   <DateRange>
   <StartDate>2025-03-17</StartDate>
   <EndDate>2025-03-21</EndDate>
   </DateRange>
   <DateRange>
   <StartDate>2025-03-24</StartDate>
   <EndDate>2025-03-28</EndDate>
   </DateRange>
   <DateRange>
   <StartDate>2025-03-31</StartDate>
   <EndDate>2025-04-04</EndDate>
   </DateRange>
   <DateRange>
   <StartDate>2025-04-22</StartDate>
   <EndDate>2025-04-25</EndDate>
   </DateRange>
   <DateRange>
   <StartDate>2025-04-28</StartDate>
   <EndDate>2025-05-02</EndDate>
   </DateRange>
   <DateRange>
   <StartDate>2025-05-06</StartDate>
   <EndDate>2025-05-09</EndDate>
   </DateRange>
   <DateRange>
   <StartDate>2025-05-12</StartDate>
   <EndDate>2025-05-16</EndDate>
   </DateRange>
   <DateRange>
   <StartDate>2025-05-19</StartDate>
   <EndDate>2025-05-23</EndDate>
   </DateRange>
   </WorkingDays>
   </ServicedOrganisation>
   </ServicedOrganisations>
   <StopPoints>
   <AnnotatedStopPointRef>
   <StopPointRef>40004410049A</StopPointRef>
   <CommonName>Lingfield Station</CommonName>
   <Location>
   <Longitude>-0.008497</Longitude>
   <Latitude>51.176129</Latitude>
   </Location>
   </AnnotatedStopPointRef>
   <AnnotatedStopPointRef>
   <StopPointRef>40004410289B</StopPointRef>
   <CommonName>Pauls Mead</CommonName>
   <Location>
   <Longitude>-0.009346</Longitude>
   <Latitude>51.180580</Latitude>
   </Location>
   </AnnotatedStopPointRef>
   <AnnotatedStopPointRef>
   <StopPointRef>40004410053A</StopPointRef>
   <CommonName>Lingfield, Saxby's Lane</CommonName>
   <Location>
   <Longitude>-0.012735</Longitude>
   <Latitude>51.181509</Latitude>
   </Location>
   </AnnotatedStopPointRef>
   <AnnotatedStopPointRef>
   <StopPointRef>40004410054B</StopPointRef>
   <CommonName>Haxted Road</CommonName>
   <Location>
   <Longitude>-0.015302</Longitude>
   <Latitude>51.185583</Latitude>
   </Location>
   </AnnotatedStopPointRef>
   <AnnotatedStopPointRef>
   <StopPointRef>40004410052A</StopPointRef>
   <CommonName>Little Lullenden</CommonName>
   <Location>
   <Longitude>-0.013769</Longitude>
   <Latitude>51.179316</Latitude>
   </Location>
   </AnnotatedStopPointRef>
   <AnnotatedStopPointRef>
   <StopPointRef>40004410055D</StopPointRef>
   <CommonName>Meadowside</CommonName>
   <Location>
   <Longitude>-0.024762</Longitude>
   <Latitude>51.183288</Latitude>
   </Location>
   </AnnotatedStopPointRef>
   <AnnotatedStopPointRef>
   <StopPointRef>40004410216A</StopPointRef>
   <CommonName>The Star</CommonName>
   <Location>
   <Longitude>-0.013890</Longitude>
   <Latitude>51.175486</Latitude>
   </Location>
   </AnnotatedStopPointRef>
   <AnnotatedStopPointRef>
   <StopPointRef>40004410215B</StopPointRef>
   <CommonName>Godstone Road</CommonName>
   <LocalityName>Tandridge</LocalityName>
   <Location>
   <Longitude>-0.020884</Longitude>
   <Latitude>51.175598</Latitude>
   </Location>
   </AnnotatedStopPointRef>
   <AnnotatedStopPointRef>
   <StopPointRef>40004410051B</StopPointRef>
   <CommonName>Lingfield, War Memorial</CommonName>
   <Location>
   <Longitude>-0.017539</Longitude>
   <Latitude>51.174365</Latitude>
   </Location>
   </AnnotatedStopPointRef>
   <AnnotatedStopPointRef>
   <StopPointRef>40004410051A</StopPointRef>
   <CommonName>Lingfield, War Memorial</CommonName>
   <Location>
   <Longitude>-0.017224</Longitude>
   <Latitude>51.174463</Latitude>
   </Location>
   </AnnotatedStopPointRef>
   <AnnotatedStopPointRef>
   <StopPointRef>40004410048A</StopPointRef>
   <CommonName>Station Road</CommonName>
   <Location>
   <Longitude>-0.008960</Longitude>
   <Latitude>51.173261</Latitude>
   </Location>
   </AnnotatedStopPointRef>
   <AnnotatedStopPointRef>
   <StopPointRef>40004410047A</StopPointRef>
   <CommonName>Lingfield Racecourse</CommonName>
   <Location>
   <Longitude>-0.003502</Longitude>
   <Latitude>51.170749</Latitude>
   </Location>
   </AnnotatedStopPointRef>
   <AnnotatedStopPointRef>
   <StopPointRef>40004410046C</StopPointRef>
   <CommonName>St Pier's Lane</CommonName>
   <Location>
   <Longitude>-0.000170</Longitude>
   <Latitude>51.170324</Latitude>
   </Location>
   </AnnotatedStopPointRef>
   <AnnotatedStopPointRef>
   <StopPointRef>40004410042D</StopPointRef>
   <CommonName>Dormansland, Swallowfield</CommonName>
   <Location>
   <Longitude>0.006282</Longitude>
   <Latitude>51.165104</Latitude>
   </Location>
   </AnnotatedStopPointRef>
   <AnnotatedStopPointRef>
   <StopPointRef>40004410042A</StopPointRef>
   <CommonName>Memorial Hall</CommonName>
   <Location>
   <Longitude>0.007036</Longitude>
   <Latitude>51.163673</Latitude>
   </Location>
   </AnnotatedStopPointRef>
   <AnnotatedStopPointRef>
   <StopPointRef>40004410041A</StopPointRef>
   <CommonName>Dormansland School</CommonName>
   <Location>
   <Longitude>0.005840</Longitude>
   <Latitude>51.159503</Latitude>
   </Location>
   </AnnotatedStopPointRef>
   <AnnotatedStopPointRef>
   <StopPointRef>40004410040C</StopPointRef>
   <CommonName>Dormans Station Turning</CommonName>
   <Location>
   <Longitude>0.003743</Longitude>
   <Latitude>51.154866</Latitude>
   </Location>
   </AnnotatedStopPointRef>
   <AnnotatedStopPointRef>
   <StopPointRef>40004410039C</StopPointRef>
   <CommonName>The Approach</CommonName>
   <Location>
   <Longitude>0.002530</Longitude>
   <Latitude>51.149562</Latitude>
   </Location>
   </AnnotatedStopPointRef>
   <AnnotatedStopPointRef>
   <StopPointRef>40004410280B</StopPointRef>
   <CommonName>Wilderwick Farm</CommonName>
   <Location>
   <Longitude>0.004551</Longitude>
   <Latitude>51.145641</Latitude>
   </Location>
   </AnnotatedStopPointRef>
   <AnnotatedStopPointRef>
   <StopPointRef>4400EG0203</StopPointRef>
   <CommonName>The Larches</CommonName>
   <Location>
   <Longitude>0.005306</Longitude>
   <Latitude>51.137818</Latitude>
   </Location>
   </AnnotatedStopPointRef>
   <AnnotatedStopPointRef>
   <StopPointRef>4400EG0466</StopPointRef>
   <CommonName>Copse Close</CommonName>
   <Location>
   <Longitude>-0.000813</Longitude>
   <Latitude>51.136943</Latitude>
   </Location>
   </AnnotatedStopPointRef>
   <AnnotatedStopPointRef>
   <StopPointRef>4400EG0205</StopPointRef>
   <CommonName>Stone Quarry Estate</CommonName>
   <Location>
   <Longitude>0.000932</Longitude>
   <Latitude>51.137247</Latitude>
   </Location>
   </AnnotatedStopPointRef>
   <AnnotatedStopPointRef>
   <StopPointRef>4400EG0208</StopPointRef>
   <CommonName>Turner Court</CommonName>
   <Location>
   <Longitude>0.001700</Longitude>
   <Latitude>51.135772</Latitude>
   </Location>
   </AnnotatedStopPointRef>
   <AnnotatedStopPointRef>
   <StopPointRef>4400EG0210</StopPointRef>
   <CommonName>Queen Victoria Hospital</CommonName>
   <Location>
   <Longitude>-0.000875</Longitude>
   <Latitude>51.134183</Latitude>
   </Location>
   </AnnotatedStopPointRef>
   <AnnotatedStopPointRef>
   <StopPointRef>4400EG0211</StopPointRef>
   <CommonName>East Court</CommonName>
   <Location>
   <Longitude>-0.003611</Longitude>
   <Latitude>51.131335</Latitude>
   </Location>
   </AnnotatedStopPointRef>
   <AnnotatedStopPointRef>
   <StopPointRef>4400EG0198</StopPointRef>
   <CommonName>Court Crescent</CommonName>
   <Location>
   <Longitude>-0.000447</Longitude>
   <Latitude>51.127412</Latitude>
   </Location>
   </AnnotatedStopPointRef>
   <AnnotatedStopPointRef>
   <StopPointRef>4400EG0195</StopPointRef>
   <CommonName>Chestnut Close</CommonName>
   <Location>
   <Longitude>0.005255</Longitude>
   <Latitude>51.128037</Latitude>
   </Location>
   </AnnotatedStopPointRef>
   <AnnotatedStopPointRef>
   <StopPointRef>4400EG0194</StopPointRef>
   <CommonName>Worsted Farm, Harmans Drive</CommonName>
   <Location>
   <Longitude>0.007867</Longitude>
   <Latitude>51.126668</Latitude>
   </Location>
   </AnnotatedStopPointRef>
   <AnnotatedStopPointRef>
   <StopPointRef>4400EG0192</StopPointRef>
   <CommonName>Woodbury Avenue</CommonName>
   <Location>
   <Longitude>0.007202</Longitude>
   <Latitude>51.123522</Latitude>
   </Location>
   </AnnotatedStopPointRef>
   <AnnotatedStopPointRef>
   <StopPointRef>4400EG0176</StopPointRef>
   <CommonName>Herontye Drive</CommonName>
   <Location>
   <Longitude>0.004400</Longitude>
   <Latitude>51.122652</Latitude>
   </Location>
   </AnnotatedStopPointRef>
   <AnnotatedStopPointRef>
   <StopPointRef>4400EG0269</StopPointRef>
   <CommonName>Sackville School, A22</CommonName>
   <Location>
   <Longitude>0.000602</Longitude>
   <Latitude>51.123474</Latitude>
   </Location>
   </AnnotatedStopPointRef>
   <AnnotatedStopPointRef>
   <StopPointRef>4400EG0270</StopPointRef>
   <CommonName>Sackville College</CommonName>
   <Location>
   <Longitude>-0.004168</Longitude>
   <Latitude>51.123963</Latitude>
   </Location>
   </AnnotatedStopPointRef>
   <AnnotatedStopPointRef>
   <StopPointRef>4400EG0273</StopPointRef>
   <CommonName>East Grinstead, High Street</CommonName>
   <Location>
   <Longitude>-0.008011</Longitude>
   <Latitude>51.123957</Latitude>
   </Location>
   </AnnotatedStopPointRef>
   <AnnotatedStopPointRef>
   <StopPointRef>4400EG0360</StopPointRef>
   <CommonName>Whitehall</CommonName>
   <Location>
   <Longitude>-0.008838</Longitude>
   <Latitude>51.125270</Latitude>
   </Location>
   </AnnotatedStopPointRef>
   <AnnotatedStopPointRef>
   <StopPointRef>4400EG0323</StopPointRef>
   <CommonName>Railway Approach</CommonName>
   <Location>
   <Longitude>-0.013265</Longitude>
   <Latitude>51.126308</Latitude>
   </Location>
   </AnnotatedStopPointRef>
   <AnnotatedStopPointRef>
   <StopPointRef>4400EG0295</StopPointRef>
   <CommonName>East Grinstead Station</CommonName>
   <Location>
   <Longitude>-0.017079</Longitude>
   <Latitude>51.126625</Latitude>
   </Location>
   </AnnotatedStopPointRef>
   <AnnotatedStopPointRef>
   <StopPointRef>4400EG0291</StopPointRef>
   <CommonName>East Grinstead, Brooklands Way</CommonName>
   <Location>
   <Longitude>-0.016809</Longitude>
   <Latitude>51.125501</Latitude>
   </Location>
   </AnnotatedStopPointRef>
   <AnnotatedStopPointRef>
   <StopPointRef>4400EG0431</StopPointRef>
   <CommonName>Garland Road</CommonName>
   <Location>
   <Longitude>-0.016745</Longitude>
   <Latitude>51.129699</Latitude>
   </Location>
   </AnnotatedStopPointRef>
   <AnnotatedStopPointRef>
   <StopPointRef>4400EG0679</StopPointRef>
   <CommonName>Garden Wood Road</CommonName>
   <Location>
   <Longitude>-0.019128</Longitude>
   <Latitude>51.122859</Latitude>
   </Location>
   </AnnotatedStopPointRef>
   <AnnotatedStopPointRef>
   <StopPointRef>4400EG0313</StopPointRef>
   <CommonName>Imberhorne Lower School</CommonName>
   <Location>
   <Longitude>-0.019822</Longitude>
   <Latitude>51.134808</Latitude>
   </Location>
   </AnnotatedStopPointRef>
   <AnnotatedStopPointRef>
   <StopPointRef>4400EG0288</StopPointRef>
   <CommonName>Railway Viaduct</CommonName>
   <Location>
   <Longitude>-0.023414</Longitude>
   <Latitude>51.122934</Latitude>
   </Location>
   </AnnotatedStopPointRef>
   <AnnotatedStopPointRef>
   <StopPointRef>4400EG0325</StopPointRef>
   <CommonName>Lingfield Road</CommonName>
   <Location>
   <Longitude>-0.019186</Longitude>
   <Latitude>51.131086</Latitude>
   </Location>
   </AnnotatedStopPointRef>
   <AnnotatedStopPointRef>
   <StopPointRef>4400EG0438</StopPointRef>
   <CommonName>Garden Wood Rd, Kipling Way</CommonName>
   <Location>
   <Longitude>-0.028153</Longitude>
   <Latitude>51.125427</Latitude>
   </Location>
   </AnnotatedStopPointRef>
   <AnnotatedStopPointRef>
   <StopPointRef>4400EG0312</StopPointRef>
   <CommonName>Gwynne Gardens</CommonName>
   <Location>
   <Longitude>-0.024825</Longitude>
   <Latitude>51.133750</Latitude>
   </Location>
   </AnnotatedStopPointRef>
   <AnnotatedStopPointRef>
   <StopPointRef>4400EG0285</StopPointRef>
   <CommonName>Blount Avenue</CommonName>
   <Location>
   <Longitude>-0.029593</Longitude>
   <Latitude>51.127172</Latitude>
   </Location>
   </AnnotatedStopPointRef>
   <AnnotatedStopPointRef>
   <StopPointRef>4400EG0307</StopPointRef>
   <CommonName>Halsford Green</CommonName>
   <Location>
   <Longitude>-0.028453</Longitude>
   <Latitude>51.134822</Latitude>
   </Location>
   </AnnotatedStopPointRef>
   <AnnotatedStopPointRef>
   <StopPointRef>4400EG0287</StopPointRef>
   <CommonName>Heathcote Drive</CommonName>
   <Location>
   <Longitude>-0.029631</Longitude>
   <Latitude>51.130732</Latitude>
   </Location>
   </AnnotatedStopPointRef>
   <AnnotatedStopPointRef>
   <StopPointRef>4400EG0304</StopPointRef>
   <CommonName>Yew Lane</CommonName>
   <Location>
   <Longitude>-0.032181</Longitude>
   <Latitude>51.136218</Latitude>
   </Location>
   </AnnotatedStopPointRef>
   <AnnotatedStopPointRef>
   <StopPointRef>4400EG0651</StopPointRef>
   <CommonName>Fairlawn Drive</CommonName>
   <Location>
   <Longitude>-0.031158</Longitude>
   <Latitude>51.132091</Latitude>
   </Location>
   </AnnotatedStopPointRef>
   <AnnotatedStopPointRef>
   <StopPointRef>4400EG0649</StopPointRef>
   <CommonName>Imberhorne Upper School</CommonName>
   <Location>
   <Longitude>-0.034498</Longitude>
   <Latitude>51.134682</Latitude>
   </Location>
   </AnnotatedStopPointRef>
   <AnnotatedStopPointRef>
   <StopPointRef>4400EG0301</StopPointRef>
   <CommonName>Imberhorne Lane, Upper Sch</CommonName>
   <Location>
   <Longitude>-0.034084</Longitude>
   <Latitude>51.134763</Latitude>
   </Location>
   </AnnotatedStopPointRef>
   <AnnotatedStopPointRef>
   <StopPointRef>4400EG0302</StopPointRef>
   <CommonName>Felbridge Hotel</CommonName>
   <Location>
   <Longitude>-0.036365</Longitude>
   <Latitude>51.138117</Latitude>
   </Location>
   </AnnotatedStopPointRef>
   <AnnotatedStopPointRef>
   <StopPointRef>40004410001B</StopPointRef>
   <CommonName>Felbridge, Star</CommonName>
   <Location>
   <Longitude>-0.040079</Longitude>
   <Latitude>51.139540</Latitude>
   </Location>
   </AnnotatedStopPointRef>
   <AnnotatedStopPointRef>
   <StopPointRef>40004410002D</StopPointRef>
   <CommonName>Felbridge School</CommonName>
   <Location>
   <Longitude>-0.046110</Longitude>
   <Latitude>51.139390</Latitude>
   </Location>
   </AnnotatedStopPointRef>
   <AnnotatedStopPointRef>
   <StopPointRef>40004410003B</StopPointRef>
   <CommonName>McIver Close</CommonName>
   <Location>
   <Longitude>-0.048912</Longitude>
   <Latitude>51.138717</Latitude>
   </Location>
   </AnnotatedStopPointRef>
   <AnnotatedStopPointRef>
   <StopPointRef>4400EG0216</StopPointRef>
   <CommonName>Rowplatt Lane</CommonName>
   <Location>
   <Longitude>-0.054230</Longitude>
   <Latitude>51.137379</Latitude>
   </Location>
   </AnnotatedStopPointRef>
   <AnnotatedStopPointRef>
   <StopPointRef>4400EG0218</StopPointRef>
   <CommonName>Felbridge Nurseries</CommonName>
   <Location>
   <Longitude>-0.061304</Longitude>
   <Latitude>51.136051</Latitude>
   </Location>
   </AnnotatedStopPointRef>
   <AnnotatedStopPointRef>
   <StopPointRef>4400EG0238</StopPointRef>
   <CommonName>Cuttinglye Road</CommonName>
   <Location>
   <Longitude>-0.063265</Longitude>
   <Latitude>51.131628</Latitude>
   </Location>
   </AnnotatedStopPointRef>
   <AnnotatedStopPointRef>
   <StopPointRef>4400EG0242</StopPointRef>
   <CommonName>Pasture Wood</CommonName>
   <Location>
   <Longitude>-0.070384</Longitude>
   <Latitude>51.126775</Latitude>
   </Location>
   </AnnotatedStopPointRef>
   <AnnotatedStopPointRef>
   <StopPointRef>4400EG0469</StopPointRef>
   <CommonName>Tiltwood Drive</CommonName>
   <Location>
   <Longitude>-0.072299</Longitude>
   <Latitude>51.125229</Latitude>
   </Location>
   </AnnotatedStopPointRef>
   <AnnotatedStopPointRef>
   <StopPointRef>4400EG0251</StopPointRef>
   <CommonName>Larches Way</CommonName>
   <Location>
   <Longitude>-0.073572</Longitude>
   <Latitude>51.123737</Latitude>
   </Location>
   </AnnotatedStopPointRef>
   <AnnotatedStopPointRef>
   <StopPointRef>4400EG0249</StopPointRef>
   <CommonName>Crawley Down, Burleigh Way</CommonName>
   <Location>
   <Longitude>-0.076459</Longitude>
   <Latitude>51.120762</Latitude>
   </Location>
   </AnnotatedStopPointRef>
   <AnnotatedStopPointRef>
   <StopPointRef>4400EG0353</StopPointRef>
   <CommonName>Sunnymead</CommonName>
   <Location>
   <Longitude>-0.078772</Longitude>
   <Latitude>51.122497</Latitude>
   </Location>
   </AnnotatedStopPointRef>
   <AnnotatedStopPointRef>
   <StopPointRef>4400EG0246</StopPointRef>
   <CommonName>Crawley Down, War Memorial</CommonName>
   <Location>
   <Longitude>-0.079357</Longitude>
   <Latitude>51.124799</Latitude>
   </Location>
   </AnnotatedStopPointRef>
   <AnnotatedStopPointRef>
   <StopPointRef>4400EG0448</StopPointRef>
   <CommonName>Forge Garage</CommonName>
   <Location>
   <Longitude>-0.083972</Longitude>
   <Latitude>51.125078</Latitude>
   </Location>
   </AnnotatedStopPointRef>
   <AnnotatedStopPointRef>
   <StopPointRef>4400EG0236</StopPointRef>
   <CommonName>Sandy Lane</CommonName>
   <Location>
   <Longitude>-0.089558</Longitude>
   <Latitude>51.126194</Latitude>
   </Location>
   </AnnotatedStopPointRef>
   <AnnotatedStopPointRef>
   <StopPointRef>4400EG0359</StopPointRef>
   <CommonName>Mascotte</CommonName>
   <Location>
   <Longitude>-0.091043</Longitude>
   <Latitude>51.129233</Latitude>
   </Location>
   </AnnotatedStopPointRef>
   <AnnotatedStopPointRef>
   <StopPointRef>4400EG0232</StopPointRef>
   <CommonName>Copthorne, Dukes Head</CommonName>
   <Location>
   <Longitude>-0.094329</Longitude>
   <Latitude>51.136092</Latitude>
   </Location>
   </AnnotatedStopPointRef>
   <AnnotatedStopPointRef>
   <StopPointRef>4400EG0230</StopPointRef>
   <CommonName>Cottage Place</CommonName>
   <Location>
   <Longitude>-0.097916</Longitude>
   <Latitude>51.136506</Latitude>
   </Location>
   </AnnotatedStopPointRef>
   <AnnotatedStopPointRef>
   <StopPointRef>4400EG0228</StopPointRef>
   <CommonName>Abergavenny Gardens</CommonName>
   <Location>
   <Longitude>-0.103446</Longitude>
   <Latitude>51.137045</Latitude>
   </Location>
   </AnnotatedStopPointRef>
   <AnnotatedStopPointRef>
   <StopPointRef>4400EG0263</StopPointRef>
   <CommonName>Lashmere</CommonName>
   <Location>
   <Longitude>-0.107476</Longitude>
   <Latitude>51.138178</Latitude>
   </Location>
   </AnnotatedStopPointRef>
   <AnnotatedStopPointRef>
   <StopPointRef>4400EG0261</StopPointRef>
   <CommonName>Borers Close</CommonName>
   <Location>
   <Longitude>-0.111735</Longitude>
   <Latitude>51.139238</Latitude>
   </Location>
   </AnnotatedStopPointRef>
   <AnnotatedStopPointRef>
   <StopPointRef>4400EG0265</StopPointRef>
   <CommonName>Copthorne Church</CommonName>
   <Location>
   <Longitude>-0.116866</Longitude>
   <Latitude>51.139912</Latitude>
   </Location>
   </AnnotatedStopPointRef>
   <AnnotatedStopPointRef>
   <StopPointRef>4400EG0454</StopPointRef>
   <CommonName>Village Hall</CommonName>
   <Location>
   <Longitude>-0.121182</Longitude>
   <Latitude>51.139416</Latitude>
   </Location>
   </AnnotatedStopPointRef>
   <AnnotatedStopPointRef>
   <StopPointRef>4400EG0258</StopPointRef>
   <CommonName>Copthorne, Prince Albert</CommonName>
   <Location>
   <Longitude>-0.124097</Longitude>
   <Latitude>51.139056</Latitude>
   </Location>
   </AnnotatedStopPointRef>
   <AnnotatedStopPointRef>
   <StopPointRef>4400EG0706</StopPointRef>
   <CommonName>Gibby Way</CommonName>
   <LocalityName>Mid Sussex</LocalityName>
   <Location>
   <Longitude>-0.132714</Longitude>
   <Latitude>51.138910</Latitude>
   </Location>
   </AnnotatedStopPointRef>
   <AnnotatedStopPointRef>
   <StopPointRef>4400EG0703</StopPointRef>
   <CommonName>Langridge Way</CommonName>
   <Location>
   <Longitude>-0.133770</Longitude>
   <Latitude>51.136635</Latitude>
   </Location>
   </AnnotatedStopPointRef>
   <AnnotatedStopPointRef>
   <StopPointRef>4400EG0701</StopPointRef>
   <CommonName>Heathy Wood, Payne Way</CommonName>
   <Location>
   <Longitude>-0.134183</Longitude>
   <Latitude>51.134585</Latitude>
   </Location>
   </AnnotatedStopPointRef>
   <AnnotatedStopPointRef>
   <StopPointRef>4400EG0221</StopPointRef>
   <CommonName>Petrol Station</CommonName>
   <Location>
   <Longitude>-0.132993</Longitude>
   <Latitude>51.130468</Latitude>
   </Location>
   </AnnotatedStopPointRef>
   <AnnotatedStopPointRef>
   <StopPointRef>4400EG0449</StopPointRef>
   <CommonName>Garden Centre</CommonName>
   <Location>
   <Longitude>-0.137977</Longitude>
   <Latitude>51.127257</Latitude>
   </Location>
   </AnnotatedStopPointRef>
   <AnnotatedStopPointRef>
   <StopPointRef>4400CY0182</StopPointRef>
   <CommonName>Ridley's Corner</CommonName>
   <Location>
   <Longitude>-0.148916</Longitude>
   <Latitude>51.122910</Latitude>
   </Location>
   </AnnotatedStopPointRef>
   <AnnotatedStopPointRef>
   <StopPointRef>4400CY0522</StopPointRef>
   <CommonName>Worth Park Avenue</CommonName>
   <Location>
   <Longitude>-0.155727</Longitude>
   <Latitude>51.120200</Latitude>
   </Location>
   </AnnotatedStopPointRef>
   <AnnotatedStopPointRef>
   <StopPointRef>4400CY0203</StopPointRef>
   <CommonName>Three Bridges Station</CommonName>
   <Location>
   <Longitude>-0.162524</Longitude>
   <Latitude>51.117976</Latitude>
   </Location>
   </AnnotatedStopPointRef>
   <AnnotatedStopPointRef>
   <StopPointRef>4400CY0217</StopPointRef>
   <CommonName>Jubilee Walk</CommonName>
   <Location>
   <Longitude>-0.166208</Longitude>
   <Latitude>51.116886</Latitude>
   </Location>
   </AnnotatedStopPointRef>
   <AnnotatedStopPointRef>
   <StopPointRef>4400CY0447</StopPointRef>
   <CommonName>Artel Croft</CommonName>
   <Location>
   <Longitude>-0.170534</Longitude>
   <Latitude>51.115868</Latitude>
   </Location>
   </AnnotatedStopPointRef>
   <AnnotatedStopPointRef>
   <StopPointRef>4400CY0227</StopPointRef>
   <CommonName>Rowan Close</CommonName>
   <Location>
   <Longitude>-0.178617</Longitude>
   <Latitude>51.114900</Latitude>
   </Location>
   </AnnotatedStopPointRef>
   <AnnotatedStopPointRef>
   <StopPointRef>4400CY0295</StopPointRef>
   <CommonName>Crawley Bus Station</CommonName>
   <Location>
   <Longitude>-0.186683</Longitude>
   <Latitude>51.112952</Latitude>
   </Location>
   </AnnotatedStopPointRef>
   <AnnotatedStopPointRef>
   <StopPointRef>4400CY0140</StopPointRef>
   <CommonName>East Park</CommonName>
   <Location>
   <Longitude>-0.190637</Longitude>
   <Latitude>51.111645</Latitude>
   </Location>
   </AnnotatedStopPointRef>
   <AnnotatedStopPointRef>
   <StopPointRef>4400CY0501</StopPointRef>
   <CommonName>Sunningdale Court</CommonName>
   <Location>
   <Longitude>-0.191032</Longitude>
   <Latitude>51.109344</Latitude>
   </Location>
   </AnnotatedStopPointRef>
   <AnnotatedStopPointRef>
   <StopPointRef>4400CY0500</StopPointRef>
   <CommonName>Goffs Park Road</CommonName>
   <Location>
   <Longitude>-0.196458</Longitude>
   <Latitude>51.108683</Latitude>
   </Location>
   </AnnotatedStopPointRef>
   <AnnotatedStopPointRef>
   <StopPointRef>4400CY0079</StopPointRef>
   <CommonName>Goffs Park</CommonName>
   <Location>
   <Longitude>-0.199531</Longitude>
   <Latitude>51.109939</Latitude>
   </Location>
   </AnnotatedStopPointRef>
   <AnnotatedStopPointRef>
   <StopPointRef>4400CY0394</StopPointRef>
   <CommonName>St Wilfrids School</CommonName>
   <Location>
   <Longitude>-0.203016</Longitude>
   <Latitude>51.109990</Latitude>
   </Location>
   </AnnotatedStopPointRef>
   <AnnotatedStopPointRef>
   <StopPointRef>4400CY0077</StopPointRef>
   <CommonName>Cheals Roundabout</CommonName>
   <Location>
   <Longitude>-0.206161</Longitude>
   <Latitude>51.104970</Latitude>
   </Location>
   </AnnotatedStopPointRef>
   <AnnotatedStopPointRef>
   <StopPointRef>4400CY0076</StopPointRef>
   <CommonName>Cheals Roundabout</CommonName>
   <Location>
   <Longitude>-0.206475</Longitude>
   <Latitude>51.105185</Latitude>
   </Location>
   </AnnotatedStopPointRef>
   <AnnotatedStopPointRef>
   <StopPointRef>4400CY0278</StopPointRef>
   <CommonName>Holy Trinity School</CommonName>
   <Location>
   <Longitude>-0.208705</Longitude>
   <Latitude>51.106028</Latitude>
   </Location>
   </AnnotatedStopPointRef>
   <AnnotatedStopPointRef>
   <StopPointRef>4400EG0229</StopPointRef>
   <CommonName>Abergavenny Gardens</CommonName>
   <Location>
   <Longitude>-0.101474</Longitude>
   <Latitude>51.137045</Latitude>
   </Location>
   </AnnotatedStopPointRef>
   <AnnotatedStopPointRef>
   <StopPointRef>4400CY0446</StopPointRef>
   <CommonName>Artel Croft</CommonName>
   <Location>
   <Longitude>-0.171391</Longitude>
   <Latitude>51.115876</Latitude>
   </Location>
   </AnnotatedStopPointRef>
   <AnnotatedStopPointRef>
   <StopPointRef>4400CY0183</StopPointRef>
   <CommonName>Blackheath</CommonName>
   <LocalityName>Crawley</LocalityName>
   <Location>
   <Longitude>-0.145003</Longitude>
   <Latitude>51.124143</Latitude>
   </Location>
   </AnnotatedStopPointRef>
   <AnnotatedStopPointRef>
   <StopPointRef>4400EG0437</StopPointRef>
   <CommonName>Blount Avenue</CommonName>
   <Location>
   <Longitude>-0.029336</Longitude>
   <Latitude>51.127163</Latitude>
   </Location>
   </AnnotatedStopPointRef>
   <AnnotatedStopPointRef>
   <StopPointRef>4400EG0262</StopPointRef>
   <CommonName>Borers Close</CommonName>
   <Location>
   <Longitude>-0.111678</Longitude>
   <Latitude>51.139301</Latitude>
   </Location>
   </AnnotatedStopPointRef>
   <AnnotatedStopPointRef>
   <StopPointRef>4400EG0308</StopPointRef>
   <CommonName>Buckhurst Way</CommonName>
   <Location>
   <Longitude>-0.026368</Longitude>
   <Latitude>51.134372</Latitude>
   </Location>
   </AnnotatedStopPointRef>
   <AnnotatedStopPointRef>
   <StopPointRef>4400EG0250</StopPointRef>
   <CommonName>Burleigh Close</CommonName>
   <Location>
   <Longitude>-0.074586</Longitude>
   <Latitude>51.122919</Latitude>
   </Location>
   </AnnotatedStopPointRef>
   <AnnotatedStopPointRef>
   <StopPointRef>4400EG0196</StopPointRef>
   <CommonName>Chestnut Close</CommonName>
   <Location>
   <Longitude>0.004812</Longitude>
   <Latitude>51.127803</Latitude>
   </Location>
   </AnnotatedStopPointRef>
   <AnnotatedStopPointRef>
   <StopPointRef>4400EG0266</StopPointRef>
   <CommonName>Copthorne Church</CommonName>
   <Location>
   <Longitude>-0.116952</Longitude>
   <Latitude>51.140064</Latitude>
   </Location>
   </AnnotatedStopPointRef>
   <AnnotatedStopPointRef>
   <StopPointRef>4400EG0233</StopPointRef>
   <CommonName>Copthorne, Dukes Head</CommonName>
   <Location>
   <Longitude>-0.092714</Longitude>
   <Latitude>51.136029</Latitude>
   </Location>
   </AnnotatedStopPointRef>
   <AnnotatedStopPointRef>
   <StopPointRef>4400EG0231</StopPointRef>
   <CommonName>Cottage Place</CommonName>
   <Location>
   <Longitude>-0.097144</Longitude>
   <Latitude>51.136551</Latitude>
   </Location>
   </AnnotatedStopPointRef>
   <AnnotatedStopPointRef>
   <StopPointRef>4400EG0199</StopPointRef>
   <CommonName>Court Crescent</CommonName>
   <Location>
   <Longitude>-0.001233</Longitude>
   <Latitude>51.127098</Latitude>
   </Location>
   </AnnotatedStopPointRef>
   <AnnotatedStopPointRef>
   <StopPointRef>4400CY0294</StopPointRef>
   <CommonName>Crawley Bus Station</CommonName>
   <Location>
   <Longitude>-0.186612</Longitude>
   <Latitude>51.112979</Latitude>
   </Location>
   </AnnotatedStopPointRef>
   <AnnotatedStopPointRef>
   <StopPointRef>4400EG0245</StopPointRef>
   <CommonName>Crawley Down, War Memorial</CommonName>
   <Location>
   <Longitude>-0.079186</Longitude>
   <Latitude>51.124952</Latitude>
   </Location>
   </AnnotatedStopPointRef>
   <AnnotatedStopPointRef>
   <StopPointRef>4400EG0248</StopPointRef>
   <CommonName>Crawley Down, Burleigh Way</CommonName>
   <Location>
   <Longitude>-0.076887</Longitude>
   <Latitude>51.120753</Latitude>
   </Location>
   </AnnotatedStopPointRef>
   <AnnotatedStopPointRef>
   <StopPointRef>4400EG0237</StopPointRef>
   <CommonName>Cuttinglye Road</CommonName>
   <Location>
   <Longitude>-0.063265</Longitude>
   <Latitude>51.131916</Latitude>
   </Location>
   </AnnotatedStopPointRef>
   <AnnotatedStopPointRef>
   <StopPointRef>40004410040B</StopPointRef>
   <CommonName>Dormans Station Turning</CommonName>
   <Location>
   <Longitude>0.003642</Longitude>
   <Latitude>51.154857</Latitude>
   </Location>
   </AnnotatedStopPointRef>
   <AnnotatedStopPointRef>
   <StopPointRef>40004410041B</StopPointRef>
   <CommonName>Dormansland School</CommonName>
   <Location>
   <Longitude>0.005755</Longitude>
   <Latitude>51.159827</Latitude>
   </Location>
   </AnnotatedStopPointRef>
   <AnnotatedStopPointRef>
   <StopPointRef>4400EG0326</StopPointRef>
   <CommonName>East Grinstead Fire Station</CommonName>
   <Location>
   <Longitude>-0.014974</Longitude>
   <Latitude>51.128988</Latitude>
   </Location>
   </AnnotatedStopPointRef>
   <AnnotatedStopPointRef>
   <StopPointRef>4400EG0272</StopPointRef>
   <CommonName>East Grinstead, High Street</CommonName>
   <Location>
   <Longitude>-0.007483</Longitude>
   <Latitude>51.124047</Latitude>
   </Location>
   </AnnotatedStopPointRef>
   <AnnotatedStopPointRef>
   <StopPointRef>4400EG0292</StopPointRef>
   <CommonName>East Grinstead, Brooklands Way</CommonName>
   <Location>
   <Longitude>-0.016694</Longitude>
   <Latitude>51.125744</Latitude>
   </Location>
   </AnnotatedStopPointRef>
   <AnnotatedStopPointRef>
   <StopPointRef>4400EG0200</StopPointRef>
   <CommonName>East Court</CommonName>
   <Location>
   <Longitude>-0.002996</Longitude>
   <Latitude>51.131550</Latitude>
   </Location>
   </AnnotatedStopPointRef>
   <AnnotatedStopPointRef>
   <StopPointRef>4400CY0141</StopPointRef>
   <CommonName>East Park</CommonName>
   <Location>
   <Longitude>-0.190795</Longitude>
   <Latitude>51.111807</Latitude>
   </Location>
   </AnnotatedStopPointRef>
   <AnnotatedStopPointRef>
   <StopPointRef>4400EG0650</StopPointRef>
   <CommonName>Fairlawn Drive</CommonName>
   <Location>
   <Longitude>-0.031744</Longitude>
   <Latitude>51.132172</Latitude>
   </Location>
   </AnnotatedStopPointRef>
   <AnnotatedStopPointRef>
   <StopPointRef>4400EG0240</StopPointRef>
   <CommonName>Falcon Park</CommonName>
   <Location>
   <Longitude>-0.068855</Longitude>
   <Latitude>51.127971</Latitude>
   </Location>
   </AnnotatedStopPointRef>
   <AnnotatedStopPointRef>
   <StopPointRef>40004410002C</StopPointRef>
   <CommonName>Felbridge School</CommonName>
   <Location>
   <Longitude>-0.045267</Longitude>
   <Latitude>51.139722</Latitude>
   </Location>
   </AnnotatedStopPointRef>
   <AnnotatedStopPointRef>
   <StopPointRef>40004410001A</StopPointRef>
   <CommonName>Felbridge, Star</CommonName>
   <Location>
   <Longitude>-0.040036</Longitude>
   <Latitude>51.139630</Latitude>
   </Location>
   </AnnotatedStopPointRef>
   <AnnotatedStopPointRef>
   <StopPointRef>4400EG0303</StopPointRef>
   <CommonName>Felbridge Hotel</CommonName>
   <Location>
   <Longitude>-0.035851</Longitude>
   <Latitude>51.138063</Latitude>
   </Location>
   </AnnotatedStopPointRef>
   <AnnotatedStopPointRef>
   <StopPointRef>4400EG0217</StopPointRef>
   <CommonName>Felbridge Nurseries</CommonName>
   <Location>
   <Longitude>-0.060718</Longitude>
   <Latitude>51.136240</Latitude>
   </Location>
   </AnnotatedStopPointRef>
   <AnnotatedStopPointRef>
   <StopPointRef>4400EG0247</StopPointRef>
   <CommonName>Forge Garage</CommonName>
   <Location>
   <Longitude>-0.083986</Longitude>
   <Latitude>51.125177</Latitude>
   </Location>
   </AnnotatedStopPointRef>
   <AnnotatedStopPointRef>
   <StopPointRef>4400EG0284</StopPointRef>
   <CommonName>Garden Wood Rd, Kipling Way</CommonName>
   <Location>
   <Longitude>-0.027295</Longitude>
   <Latitude>51.125705</Latitude>
   </Location>
   </AnnotatedStopPointRef>
   <AnnotatedStopPointRef>
   <StopPointRef>4400EG0705</StopPointRef>
   <CommonName>Gibby Way</CommonName>
   <LocalityName>Mid Sussex</LocalityName>
   <Location>
   <Longitude>-0.131786</Longitude>
   <Latitude>51.139324</Latitude>
   </Location>
   </AnnotatedStopPointRef>
   <AnnotatedStopPointRef>
   <StopPointRef>4400CY0078</StopPointRef>
   <CommonName>Goffs Park</CommonName>
   <Location>
   <Longitude>-0.200031</Longitude>
   <Latitude>51.109758</Latitude>
   </Location>
   </AnnotatedStopPointRef>
   <AnnotatedStopPointRef>
   <StopPointRef>4400CY0430</StopPointRef>
   <CommonName>Goffs Park Road</CommonName>
   <Location>
   <Longitude>-0.196530</Longitude>
   <Latitude>51.108818</Latitude>
   </Location>
   </AnnotatedStopPointRef>
   <AnnotatedStopPointRef>
   <StopPointRef>4400EG0306</StopPointRef>
   <CommonName>Halsford Green</CommonName>
   <Location>
   <Longitude>-0.029239</Longitude>
   <Latitude>51.135210</Latitude>
   </Location>
   </AnnotatedStopPointRef>
   <AnnotatedStopPointRef>
   <StopPointRef>4400EG0286</StopPointRef>
   <CommonName>Heathcote Drive</CommonName>
   <Location>
   <Longitude>-0.029417</Longitude>
   <Latitude>51.130678</Latitude>
   </Location>
   </AnnotatedStopPointRef>
   <AnnotatedStopPointRef>
   <StopPointRef>4400EG0702</StopPointRef>
   <CommonName>Heathy Wood, Payne Way</CommonName>
   <Location>
   <Longitude>-0.134312</Longitude>
   <Latitude>51.134828</Latitude>
   </Location>
   </AnnotatedStopPointRef>
   <AnnotatedStopPointRef>
   <StopPointRef>4400EG0648</StopPointRef>
   <CommonName>Imberhorne Lane, Upper Sch</CommonName>
   <Location>
   <Longitude>-0.033470</Longitude>
   <Latitude>51.133881</Latitude>
   </Location>
   </AnnotatedStopPointRef>
   <AnnotatedStopPointRef>
   <StopPointRef>4400CY0216</StopPointRef>
   <CommonName>Jubilee Walk</CommonName>
   <Location>
   <Longitude>-0.166736</Longitude>
   <Latitude>51.116877</Latitude>
   </Location>
   </AnnotatedStopPointRef>
   <AnnotatedStopPointRef>
   <StopPointRef>4400EG0704</StopPointRef>
   <CommonName>Langridge Way</CommonName>
   <Location>
   <Longitude>-0.134184</Longitude>
   <Latitude>51.136428</Latitude>
   </Location>
   </AnnotatedStopPointRef>
   <AnnotatedStopPointRef>
   <StopPointRef>4400EG0467</StopPointRef>
   <CommonName>Larches Way</CommonName>
   <Location>
   <Longitude>-0.073686</Longitude>
   <Latitude>51.123809</Latitude>
   </Location>
   </AnnotatedStopPointRef>
   <AnnotatedStopPointRef>
   <StopPointRef>4400EG0264</StopPointRef>
   <CommonName>Lashmere</CommonName>
   <Location>
   <Longitude>-0.108362</Longitude>
   <Latitude>51.138519</Latitude>
   </Location>
   </AnnotatedStopPointRef>
   <AnnotatedStopPointRef>
   <StopPointRef>40004410047B</StopPointRef>
   <CommonName>Lingfield Racecourse</CommonName>
   <Location>
   <Longitude>-0.002944</Longitude>
   <Latitude>51.170623</Latitude>
   </Location>
   </AnnotatedStopPointRef>
   <AnnotatedStopPointRef>
   <StopPointRef>4400EG0280</StopPointRef>
   <CommonName>Broadway</CommonName>
   <Location>
   <Longitude>-0.011335</Longitude>
   <Latitude>51.126864</Latitude>
   </Location>
   </AnnotatedStopPointRef>
   <AnnotatedStopPointRef>
   <StopPointRef>4400EG0235</StopPointRef>
   <CommonName>Mascotte</CommonName>
   <Location>
   <Longitude>-0.091043</Longitude>
   <Latitude>51.129583</Latitude>
   </Location>
   </AnnotatedStopPointRef>
   <AnnotatedStopPointRef>
   <StopPointRef>40004410003A</StopPointRef>
   <CommonName>McIver Close</CommonName>
   <Location>
   <Longitude>-0.049627</Longitude>
   <Latitude>51.138573</Latitude>
   </Location>
   </AnnotatedStopPointRef>
   <AnnotatedStopPointRef>
   <StopPointRef>40004410042B</StopPointRef>
   <CommonName>Memorial Hall</CommonName>
   <Location>
   <Longitude>0.006979</Longitude>
   <Latitude>51.163709</Latitude>
   </Location>
   </AnnotatedStopPointRef>
   <AnnotatedStopPointRef>
   <StopPointRef>4400EG0222</StopPointRef>
   <CommonName>Petrol Station</CommonName>
   <Location>
   <Longitude>-0.132322</Longitude>
   <Latitude>51.130756</Latitude>
   </Location>
   </AnnotatedStopPointRef>
   <AnnotatedStopPointRef>
   <StopPointRef>4400EG0259</StopPointRef>
   <CommonName>Copthorne, Prince Albert</CommonName>
   <Location>
   <Longitude>-0.123282</Longitude>
   <Latitude>51.139299</Latitude>
   </Location>
   </AnnotatedStopPointRef>
   <AnnotatedStopPointRef>
   <StopPointRef>4400EG0209</StopPointRef>
   <CommonName>Queen Victoria Hospital</CommonName>
   <Location>
   <Longitude>-0.000102</Longitude>
   <Latitude>51.134928</Latitude>
   </Location>
   </AnnotatedStopPointRef>
   <AnnotatedStopPointRef>
   <StopPointRef>4400EG0283</StopPointRef>
   <CommonName>Railway Viaduct</CommonName>
   <Location>
   <Longitude>-0.022628</Longitude>
   <Latitude>51.122772</Latitude>
   </Location>
   </AnnotatedStopPointRef>
   <AnnotatedStopPointRef>
   <StopPointRef>4400CY0550</StopPointRef>
   <CommonName>Ridley's Corner</CommonName>
   <Location>
   <Longitude>-0.149402</Longitude>
   <Latitude>51.123008</Latitude>
   </Location>
   </AnnotatedStopPointRef>
   <AnnotatedStopPointRef>
   <StopPointRef>4400CY0228</StopPointRef>
   <CommonName>Rowan Close</CommonName>
   <Location>
   <Longitude>-0.178446</Longitude>
   <Latitude>51.115089</Latitude>
   </Location>
   </AnnotatedStopPointRef>
   <AnnotatedStopPointRef>
   <StopPointRef>4400EG0215</StopPointRef>
   <CommonName>Rowplatt Lane</CommonName>
   <Location>
   <Longitude>-0.052571</Longitude>
   <Latitude>51.137855</Latitude>
   </Location>
   </AnnotatedStopPointRef>
   <AnnotatedStopPointRef>
   <StopPointRef>4400EG0271</StopPointRef>
   <CommonName>Sackville College</CommonName>
   <Location>
   <Longitude>-0.004554</Longitude>
   <Latitude>51.123999</Latitude>
   </Location>
   </AnnotatedStopPointRef>
   <AnnotatedStopPointRef>
   <StopPointRef>4400EG0190</StopPointRef>
   <CommonName>Sackville School, A22</CommonName>
   <Location>
   <Longitude>0.002959</Longitude>
   <Latitude>51.123229</Latitude>
   </Location>
   </AnnotatedStopPointRef>
   <AnnotatedStopPointRef>
   <StopPointRef>4400EG0447</StopPointRef>
   <CommonName>Sandy Lane</CommonName>
   <Location>
   <Longitude>-0.089458</Longitude>
   <Latitude>51.126239</Latitude>
   </Location>
   </AnnotatedStopPointRef>
   <AnnotatedStopPointRef>
   <StopPointRef>40004410048B</StopPointRef>
   <CommonName>Station Road</CommonName>
   <Location>
   <Longitude>-0.008732</Longitude>
   <Latitude>51.172947</Latitude>
   </Location>
   </AnnotatedStopPointRef>
   <AnnotatedStopPointRef>
   <StopPointRef>4400EG0206</StopPointRef>
   <CommonName>Stone Quarry Estate</CommonName>
   <Location>
   <Longitude>0.000674</Longitude>
   <Latitude>51.137319</Latitude>
   </Location>
   </AnnotatedStopPointRef>
   <AnnotatedStopPointRef>
   <StopPointRef>40004410046B</StopPointRef>
   <CommonName>St Pier's Lane</CommonName>
   <Location>
   <Longitude>-0.000299</Longitude>
   <Latitude>51.170270</Latitude>
   </Location>
   </AnnotatedStopPointRef>
   <AnnotatedStopPointRef>
   <StopPointRef>4400CY0085</StopPointRef>
   <CommonName>Sunningdale Court</CommonName>
   <Location>
   <Longitude>-0.191303</Longitude>
   <Latitude>51.108804</Latitude>
   </Location>
   </AnnotatedStopPointRef>
   <AnnotatedStopPointRef>
   <StopPointRef>4400EG0354</StopPointRef>
   <CommonName>Sunnymead</CommonName>
   <Location>
   <Longitude>-0.078587</Longitude>
   <Latitude>51.122461</Latitude>
   </Location>
   </AnnotatedStopPointRef>
   <AnnotatedStopPointRef>
   <StopPointRef>40004410042C</StopPointRef>
   <CommonName>Dormansland, Swallowfield</CommonName>
   <Location>
   <Longitude>0.006124</Longitude>
   <Latitude>51.165104</Latitude>
   </Location>
   </AnnotatedStopPointRef>
   <AnnotatedStopPointRef>
   <StopPointRef>40004410039B</StopPointRef>
   <CommonName>The Approach</CommonName>
   <Location>
   <Longitude>0.002330</Longitude>
   <Latitude>51.149607</Latitude>
   </Location>
   </AnnotatedStopPointRef>
   <AnnotatedStopPointRef>
   <StopPointRef>4400EG0204</StopPointRef>
   <CommonName>The Larches</CommonName>
   <Location>
   <Longitude>0.004906</Longitude>
   <Latitude>51.137873</Latitude>
   </Location>
   </AnnotatedStopPointRef>
   <AnnotatedStopPointRef>
   <StopPointRef>4400CY0205</StopPointRef>
   <CommonName>Three Bridges Station</CommonName>
   <Location>
   <Longitude>-0.162296</Longitude>
   <Latitude>51.118363</Latitude>
   </Location>
   </AnnotatedStopPointRef>
   <AnnotatedStopPointRef>
   <StopPointRef>4400EG0468</StopPointRef>
   <CommonName>Tiltwood Drive</CommonName>
   <Location>
   <Longitude>-0.072456</Longitude>
   <Latitude>51.125463</Latitude>
   </Location>
   </AnnotatedStopPointRef>
   <AnnotatedStopPointRef>
   <StopPointRef>4400EG0207</StopPointRef>
   <CommonName>Turner Court</CommonName>
   <Location>
   <Longitude>0.001543</Longitude>
   <Latitude>51.135907</Latitude>
   </Location>
   </AnnotatedStopPointRef>
   <AnnotatedStopPointRef>
   <StopPointRef>4400EG0260</StopPointRef>
   <CommonName>Village Hall</CommonName>
   <Location>
   <Longitude>-0.120939</Longitude>
   <Latitude>51.139614</Latitude>
   </Location>
   </AnnotatedStopPointRef>
   <AnnotatedStopPointRef>
   <StopPointRef>4400EG0289</StopPointRef>
   <CommonName>Garden Wood Road</CommonName>
   <Location>
   <Longitude>-0.019471</Longitude>
   <Latitude>51.122590</Latitude>
   </Location>
   </AnnotatedStopPointRef>
   <AnnotatedStopPointRef>
   <StopPointRef>4400EG0426</StopPointRef>
   <CommonName>Whitehall</CommonName>
   <Location>
   <Longitude>-0.008866</Longitude>
   <Latitude>51.125495</Latitude>
   </Location>
   </AnnotatedStopPointRef>
   <AnnotatedStopPointRef>
   <StopPointRef>40004410280A</StopPointRef>
   <CommonName>Wilderwick Farm</CommonName>
   <Location>
   <Longitude>0.004294</Longitude>
   <Latitude>51.145650</Latitude>
   </Location>
   </AnnotatedStopPointRef>
   <AnnotatedStopPointRef>
   <StopPointRef>4400EG0191</StopPointRef>
   <CommonName>Woodbury Avenue</CommonName>
   <Location>
   <Longitude>0.006802</Longitude>
   <Latitude>51.123226</Latitude>
   </Location>
   </AnnotatedStopPointRef>
   <AnnotatedStopPointRef>
   <StopPointRef>4400EG0193</StopPointRef>
   <CommonName>Worsted Farm, Harmans Drive</CommonName>
   <Location>
   <Longitude>0.008422</Longitude>
   <Latitude>51.125903</Latitude>
   </Location>
   </AnnotatedStopPointRef>
   <AnnotatedStopPointRef>
   <StopPointRef>4400CY0523</StopPointRef>
   <CommonName>Worth Park Avenue</CommonName>
   <Location>
   <Longitude>-0.155670</Longitude>
   <Latitude>51.120371</Latitude>
   </Location>
   </AnnotatedStopPointRef>
   <AnnotatedStopPointRef>
   <StopPointRef>4400EG0219</StopPointRef>
   <CommonName>Garden Centre</CommonName>
   <Location>
   <Longitude>-0.137064</Longitude>
   <Latitude>51.128084</Latitude>
   </Location>
   </AnnotatedStopPointRef>
   <AnnotatedStopPointRef>
   <StopPointRef>4400EG0305</StopPointRef>
   <CommonName>Yew Lane</CommonName>
   <Location>
   <Longitude>-0.031552</Longitude>
   <Latitude>51.136110</Latitude>
   </Location>
   </AnnotatedStopPointRef>
   </StopPoints>
   <RouteSections>
   <RouteSection id="bQN_baZP">
   <RouteLink id="i281_4_1">
   <From>
   <StopPointRef>40004410049A</StopPointRef>
   </From>
   <To>
   <StopPointRef>40004410289B</StopPointRef>
   </To>
   <Direction>inbound</Direction>
   <Track>
   <Mapping>
   <Location>
   <Longitude>-0.008468</Longitude>
   <Latitude>51.176120</Latitude>
   </Location>
   <Location>
   <Longitude>-0.008511</Longitude>
   <Latitude>51.176210</Latitude>
   </Location>
   <Location>
   <Longitude>-0.008582</Longitude>
   <Latitude>51.176345</Latitude>
   </Location>
   <Location>
   <Longitude>-0.008610</Longitude>
   <Latitude>51.176615</Latitude>
   </Location>
   <Location>
   <Longitude>-0.008752</Longitude>
   <Latitude>51.177046</Latitude>
   </Location>
   <Location>
   <Longitude>-0.008923</Longitude>
   <Latitude>51.177730</Latitude>
   </Location>
   <Location>
   <Longitude>-0.008922</Longitude>
   <Latitude>51.177892</Latitude>
   </Location>
   <Location>
   <Longitude>-0.008922</Longitude>
   <Latitude>51.178278</Latitude>
   </Location>
   <Location>
   <Longitude>-0.008792</Longitude>
   <Latitude>51.178835</Latitude>
   </Location>
   <Location>
   <Longitude>-0.008691</Longitude>
   <Latitude>51.179087</Latitude>
   </Location>
   <Location>
   <Longitude>-0.008634</Longitude>
   <Latitude>51.179285</Latitude>
   </Location>
   <Location>
   <Longitude>-0.008647</Longitude>
   <Latitude>51.179501</Latitude>
   </Location>
   <Location>
   <Longitude>-0.008704</Longitude>
   <Latitude>51.179680</Latitude>
   </Location>
   <Location>
   <Longitude>-0.009104</Longitude>
   <Latitude>51.180283</Latitude>
   </Location>
   <Location>
   <Longitude>-0.009346</Longitude>
   <Latitude>51.180580</Latitude>
   </Location>
   </Mapping>
   </Track>
   </RouteLink>
   <RouteLink id="i281_4_2">
   <From>
   <StopPointRef>40004410289B</StopPointRef>
   </From>
   <To>
   <StopPointRef>40004410053A</StopPointRef>
   </To>
   <Direction>inbound</Direction>
   <Track>
   <Mapping>
   <Location>
   <Longitude>-0.009346</Longitude>
   <Latitude>51.180580</Latitude>
   </Location>
   <Location>
   <Longitude>-0.009575</Longitude>
   <Latitude>51.180850</Latitude>
   </Location>
   <Location>
   <Longitude>-0.010189</Longitude>
   <Latitude>51.181336</Latitude>
   </Location>
   <Location>
   <Longitude>-0.010789</Longitude>
   <Latitude>51.181642</Latitude>
   </Location>
   <Location>
   <Longitude>-0.011632</Longitude>
   <Latitude>51.182128</Latitude>
   </Location>
   <Location>
   <Longitude>-0.011875</Longitude>
   <Latitude>51.182290</Latitude>
   </Location>
   <Location>
   <Longitude>-0.011989</Longitude>
   <Latitude>51.182407</Latitude>
   </Location>
   <Location>
   <Longitude>-0.012204</Longitude>
   <Latitude>51.182326</Latitude>
   </Location>
   <Location>
   <Longitude>-0.012778</Longitude>
   <Latitude>51.181518</Latitude>
   </Location>
   </Mapping>
   </Track>
   </RouteLink>
   <RouteLink id="i281_4_3">
   <From>
   <StopPointRef>40004410053A</StopPointRef>
   </From>
   <To>
   <StopPointRef>40004410052A</StopPointRef>
   </To>
   <Direction>inbound</Direction>
   <Track>
   <Mapping>
   <Location>
   <Longitude>-0.012778</Longitude>
   <Latitude>51.181518</Latitude>
   </Location>
   <Location>
   <Longitude>-0.012806</Longitude>
   <Latitude>51.181473</Latitude>
   </Location>
   <Location>
   <Longitude>-0.013165</Longitude>
   <Latitude>51.181032</Latitude>
   </Location>
   <Location>
   <Longitude>-0.013710</Longitude>
   <Latitude>51.180260</Latitude>
   </Location>
   <Location>
   <Longitude>-0.013867</Longitude>
   <Latitude>51.179945</Latitude>
   </Location>
   <Location>
   <Longitude>-0.013897</Longitude>
   <Latitude>51.179612</Latitude>
   </Location>
   <Location>
   <Longitude>-0.013854</Longitude>
   <Latitude>51.179451</Latitude>
   </Location>
   <Location>
   <Longitude>-0.013797</Longitude>
   <Latitude>51.179307</Latitude>
   </Location>
   </Mapping>
   </Track>
   </RouteLink>
   <RouteLink id="i281_4_4">
   <From>
   <StopPointRef>40004410052A</StopPointRef>
   </From>
   <To>
   <StopPointRef>40004410216A</StopPointRef>
   </To>
   <Direction>inbound</Direction>
   <Track>
   <Mapping>
   <Location>
   <Longitude>-0.013797</Longitude>
   <Latitude>51.179307</Latitude>
   </Location>
   <Location>
   <Longitude>-0.013612</Longitude>
   <Latitude>51.178794</Latitude>
   </Location>
   <Location>
   <Longitude>-0.013612</Longitude>
   <Latitude>51.178713</Latitude>
   </Location>
   <Location>
   <Longitude>-0.013770</Longitude>
   <Latitude>51.178354</Latitude>
   </Location>
   <Location>
   <Longitude>-0.013799</Longitude>
   <Latitude>51.178219</Latitude>
   </Location>
   <Location>
   <Longitude>-0.013799</Longitude>
   <Latitude>51.178192</Latitude>
   </Location>
   <Location>
   <Longitude>-0.013700</Longitude>
   <Latitude>51.177832</Latitude>
   </Location>
   <Location>
   <Longitude>-0.013700</Longitude>
   <Latitude>51.177535</Latitude>
   </Location>
   <Location>
   <Longitude>-0.013844</Longitude>
   <Latitude>51.177230</Latitude>
   </Location>
   <Location>
   <Longitude>-0.013887</Longitude>
   <Latitude>51.177167</Latitude>
   </Location>
   <Location>
   <Longitude>-0.013901</Longitude>
   <Latitude>51.177131</Latitude>
   </Location>
   <Location>
   <Longitude>-0.013901</Longitude>
   <Latitude>51.177077</Latitude>
   </Location>
   <Location>
   <Longitude>-0.013887</Longitude>
   <Latitude>51.177014</Latitude>
   </Location>
   <Location>
   <Longitude>-0.013745</Longitude>
   <Latitude>51.176636</Latitude>
   </Location>
   <Location>
   <Longitude>-0.013703</Longitude>
   <Latitude>51.176178</Latitude>
   </Location>
   <Location>
   <Longitude>-0.013732</Longitude>
   <Latitude>51.176052</Latitude>
   </Location>
   <Location>
   <Longitude>-0.013775</Longitude>
   <Latitude>51.175953</Latitude>
   </Location>
   <Location>
   <Longitude>-0.013889</Longitude>
   <Latitude>51.175818</Latitude>
   </Location>
   <Location>
   <Longitude>-0.013947</Longitude>
   <Latitude>51.175684</Latitude>
   </Location>
   <Location>
   <Longitude>-0.013961</Longitude>
   <Latitude>51.175567</Latitude>
   </Location>
   <Location>
   <Longitude>-0.013947</Longitude>
   <Latitude>51.175486</Latitude>
   </Location>
   </Mapping>
   </Track>
   </RouteLink>
   <RouteLink id="i281_4_5">
   <From>
   <StopPointRef>40004410216A</StopPointRef>
   </From>
   <To>
   <StopPointRef>40004410051B</StopPointRef>
   </To>
   <Direction>inbound</Direction>
   <Track>
   <Mapping>
   <Location>
   <Longitude>-0.013947</Longitude>
   <Latitude>51.175486</Latitude>
   </Location>
   <Location>
   <Longitude>-0.013933</Longitude>
   <Latitude>51.175432</Latitude>
   </Location>
   <Location>
   <Longitude>-0.013677</Longitude>
   <Latitude>51.174488</Latitude>
   </Location>
   <Location>
   <Longitude>-0.014221</Longitude>
   <Latitude>51.174362</Latitude>
   </Location>
   <Location>
   <Longitude>-0.014521</Longitude>
   <Latitude>51.174326</Latitude>
   </Location>
   <Location>
   <Longitude>-0.014993</Longitude>
   <Latitude>51.174336</Latitude>
   </Location>
   <Location>
   <Longitude>-0.015551</Longitude>
   <Latitude>51.174381</Latitude>
   </Location>
   <Location>
   <Longitude>-0.015722</Longitude>
   <Latitude>51.174408</Latitude>
   </Location>
   <Location>
   <Longitude>-0.015966</Longitude>
   <Latitude>51.174408</Latitude>
   </Location>
   <Location>
   <Longitude>-0.016466</Longitude>
   <Latitude>51.174418</Latitude>
   </Location>
   <Location>
   <Longitude>-0.016910</Longitude>
   <Latitude>51.174445</Latitude>
   </Location>
   <Location>
   <Longitude>-0.017539</Longitude>
   <Latitude>51.174427</Latitude>
   </Location>
   </Mapping>
   </Track>
   </RouteLink>
   </RouteSection>
   <RouteSection id="Xj4-UwrD">
   <RouteLink id="i281_9_1">
   <From>
   <StopPointRef>4400EG0205</StopPointRef>
   </From>
   <To>
   <StopPointRef>4400EG0208</StopPointRef>
   </To>
   <Direction>inbound</Direction>
   <Track>
   <Mapping>
   <Location>
   <Longitude>0.000917</Longitude>
   <Latitude>51.137247</Latitude>
   </Location>
   <Location>
   <Longitude>0.001516</Longitude>
   <Latitude>51.136725</Latitude>
   </Location>
   <Location>
   <Longitude>0.002144</Longitude>
   <Latitude>51.136248</Latitude>
   </Location>
   <Location>
   <Longitude>0.001958</Longitude>
   <Latitude>51.136068</Latitude>
   </Location>
   <Location>
   <Longitude>0.001600</Longitude>
   <Latitude>51.135826</Latitude>
   </Location>
   </Mapping>
   </Track>
   </RouteLink>
   <RouteLink id="i281_9_2">
   <From>
   <StopPointRef>4400EG0208</StopPointRef>
   </From>
   <To>
   <StopPointRef>4400EG0210</StopPointRef>
   </To>
   <Direction>inbound</Direction>
   <Track>
   <Mapping>
   <Location>
   <Longitude>0.001600</Longitude>
   <Latitude>51.135826</Latitude>
   </Location>
   <Location>
   <Longitude>0.001056</Longitude>
   <Latitude>51.135458</Latitude>
   </Location>
   <Location>
   <Longitude>0.000598</Longitude>
   <Latitude>51.135143</Latitude>
   </Location>
   <Location>
   <Longitude>0.000541</Longitude>
   <Latitude>51.135116</Latitude>
   </Location>
   <Location>
   <Longitude>-0.000031</Longitude>
   <Latitude>51.134829</Latitude>
   </Location>
   <Location>
   <Longitude>-0.000389</Longitude>
   <Latitude>51.134632</Latitude>
   </Location>
   <Location>
   <Longitude>-0.000675</Longitude>
   <Latitude>51.134470</Latitude>
   </Location>
   <Location>
   <Longitude>-0.000789</Longitude>
   <Latitude>51.134407</Latitude>
   </Location>
   <Location>
   <Longitude>-0.000918</Longitude>
   <Latitude>51.134281</Latitude>
   </Location>
   <Location>
   <Longitude>-0.000975</Longitude>
   <Latitude>51.134210</Latitude>
   </Location>
   </Mapping>
   </Track>
   </RouteLink>
   <RouteLink id="i281_9_3">
   <From>
   <StopPointRef>4400EG0210</StopPointRef>
   </From>
   <To>
   <StopPointRef>4400EG0211</StopPointRef>
   </To>
   <Direction>inbound</Direction>
   <Track>
   <Mapping>
   <Location>
   <Longitude>-0.000975</Longitude>
   <Latitude>51.134210</Latitude>
   </Location>
   <Location>
   <Longitude>-0.001018</Longitude>
   <Latitude>51.134138</Latitude>
   </Location>
   <Location>
   <Longitude>-0.001090</Longitude>
   <Latitude>51.133940</Latitude>
   </Location>
   <Location>
   <Longitude>-0.001177</Longitude>
   <Latitude>51.133517</Latitude>
   </Location>
   <Location>
   <Longitude>-0.001392</Longitude>
   <Latitude>51.133077</Latitude>
   </Location>
   <Location>
   <Longitude>-0.001837</Longitude>
   <Latitude>51.132430</Latitude>
   </Location>
   <Location>
   <Longitude>-0.002209</Longitude>
   <Latitude>51.131891</Latitude>
   </Location>
   <Location>
   <Longitude>-0.002309</Longitude>
   <Latitude>51.131765</Latitude>
   </Location>
   <Location>
   <Longitude>-0.002596</Longitude>
   <Latitude>51.131595</Latitude>
   </Location>
   <Location>
   <Longitude>-0.003067</Longitude>
   <Latitude>51.131451</Latitude>
   </Location>
   <Location>
   <Longitude>-0.003468</Longitude>
   <Latitude>51.131362</Latitude>
   </Location>
   <Location>
   <Longitude>-0.003596</Longitude>
   <Latitude>51.131326</Latitude>
   </Location>
   </Mapping>
   </Track>
   </RouteLink>
   <RouteLink id="i281_9_4">
   <From>
   <StopPointRef>4400EG0211</StopPointRef>
   </From>
   <To>
   <StopPointRef>4400EG0198</StopPointRef>
   </To>
   <Direction>inbound</Direction>
   <Track>
   <Mapping>
   <Location>
   <Longitude>-0.003596</Longitude>
   <Latitude>51.131326</Latitude>
   </Location>
   <Location>
   <Longitude>-0.003654</Longitude>
   <Latitude>51.131272</Latitude>
   </Location>
   <Location>
   <Longitude>-0.003768</Longitude>
   <Latitude>51.131227</Latitude>
   </Location>
   <Location>
   <Longitude>-0.004011</Longitude>
   <Latitude>51.131137</Latitude>
   </Location>
   <Location>
   <Longitude>-0.004111</Longitude>
   <Latitude>51.131101</Latitude>
   </Location>
   <Location>
   <Longitude>-0.004254</Longitude>
   <Latitude>51.131030</Latitude>
   </Location>
   <Location>
   <Longitude>-0.004412</Longitude>
   <Latitude>51.130949</Latitude>
   </Location>
   <Location>
   <Longitude>-0.004426</Longitude>
   <Latitude>51.130922</Latitude>
   </Location>
   <Location>
   <Longitude>-0.004454</Longitude>
   <Latitude>51.130895</Latitude>
   </Location>
   <Location>
   <Longitude>-0.004497</Longitude>
   <Latitude>51.130886</Latitude>
   </Location>
   <Location>
   <Longitude>-0.004513</Longitude>
   <Latitude>51.130436</Latitude>
   </Location>
   <Location>
   <Longitude>-0.004286</Longitude>
   <Latitude>51.129663</Latitude>
   </Location>
   <Location>
   <Longitude>-0.004158</Longitude>
   <Latitude>51.129231</Latitude>
   </Location>
   <Location>
   <Longitude>-0.003873</Longitude>
   <Latitude>51.128593</Latitude>
   </Location>
   <Location>
   <Longitude>-0.003760</Longitude>
   <Latitude>51.127946</Latitude>
   </Location>
   <Location>
   <Longitude>-0.003761</Longitude>
   <Latitude>51.127415</Latitude>
   </Location>
   <Location>
   <Longitude>-0.003762</Longitude>
   <Latitude>51.127037</Latitude>
   </Location>
   <Location>
   <Longitude>-0.003419</Longitude>
   <Latitude>51.127019</Latitude>
   </Location>
   <Location>
   <Longitude>-0.002691</Longitude>
   <Latitude>51.126974</Latitude>
   </Location>
   <Location>
   <Longitude>-0.002205</Longitude>
   <Latitude>51.126991</Latitude>
   </Location>
   <Location>
   <Longitude>-0.001490</Longitude>
   <Latitude>51.127081</Latitude>
   </Location>
   <Location>
   <Longitude>-0.000761</Longitude>
   <Latitude>51.127287</Latitude>
   </Location>
   <Location>
   <Longitude>-0.000676</Longitude>
   <Latitude>51.127323</Latitude>
   </Location>
   <Location>
   <Longitude>-0.000432</Longitude>
   <Latitude>51.127394</Latitude>
   </Location>
   </Mapping>
   </Track>
   </RouteLink>
   <RouteLink id="i281_9_5">
   <From>
   <StopPointRef>4400EG0198</StopPointRef>
   </From>
   <To>
   <StopPointRef>4400EG0195</StopPointRef>
   </To>
   <Direction>inbound</Direction>
   <Track>
   <Mapping>
   <Location>
   <Longitude>-0.000432</Longitude>
   <Latitude>51.127394</Latitude>
   </Location>
   <Location>
   <Longitude>-0.000075</Longitude>
   <Latitude>51.127502</Latitude>
   </Location>
   <Location>
   <Longitude>0.000525</Longitude>
   <Latitude>51.127519</Latitude>
   </Location>
   <Location>
   <Longitude>0.000954</Longitude>
   <Latitude>51.127456</Latitude>
   </Location>
   <Location>
   <Longitude>0.001453</Longitude>
   <Latitude>51.127366</Latitude>
   </Location>
   <Location>
   <Longitude>0.002068</Longitude>
   <Latitude>51.127257</Latitude>
   </Location>
   <Location>
   <Longitude>0.002282</Longitude>
   <Latitude>51.127248</Latitude>
   </Location>
   <Location>
   <Longitude>0.002782</Longitude>
   <Latitude>51.127293</Latitude>
   </Location>
   <Location>
   <Longitude>0.002882</Longitude>
   <Latitude>51.127302</Latitude>
   </Location>
   <Location>
   <Longitude>0.004212</Longitude>
   <Latitude>51.127669</Latitude>
   </Location>
   <Location>
   <Longitude>0.004526</Longitude>
   <Latitude>51.127759</Latitude>
   </Location>
   <Location>
   <Longitude>0.005298</Longitude>
   <Latitude>51.127974</Latitude>
   </Location>
   </Mapping>
   </Track>
   </RouteLink>
   <RouteLink id="i281_9_6">
   <From>
   <StopPointRef>4400EG0195</StopPointRef>
   </From>
   <To>
   <StopPointRef>4400EG0194</StopPointRef>
   </To>
   <Direction>inbound</Direction>
   <Track>
   <Mapping>
   <Location>
   <Longitude>0.005298</Longitude>
   <Latitude>51.127974</Latitude>
   </Location>
   <Location>
   <Longitude>0.005398</Longitude>
   <Latitude>51.128001</Latitude>
   </Location>
   <Location>
   <Longitude>0.005813</Longitude>
   <Latitude>51.128063</Latitude>
   </Location>
   <Location>
   <Longitude>0.006155</Longitude>
   <Latitude>51.128054</Latitude>
   </Location>
   <Location>
   <Longitude>0.006570</Longitude>
   <Latitude>51.127982</Latitude>
   </Location>
   <Location>
   <Longitude>0.006755</Longitude>
   <Latitude>51.127883</Latitude>
   </Location>
   <Location>
   <Longitude>0.007083</Longitude>
   <Latitude>51.127586</Latitude>
   </Location>
   <Location>
   <Longitude>0.007254</Longitude>
   <Latitude>51.127388</Latitude>
   </Location>
   <Location>
   <Longitude>0.007582</Longitude>
   <Latitude>51.126956</Latitude>
   </Location>
   <Location>
   <Longitude>0.007781</Longitude>
   <Latitude>51.126650</Latitude>
   </Location>
   </Mapping>
   </Track>
   </RouteLink>
   <RouteLink id="i281_9_7">
   <From>
   <StopPointRef>4400EG0194</StopPointRef>
   </From>
   <To>
   <StopPointRef>4400EG0192</StopPointRef>
   </To>
   <Direction>inbound</Direction>
   <Track>
   <Mapping>
   <Location>
   <Longitude>0.007781</Longitude>
   <Latitude>51.126650</Latitude>
   </Location>
   <Location>
   <Longitude>0.007867</Longitude>
   <Latitude>51.126524</Latitude>
   </Location>
   <Location>
   <Longitude>0.008066</Longitude>
   <Latitude>51.126254</Latitude>
   </Location>
   <Location>
   <Longitude>0.008266</Longitude>
   <Latitude>51.126083</Latitude>
   </Location>
   <Location>
   <Longitude>0.008608</Longitude>
   <Latitude>51.125858</Latitude>
   </Location>
   <Location>
   <Longitude>0.009008</Longitude>
   <Latitude>51.125687</Latitude>
   </Location>
   <Location>
   <Longitude>0.008764</Longitude>
   <Latitude>51.125444</Latitude>
   </Location>
   <Location>
   <Longitude>0.008521</Longitude>
   <Latitude>51.125292</Latitude>
   </Location>
   <Location>
   <Longitude>0.007820</Longitude>
   <Latitude>51.124924</Latitude>
   </Location>
   <Location>
   <Longitude>0.007519</Longitude>
   <Latitude>51.124609</Latitude>
   </Location>
   <Location>
   <Longitude>0.007404</Longitude>
   <Latitude>51.124403</Latitude>
   </Location>
   <Location>
   <Longitude>0.007203</Longitude>
   <Latitude>51.123657</Latitude>
   </Location>
   <Location>
   <Longitude>0.007131</Longitude>
   <Latitude>51.123540</Latitude>
   </Location>
   </Mapping>
   </Track>
   </RouteLink>
   <RouteLink id="i281_9_8">
   <From>
   <StopPointRef>4400EG0192</StopPointRef>
   </From>
   <To>
   <StopPointRef>4400EG0176</StopPointRef>
   </To>
   <Direction>inbound</Direction>
   <Track>
   <Mapping>
   <Location>
   <Longitude>0.007131</Longitude>
   <Latitude>51.123540</Latitude>
   </Location>
   <Location>
   <Longitude>0.006959</Longitude>
   <Latitude>51.123252</Latitude>
   </Location>
   <Location>
   <Longitude>0.006758</Longitude>
   <Latitude>51.122974</Latitude>
   </Location>
   <Location>
   <Longitude>0.006586</Longitude>
   <Latitude>51.122515</Latitude>
   </Location>
   <Location>
   <Longitude>0.006342</Longitude>
   <Latitude>51.122093</Latitude>
   </Location>
   <Location>
   <Longitude>0.006113</Longitude>
   <Latitude>51.121932</Latitude>
   </Location>
   <Location>
   <Longitude>0.006070</Longitude>
   <Latitude>51.121905</Latitude>
   </Location>
   <Location>
   <Longitude>0.006056</Longitude>
   <Latitude>51.121932</Latitude>
   </Location>
   <Location>
   <Longitude>0.005999</Longitude>
   <Latitude>51.121959</Latitude>
   </Location>
   <Location>
   <Longitude>0.005442</Longitude>
   <Latitude>51.122274</Latitude>
   </Location>
   <Location>
   <Longitude>0.004501</Longitude>
   <Latitude>51.122670</Latitude>
   </Location>
   <Location>
   <Longitude>0.004443</Longitude>
   <Latitude>51.122697</Latitude>
   </Location>
   </Mapping>
   </Track>
   </RouteLink>
   <RouteLink id="i281_9_9">
   <From>
   <StopPointRef>4400EG0176</StopPointRef>
   </From>
   <To>
   <StopPointRef>4400EG0269</StopPointRef>
   </To>
   <Direction>inbound</Direction>
   <Track>
   <Mapping>
   <Location>
   <Longitude>0.004443</Longitude>
   <Latitude>51.122697</Latitude>
   </Location>
   <Location>
   <Longitude>0.003958</Longitude>
   <Latitude>51.122895</Latitude>
   </Location>
   <Location>
   <Longitude>0.003473</Longitude>
   <Latitude>51.123067</Latitude>
   </Location>
   <Location>
   <Longitude>0.002845</Longitude>
   <Latitude>51.123256</Latitude>
   </Location>
   <Location>
   <Longitude>0.002059</Longitude>
   <Latitude>51.123392</Latitude>
   </Location>
   <Location>
   <Longitude>0.001973</Longitude>
   <Latitude>51.123401</Latitude>
   </Location>
   <Location>
   <Longitude>0.001845</Longitude>
   <Latitude>51.123410</Latitude>
   </Location>
   <Location>
   <Longitude>0.000617</Longitude>
   <Latitude>51.123537</Latitude>
   </Location>
   </Mapping>
   </Track>
   </RouteLink>
   <RouteLink id="i281_9_10">
   <From>
   <StopPointRef>4400EG0269</StopPointRef>
   </From>
   <To>
   <StopPointRef>4400EG0270</StopPointRef>
   </To>
   <Direction>inbound</Direction>
   <Track>
   <Mapping>
   <Location>
   <Longitude>0.000617</Longitude>
   <Latitude>51.123537</Latitude>
   </Location>
   <Location>
   <Longitude>0.000502</Longitude>
   <Latitude>51.123546</Latitude>
   </Location>
   <Location>
   <Longitude>0.000431</Longitude>
   <Latitude>51.123555</Latitude>
   </Location>
   <Location>
   <Longitude>-0.000040</Longitude>
   <Latitude>51.123636</Latitude>
   </Location>
   <Location>
   <Longitude>-0.000098</Longitude>
   <Latitude>51.123627</Latitude>
   </Location>
   <Location>
   <Longitude>-0.000155</Longitude>
   <Latitude>51.123636</Latitude>
   </Location>
   <Location>
   <Longitude>-0.000183</Longitude>
   <Latitude>51.123654</Latitude>
   </Location>
   <Location>
   <Longitude>-0.000397</Longitude>
   <Latitude>51.123681</Latitude>
   </Location>
   <Location>
   <Longitude>-0.000612</Longitude>
   <Latitude>51.123699</Latitude>
   </Location>
   <Location>
   <Longitude>-0.000669</Longitude>
   <Latitude>51.123708</Latitude>
   </Location>
   <Location>
   <Longitude>-0.000797</Longitude>
   <Latitude>51.123718</Latitude>
   </Location>
   <Location>
   <Longitude>-0.000855</Longitude>
   <Latitude>51.123718</Latitude>
   </Location>
   <Location>
   <Longitude>-0.001926</Longitude>
   <Latitude>51.123826</Latitude>
   </Location>
   <Location>
   <Longitude>-0.002397</Longitude>
   <Latitude>51.123872</Latitude>
   </Location>
   <Location>
   <Longitude>-0.003497</Longitude>
   <Latitude>51.124007</Latitude>
   </Location>
   <Location>
   <Longitude>-0.003668</Longitude>
   <Latitude>51.124008</Latitude>
   </Location>
   <Location>
   <Longitude>-0.003968</Longitude>
   <Latitude>51.124008</Latitude>
   </Location>
   <Location>
   <Longitude>-0.004168</Longitude>
   <Latitude>51.123999</Latitude>
   </Location>
   </Mapping>
   </Track>
   </RouteLink>
   <RouteLink id="i281_9_11">
   <From>
   <StopPointRef>4400EG0270</StopPointRef>
   </From>
   <To>
   <StopPointRef>4400EG0273</StopPointRef>
   </To>
   <Direction>inbound</Direction>
   <Track>
   <Mapping>
   <Location>
   <Longitude>-0.004168</Longitude>
   <Latitude>51.123999</Latitude>
   </Location>
   <Location>
   <Longitude>-0.004211</Longitude>
   <Latitude>51.123999</Latitude>
   </Location>
   <Location>
   <Longitude>-0.004426</Longitude>
   <Latitude>51.123981</Latitude>
   </Location>
   <Location>
   <Longitude>-0.004797</Longitude>
   <Latitude>51.123928</Latitude>
   </Location>
   <Location>
   <Longitude>-0.005469</Longitude>
   <Latitude>51.123856</Latitude>
   </Location>
   <Location>
   <Longitude>-0.005554</Longitude>
   <Latitude>51.123847</Latitude>
   </Location>
   <Location>
   <Longitude>-0.005626</Longitude>
   <Latitude>51.123847</Latitude>
   </Location>
   <Location>
   <Longitude>-0.005897</Longitude>
   <Latitude>51.123866</Latitude>
   </Location>
   <Location>
   <Longitude>-0.006797</Longitude>
   <Latitude>51.123902</Latitude>
   </Location>
   <Location>
   <Longitude>-0.006897</Longitude>
   <Latitude>51.123929</Latitude>
   </Location>
   <Location>
   <Longitude>-0.007983</Longitude>
   <Latitude>51.124056</Latitude>
   </Location>
   </Mapping>
   </Track>
   </RouteLink>
   <RouteLink id="i281_9_12">
   <From>
   <StopPointRef>4400EG0273</StopPointRef>
   </From>
   <To>
   <StopPointRef>4400EG0360</StopPointRef>
   </To>
   <Direction>inbound</Direction>
   <Track>
   <Mapping>
   <Location>
   <Longitude>-0.007983</Longitude>
   <Latitude>51.124056</Latitude>
   </Location>
   <Location>
   <Longitude>-0.008097</Longitude>
   <Latitude>51.124065</Latitude>
   </Location>
   <Location>
   <Longitude>-0.008183</Longitude>
   <Latitude>51.124056</Latitude>
   </Location>
   <Location>
   <Longitude>-0.008240</Longitude>
   <Latitude>51.124128</Latitude>
   </Location>
   <Location>
   <Longitude>-0.008297</Longitude>
   <Latitude>51.124236</Latitude>
   </Location>
   <Location>
   <Longitude>-0.008581</Longitude>
   <Latitude>51.124839</Latitude>
   </Location>
   <Location>
   <Longitude>-0.008823</Longitude>
   <Latitude>51.125270</Latitude>
   </Location>
   </Mapping>
   </Track>
   </RouteLink>
   <RouteLink id="i281_9_13">
   <From>
   <StopPointRef>4400EG0360</StopPointRef>
   </From>
   <To>
   <StopPointRef>4400EG0323</StopPointRef>
   </To>
   <Direction>inbound</Direction>
   <Track>
   <Mapping>
   <Location>
   <Longitude>-0.008823</Longitude>
   <Latitude>51.125270</Latitude>
   </Location>
   <Location>
   <Longitude>-0.009051</Longitude>
   <Latitude>51.125657</Latitude>
   </Location>
   <Location>
   <Longitude>-0.009122</Longitude>
   <Latitude>51.125738</Latitude>
   </Location>
   <Location>
   <Longitude>-0.009222</Longitude>
   <Latitude>51.125846</Latitude>
   </Location>
   <Location>
   <Longitude>-0.009308</Longitude>
   <Latitude>51.125900</Latitude>
   </Location>
   <Location>
   <Longitude>-0.009322</Longitude>
   <Latitude>51.125909</Latitude>
   </Location>
   <Location>
   <Longitude>-0.009536</Longitude>
   <Latitude>51.126062</Latitude>
   </Location>
   <Location>
   <Longitude>-0.009607</Longitude>
   <Latitude>51.126089</Latitude>
   </Location>
   <Location>
   <Longitude>-0.009979</Longitude>
   <Latitude>51.126296</Latitude>
   </Location>
   <Location>
   <Longitude>-0.010864</Longitude>
   <Latitude>51.126602</Latitude>
   </Location>
   <Location>
   <Longitude>-0.011007</Longitude>
   <Latitude>51.126665</Latitude>
   </Location>
   <Location>
   <Longitude>-0.011264</Longitude>
   <Latitude>51.126549</Latitude>
   </Location>
   <Location>
   <Longitude>-0.011635</Longitude>
   <Latitude>51.126504</Latitude>
   </Location>
   <Location>
   <Longitude>-0.012121</Longitude>
   <Latitude>51.126442</Latitude>
   </Location>
   <Location>
   <Longitude>-0.012393</Longitude>
   <Latitude>51.126406</Latitude>
   </Location>
   <Location>
   <Longitude>-0.012979</Longitude>
   <Latitude>51.126361</Latitude>
   </Location>
   <Location>
   <Longitude>-0.013265</Longitude>
   <Latitude>51.126343</Latitude>
   </Location>
   </Mapping>
   </Track>
   </RouteLink>
   <RouteLink id="i281_9_14">
   <From>
   <StopPointRef>4400EG0323</StopPointRef>
   </From>
   <To>
   <StopPointRef>4400EG0291</StopPointRef>
   </To>
   <Direction>inbound</Direction>
   <Track>
   <Mapping>
   <Location>
   <Longitude>-0.013265</Longitude>
   <Latitude>51.126343</Latitude>
   </Location>
   <Location>
   <Longitude>-0.013407</Longitude>
   <Latitude>51.126335</Latitude>
   </Location>
   <Location>
   <Longitude>-0.013679</Longitude>
   <Latitude>51.126326</Latitude>
   </Location>
   <Location>
   <Longitude>-0.014893</Longitude>
   <Latitude>51.126273</Latitude>
   </Location>
   <Location>
   <Longitude>-0.015865</Longitude>
   <Latitude>51.126210</Latitude>
   </Location>
   <Location>
   <Longitude>-0.016036</Longitude>
   <Latitude>51.126193</Latitude>
   </Location>
   <Location>
   <Longitude>-0.016051</Longitude>
   <Latitude>51.126148</Latitude>
   </Location>
   <Location>
   <Longitude>-0.016108</Longitude>
   <Latitude>51.126112</Latitude>
   </Location>
   <Location>
   <Longitude>-0.016151</Longitude>
   <Latitude>51.126103</Latitude>
   </Location>
   <Location>
   <Longitude>-0.016222</Longitude>
   <Latitude>51.126103</Latitude>
   </Location>
   <Location>
   <Longitude>-0.016366</Longitude>
   <Latitude>51.125878</Latitude>
   </Location>
   <Location>
   <Longitude>-0.016637</Longitude>
   <Latitude>51.125690</Latitude>
   </Location>
   <Location>
   <Longitude>-0.016866</Longitude>
   <Latitude>51.125528</Latitude>
   </Location>
   </Mapping>
   </Track>
   </RouteLink>
   <RouteLink id="i281_9_15">
   <From>
   <StopPointRef>4400EG0291</StopPointRef>
   </From>
   <To>
   <StopPointRef>4400EG0679</StopPointRef>
   </To>
   <Direction>inbound</Direction>
   <Track>
   <Mapping>
   <Location>
   <Longitude>-0.016866</Longitude>
   <Latitude>51.125528</Latitude>
   </Location>
   <Location>
   <Longitude>-0.017453</Longitude>
   <Latitude>51.125106</Latitude>
   </Location>
   <Location>
   <Longitude>-0.018154</Longitude>
   <Latitude>51.124342</Latitude>
   </Location>
   <Location>
   <Longitude>-0.018741</Longitude>
   <Latitude>51.123650</Latitude>
   </Location>
   <Location>
   <Longitude>-0.019056</Longitude>
   <Latitude>51.123093</Latitude>
   </Location>
   <Location>
   <Longitude>-0.019185</Longitude>
   <Latitude>51.122868</Latitude>
   </Location>
   </Mapping>
   </Track>
   </RouteLink>
   <RouteLink id="i281_9_16">
   <From>
   <StopPointRef>4400EG0679</StopPointRef>
   </From>
   <To>
   <StopPointRef>4400EG0288</StopPointRef>
   </To>
   <Direction>inbound</Direction>
   <Track>
   <Mapping>
   <Location>
   <Longitude>-0.019185</Longitude>
   <Latitude>51.122868</Latitude>
   </Location>
   <Location>
   <Longitude>-0.019314</Longitude>
   <Latitude>51.122644</Latitude>
   </Location>
   <Location>
   <Longitude>-0.019443</Longitude>
   <Latitude>51.122419</Latitude>
   </Location>
   <Location>
   <Longitude>-0.019429</Longitude>
   <Latitude>51.122266</Latitude>
   </Location>
   <Location>
   <Longitude>-0.019644</Longitude>
   <Latitude>51.122176</Latitude>
   </Location>
   <Location>
   <Longitude>-0.020644</Longitude>
   <Latitude>51.122204</Latitude>
   </Location>
   <Location>
   <Longitude>-0.020958</Longitude>
   <Latitude>51.122258</Latitude>
   </Location>
   <Location>
   <Longitude>-0.022000</Longitude>
   <Latitude>51.122511</Latitude>
   </Location>
   <Location>
   <Longitude>-0.023371</Longitude>
   <Latitude>51.122979</Latitude>
   </Location>
   </Mapping>
   </Track>
   </RouteLink>
   <RouteLink id="i281_9_17">
   <From>
   <StopPointRef>4400EG0288</StopPointRef>
   </From>
   <To>
   <StopPointRef>4400EG0438</StopPointRef>
   </To>
   <Direction>inbound</Direction>
   <Track>
   <Mapping>
   <Location>
   <Longitude>-0.023371</Longitude>
   <Latitude>51.122979</Latitude>
   </Location>
   <Location>
   <Longitude>-0.023699</Longitude>
   <Latitude>51.123087</Latitude>
   </Location>
   <Location>
   <Longitude>-0.024913</Longitude>
   <Latitude>51.123510</Latitude>
   </Location>
   <Location>
   <Longitude>-0.025056</Longitude>
   <Latitude>51.123627</Latitude>
   </Location>
   <Location>
   <Longitude>-0.025270</Longitude>
   <Latitude>51.123807</Latitude>
   </Location>
   <Location>
   <Longitude>-0.025355</Longitude>
   <Latitude>51.124059</Latitude>
   </Location>
   <Location>
   <Longitude>-0.025425</Longitude>
   <Latitude>51.124796</Latitude>
   </Location>
   <Location>
   <Longitude>-0.025553</Longitude>
   <Latitude>51.125021</Latitude>
   </Location>
   <Location>
   <Longitude>-0.025710</Longitude>
   <Latitude>51.125210</Latitude>
   </Location>
   <Location>
   <Longitude>-0.026053</Longitude>
   <Latitude>51.125435</Latitude>
   </Location>
   <Location>
   <Longitude>-0.026510</Longitude>
   <Latitude>51.125588</Latitude>
   </Location>
   <Location>
   <Longitude>-0.026767</Longitude>
   <Latitude>51.125642</Latitude>
   </Location>
   <Location>
   <Longitude>-0.027238</Longitude>
   <Latitude>51.125642</Latitude>
   </Location>
   <Location>
   <Longitude>-0.027767</Longitude>
   <Latitude>51.125544</Latitude>
   </Location>
   <Location>
   <Longitude>-0.028167</Longitude>
   <Latitude>51.125481</Latitude>
   </Location>
   </Mapping>
   </Track>
   </RouteLink>
   <RouteLink id="i281_9_18">
   <From>
   <StopPointRef>4400EG0438</StopPointRef>
   </From>
   <To>
   <StopPointRef>4400EG0285</StopPointRef>
   </To>
   <Direction>inbound</Direction>
   <Track>
   <Mapping>
   <Location>
   <Longitude>-0.028167</Longitude>
   <Latitude>51.125481</Latitude>
   </Location>
   <Location>
   <Longitude>-0.028482</Longitude>
   <Latitude>51.125436</Latitude>
   </Location>
   <Location>
   <Longitude>-0.028982</Longitude>
   <Latitude>51.125446</Latitude>
   </Location>
   <Location>
   <Longitude>-0.029267</Longitude>
   <Latitude>51.125527</Latitude>
   </Location>
   <Location>
   <Longitude>-0.029638</Longitude>
   <Latitude>51.125743</Latitude>
   </Location>
   <Location>
   <Longitude>-0.029795</Longitude>
   <Latitude>51.125950</Latitude>
   </Location>
   <Location>
   <Longitude>-0.029867</Longitude>
   <Latitude>51.126058</Latitude>
   </Location>
   <Location>
   <Longitude>-0.029908</Longitude>
   <Latitude>51.126822</Latitude>
   </Location>
   <Location>
   <Longitude>-0.029737</Longitude>
   <Latitude>51.127002</Latitude>
   </Location>
   <Location>
   <Longitude>-0.029551</Longitude>
   <Latitude>51.127100</Latitude>
   </Location>
   <Location>
   <Longitude>-0.029522</Longitude>
   <Latitude>51.127118</Latitude>
   </Location>
   </Mapping>
   </Track>
   </RouteLink>
   <RouteLink id="i281_9_19">
   <From>
   <StopPointRef>4400EG0285</StopPointRef>
   </From>
   <To>
   <StopPointRef>4400EG0287</StopPointRef>
   </To>
   <Direction>inbound</Direction>
   <Track>
   <Mapping>
   <Location>
   <Longitude>-0.029522</Longitude>
   <Latitude>51.127118</Latitude>
   </Location>
   <Location>
   <Longitude>-0.029065</Longitude>
   <Latitude>51.127361</Latitude>
   </Location>
   <Location>
   <Longitude>-0.028936</Longitude>
   <Latitude>51.127469</Latitude>
   </Location>
   <Location>
   <Longitude>-0.028764</Longitude>
   <Latitude>51.127810</Latitude>
   </Location>
   <Location>
   <Longitude>-0.028678</Longitude>
   <Latitude>51.128017</Latitude>
   </Location>
   <Location>
   <Longitude>-0.028663</Longitude>
   <Latitude>51.128134</Latitude>
   </Location>
   <Location>
   <Longitude>-0.028663</Longitude>
   <Latitude>51.128233</Latitude>
   </Location>
   <Location>
   <Longitude>-0.028663</Longitude>
   <Latitude>51.128403</Latitude>
   </Location>
   <Location>
   <Longitude>-0.028677</Longitude>
   <Latitude>51.128547</Latitude>
   </Location>
   <Location>
   <Longitude>-0.028705</Longitude>
   <Latitude>51.128709</Latitude>
   </Location>
   <Location>
   <Longitude>-0.028734</Longitude>
   <Latitude>51.128826</Latitude>
   </Location>
   <Location>
   <Longitude>-0.028748</Longitude>
   <Latitude>51.128880</Latitude>
   </Location>
   <Location>
   <Longitude>-0.028833</Longitude>
   <Latitude>51.129042</Latitude>
   </Location>
   <Location>
   <Longitude>-0.029019</Longitude>
   <Latitude>51.129339</Latitude>
   </Location>
   <Location>
   <Longitude>-0.029375</Longitude>
   <Latitude>51.129833</Latitude>
   </Location>
   <Location>
   <Longitude>-0.029546</Longitude>
   <Latitude>51.130274</Latitude>
   </Location>
   <Location>
   <Longitude>-0.029531</Longitude>
   <Latitude>51.130705</Latitude>
   </Location>
   <Location>
   <Longitude>-0.029531</Longitude>
   <Latitude>51.130723</Latitude>
   </Location>
   </Mapping>
   </Track>
   </RouteLink>
   <RouteLink id="i281_9_20">
   <From>
   <StopPointRef>4400EG0287</StopPointRef>
   </From>
   <To>
   <StopPointRef>4400EG0651</StopPointRef>
   </To>
   <Direction>inbound</Direction>
   <Track>
   <Mapping>
   <Location>
   <Longitude>-0.029531</Longitude>
   <Latitude>51.130723</Latitude>
   </Location>
   <Location>
   <Longitude>-0.029416</Longitude>
   <Latitude>51.131074</Latitude>
   </Location>
   <Location>
   <Longitude>-0.029216</Longitude>
   <Latitude>51.131353</Latitude>
   </Location>
   <Location>
   <Longitude>-0.028872</Longitude>
   <Latitude>51.131604</Latitude>
   </Location>
   <Location>
   <Longitude>-0.029087</Longitude>
   <Latitude>51.131757</Latitude>
   </Location>
   <Location>
   <Longitude>-0.029544</Longitude>
   <Latitude>51.131946</Latitude>
   </Location>
   <Location>
   <Longitude>-0.030143</Longitude>
   <Latitude>51.132099</Latitude>
   </Location>
   <Location>
   <Longitude>-0.030629</Longitude>
   <Latitude>51.132145</Latitude>
   </Location>
   <Location>
   <Longitude>-0.031158</Longitude>
   <Latitude>51.132127</Latitude>
   </Location>
   </Mapping>
   </Track>
   </RouteLink>
   <RouteLink id="i281_9_21">
   <From>
   <StopPointRef>4400EG0651</StopPointRef>
   </From>
   <To>
   <StopPointRef>4400EG0301</StopPointRef>
   </To>
   <Direction>inbound</Direction>
   <Track>
   <Mapping>
   <Location>
   <Longitude>-0.031158</Longitude>
   <Latitude>51.132127</Latitude>
   </Location>
   <Location>
   <Longitude>-0.032087</Longitude>
   <Latitude>51.132100</Latitude>
   </Location>
   <Location>
   <Longitude>-0.032730</Longitude>
   <Latitude>51.132047</Latitude>
   </Location>
   <Location>
   <Longitude>-0.032901</Longitude>
   <Latitude>51.132461</Latitude>
   </Location>
   <Location>
   <Longitude>-0.033356</Longitude>
   <Latitude>51.133630</Latitude>
   </Location>
   <Location>
   <Longitude>-0.033399</Longitude>
   <Latitude>51.133755</Latitude>
   </Location>
   <Location>
   <Longitude>-0.033485</Longitude>
   <Latitude>51.133899</Latitude>
   </Location>
   <Location>
   <Longitude>-0.033727</Longitude>
   <Latitude>51.134349</Latitude>
   </Location>
   <Location>
   <Longitude>-0.033941</Longitude>
   <Latitude>51.134754</Latitude>
   </Location>
   <Location>
   <Longitude>-0.033955</Longitude>
   <Latitude>51.134790</Latitude>
   </Location>
   </Mapping>
   </Track>
   </RouteLink>
   <RouteLink id="i281_9_22">
   <From>
   <StopPointRef>4400EG0301</StopPointRef>
   </From>
   <To>
   <StopPointRef>4400EG0302</StopPointRef>
   </To>
   <Direction>inbound</Direction>
   <Track>
   <Mapping>
   <Location>
   <Longitude>-0.033955</Longitude>
   <Latitude>51.134790</Latitude>
   </Location>
   <Location>
   <Longitude>-0.034126</Longitude>
   <Latitude>51.135131</Latitude>
   </Location>
   <Location>
   <Longitude>-0.034439</Longitude>
   <Latitude>51.135725</Latitude>
   </Location>
   <Location>
   <Longitude>-0.034510</Longitude>
   <Latitude>51.136058</Latitude>
   </Location>
   <Location>
   <Longitude>-0.034538</Longitude>
   <Latitude>51.137127</Latitude>
   </Location>
   <Location>
   <Longitude>-0.034623</Longitude>
   <Latitude>51.137316</Latitude>
   </Location>
   <Location>
   <Longitude>-0.034637</Longitude>
   <Latitude>51.137334</Latitude>
   </Location>
   <Location>
   <Longitude>-0.034666</Longitude>
   <Latitude>51.137388</Latitude>
   </Location>
   <Location>
   <Longitude>-0.034723</Longitude>
   <Latitude>51.137478</Latitude>
   </Location>
   <Location>
   <Longitude>-0.034923</Longitude>
   <Latitude>51.137568</Latitude>
   </Location>
   <Location>
   <Longitude>-0.035094</Longitude>
   <Latitude>51.137640</Latitude>
   </Location>
   <Location>
   <Longitude>-0.035266</Longitude>
   <Latitude>51.137721</Latitude>
   </Location>
   <Location>
   <Longitude>-0.035737</Longitude>
   <Latitude>51.137928</Latitude>
   </Location>
   <Location>
   <Longitude>-0.036051</Longitude>
   <Latitude>51.138072</Latitude>
   </Location>
   <Location>
   <Longitude>-0.036308</Longitude>
   <Latitude>51.138180</Latitude>
   </Location>
   </Mapping>
   </Track>
   </RouteLink>
   <RouteLink id="i281_9_23">
   <From>
   <StopPointRef>4400EG0302</StopPointRef>
   </From>
   <To>
   <StopPointRef>40004410001B</StopPointRef>
   </To>
   <Direction>inbound</Direction>
   <Track>
   <Mapping>
   <Location>
   <Longitude>-0.036308</Longitude>
   <Latitude>51.138180</Latitude>
   </Location>
   <Location>
   <Longitude>-0.036422</Longitude>
   <Latitude>51.138225</Latitude>
   </Location>
   <Location>
   <Longitude>-0.036594</Longitude>
   <Latitude>51.138315</Latitude>
   </Location>
   <Location>
   <Longitude>-0.036851</Longitude>
   <Latitude>51.138450</Latitude>
   </Location>
   <Location>
   <Longitude>-0.037536</Longitude>
   <Latitude>51.138801</Latitude>
   </Location>
   <Location>
   <Longitude>-0.037779</Longitude>
   <Latitude>51.138927</Latitude>
   </Location>
   <Location>
   <Longitude>-0.038293</Longitude>
   <Latitude>51.139323</Latitude>
   </Location>
   <Location>
   <Longitude>-0.038579</Longitude>
   <Latitude>51.139539</Latitude>
   </Location>
   <Location>
   <Longitude>-0.038893</Longitude>
   <Latitude>51.139512</Latitude>
   </Location>
   <Location>
   <Longitude>-0.039336</Longitude>
   <Latitude>51.139539</Latitude>
   </Location>
   <Location>
   <Longitude>-0.040051</Longitude>
   <Latitude>51.139621</Latitude>
   </Location>
   </Mapping>
   </Track>
   </RouteLink>
   <RouteLink id="i281_9_24">
   <From>
   <StopPointRef>40004410001B</StopPointRef>
   </From>
   <To>
   <StopPointRef>40004410002D</StopPointRef>
   </To>
   <Direction>inbound</Direction>
   <Track>
   <Mapping>
   <Location>
   <Longitude>-0.040051</Longitude>
   <Latitude>51.139621</Latitude>
   </Location>
   <Location>
   <Longitude>-0.040479</Longitude>
   <Latitude>51.139666</Latitude>
   </Location>
   <Location>
   <Longitude>-0.040765</Longitude>
   <Latitude>51.139702</Latitude>
   </Location>
   <Location>
   <Longitude>-0.042666</Longitude>
   <Latitude>51.139919</Latitude>
   </Location>
   <Location>
   <Longitude>-0.043137</Longitude>
   <Latitude>51.139964</Latitude>
   </Location>
   <Location>
   <Longitude>-0.043280</Longitude>
   <Latitude>51.139919</Latitude>
   </Location>
   <Location>
   <Longitude>-0.044409</Longitude>
   <Latitude>51.139794</Latitude>
   </Location>
   <Location>
   <Longitude>-0.045596</Longitude>
   <Latitude>51.139578</Latitude>
   </Location>
   <Location>
   <Longitude>-0.046139</Longitude>
   <Latitude>51.139444</Latitude>
   </Location>
   </Mapping>
   </Track>
   </RouteLink>
   <RouteLink id="i281_9_25">
   <From>
   <StopPointRef>40004410002D</StopPointRef>
   </From>
   <To>
   <StopPointRef>40004410003B</StopPointRef>
   </To>
   <Direction>inbound</Direction>
   <Track>
   <Mapping>
   <Location>
   <Longitude>-0.046139</Longitude>
   <Latitude>51.139444</Latitude>
   </Location>
   <Location>
   <Longitude>-0.048469</Longitude>
   <Latitude>51.138860</Latitude>
   </Location>
   <Location>
   <Longitude>-0.048926</Longitude>
   <Latitude>51.138744</Latitude>
   </Location>
   </Mapping>
   </Track>
   </RouteLink>
   <RouteLink id="i281_9_26">
   <From>
   <StopPointRef>40004410003B</StopPointRef>
   </From>
   <To>
   <StopPointRef>4400EG0216</StopPointRef>
   </To>
   <Direction>inbound</Direction>
   <Track>
   <Mapping>
   <Location>
   <Longitude>-0.048926</Longitude>
   <Latitude>51.138744</Latitude>
   </Location>
   <Location>
   <Longitude>-0.050585</Longitude>
   <Latitude>51.138331</Latitude>
   </Location>
   <Location>
   <Longitude>-0.051628</Longitude>
   <Latitude>51.138079</Latitude>
   </Location>
   <Location>
   <Longitude>-0.052028</Longitude>
   <Latitude>51.137981</Latitude>
   </Location>
   <Location>
   <Longitude>-0.052157</Longitude>
   <Latitude>51.137954</Latitude>
   </Location>
   <Location>
   <Longitude>-0.053400</Longitude>
   <Latitude>51.137631</Latitude>
   </Location>
   <Location>
   <Longitude>-0.053772</Longitude>
   <Latitude>51.137568</Latitude>
   </Location>
   <Location>
   <Longitude>-0.054272</Longitude>
   <Latitude>51.137460</Latitude>
   </Location>
   </Mapping>
   </Track>
   </RouteLink>
   <RouteLink id="i281_9_27">
   <From>
   <StopPointRef>4400EG0216</StopPointRef>
   </From>
   <To>
   <StopPointRef>4400EG0218</StopPointRef>
   </To>
   <Direction>inbound</Direction>
   <Track>
   <Mapping>
   <Location>
   <Longitude>-0.054272</Longitude>
   <Latitude>51.137460</Latitude>
   </Location>
   <Location>
   <Longitude>-0.054587</Longitude>
   <Latitude>51.137388</Latitude>
   </Location>
   <Location>
   <Longitude>-0.054730</Longitude>
   <Latitude>51.137352</Latitude>
   </Location>
   <Location>
   <Longitude>-0.054987</Longitude>
   <Latitude>51.137298</Latitude>
   </Location>
   <Location>
   <Longitude>-0.055087</Longitude>
   <Latitude>51.137290</Latitude>
   </Location>
   <Location>
   <Longitude>-0.056388</Longitude>
   <Latitude>51.137047</Latitude>
   </Location>
   <Location>
   <Longitude>-0.056616</Longitude>
   <Latitude>51.137002</Latitude>
   </Location>
   <Location>
   <Longitude>-0.056688</Longitude>
   <Latitude>51.136984</Latitude>
   </Location>
   <Location>
   <Longitude>-0.058174</Longitude>
   <Latitude>51.136688</Latitude>
   </Location>
   <Location>
   <Longitude>-0.058289</Longitude>
   <Latitude>51.136670</Latitude>
   </Location>
   <Location>
   <Longitude>-0.059761</Longitude>
   <Latitude>51.136365</Latitude>
   </Location>
   <Location>
   <Longitude>-0.061147</Longitude>
   <Latitude>51.136087</Latitude>
   </Location>
   <Location>
   <Longitude>-0.061290</Longitude>
   <Latitude>51.136051</Latitude>
   </Location>
   <Location>
   <Longitude>-0.061304</Longitude>
   <Latitude>51.136051</Latitude>
   </Location>
   </Mapping>
   </Track>
   </RouteLink>
   <RouteLink id="i281_9_28">
   <From>
   <StopPointRef>4400EG0218</StopPointRef>
   </From>
   <To>
   <StopPointRef>4400EG0238</StopPointRef>
   </To>
   <Direction>inbound</Direction>
   <Track>
   <Mapping>
   <Location>
   <Longitude>-0.061304</Longitude>
   <Latitude>51.136051</Latitude>
   </Location>
   <Location>
   <Longitude>-0.061547</Longitude>
   <Latitude>51.135997</Latitude>
   </Location>
   <Location>
   <Longitude>-0.061619</Longitude>
   <Latitude>51.135988</Latitude>
   </Location>
   <Location>
   <Longitude>-0.061890</Longitude>
   <Latitude>51.135880</Latitude>
   </Location>
   <Location>
   <Longitude>-0.062148</Longitude>
   <Latitude>51.135737</Latitude>
   </Location>
   <Location>
   <Longitude>-0.062234</Longitude>
   <Latitude>51.135665</Latitude>
   </Location>
   <Location>
   <Longitude>-0.062291</Longitude>
   <Latitude>51.135557</Latitude>
   </Location>
   <Location>
   <Longitude>-0.062319</Longitude>
   <Latitude>51.135467</Latitude>
   </Location>
   <Location>
   <Longitude>-0.062320</Longitude>
   <Latitude>51.135395</Latitude>
   </Location>
   <Location>
   <Longitude>-0.062305</Longitude>
   <Latitude>51.135332</Latitude>
   </Location>
   <Location>
   <Longitude>-0.062234</Longitude>
   <Latitude>51.135233</Latitude>
   </Location>
   <Location>
   <Longitude>-0.061905</Longitude>
   <Latitude>51.134945</Latitude>
   </Location>
   <Location>
   <Longitude>-0.061848</Longitude>
   <Latitude>51.134891</Latitude>
   </Location>
   <Location>
   <Longitude>-0.061677</Longitude>
   <Latitude>51.134738</Latitude>
   </Location>
   <Location>
   <Longitude>-0.061534</Longitude>
   <Latitude>51.134523</Latitude>
   </Location>
   <Location>
   <Longitude>-0.061491</Longitude>
   <Latitude>51.134460</Latitude>
   </Location>
   <Location>
   <Longitude>-0.061463</Longitude>
   <Latitude>51.134370</Latitude>
   </Location>
   <Location>
   <Longitude>-0.061492</Longitude>
   <Latitude>51.134271</Latitude>
   </Location>
   <Location>
   <Longitude>-0.061535</Longitude>
   <Latitude>51.134082</Latitude>
   </Location>
   <Location>
   <Longitude>-0.061721</Longitude>
   <Latitude>51.133785</Latitude>
   </Location>
   <Location>
   <Longitude>-0.062164</Longitude>
   <Latitude>51.133354</Latitude>
   </Location>
   <Location>
   <Longitude>-0.063165</Longitude>
   <Latitude>51.131871</Latitude>
   </Location>
   <Location>
   <Longitude>-0.063194</Longitude>
   <Latitude>51.131835</Latitude>
   </Location>
   <Location>
   <Longitude>-0.063323</Longitude>
   <Latitude>51.131709</Latitude>
   </Location>
   <Location>
   <Longitude>-0.063365</Longitude>
   <Latitude>51.131673</Latitude>
   </Location>
   </Mapping>
   </Track>
   </RouteLink>
   <RouteLink id="i281_9_29">
   <From>
   <StopPointRef>4400EG0238</StopPointRef>
   </From>
   <To>
   <StopPointRef>4400EG0242</StopPointRef>
   </To>
   <Direction>inbound</Direction>
   <Track>
   <Mapping>
   <Location>
   <Longitude>-0.063365</Longitude>
   <Latitude>51.131673</Latitude>
   </Location>
   <Location>
   <Longitude>-0.064037</Longitude>
   <Latitude>51.131026</Latitude>
   </Location>
   <Location>
   <Longitude>-0.064223</Longitude>
   <Latitude>51.130774</Latitude>
   </Location>
   <Location>
   <Longitude>-0.064352</Longitude>
   <Latitude>51.130523</Latitude>
   </Location>
   <Location>
   <Longitude>-0.064395</Longitude>
   <Latitude>51.130361</Latitude>
   </Location>
   <Location>
   <Longitude>-0.064409</Longitude>
   <Latitude>51.130307</Latitude>
   </Location>
   <Location>
   <Longitude>-0.064424</Longitude>
   <Latitude>51.130064</Latitude>
   </Location>
   <Location>
   <Longitude>-0.064524</Longitude>
   <Latitude>51.129884</Latitude>
   </Location>
   <Location>
   <Longitude>-0.064710</Longitude>
   <Latitude>51.129669</Latitude>
   </Location>
   <Location>
   <Longitude>-0.065053</Longitude>
   <Latitude>51.129444</Latitude>
   </Location>
   <Location>
   <Longitude>-0.065696</Longitude>
   <Latitude>51.129049</Latitude>
   </Location>
   <Location>
   <Longitude>-0.065725</Longitude>
   <Latitude>51.129040</Latitude>
   </Location>
   <Location>
   <Longitude>-0.065753</Longitude>
   <Latitude>51.129022</Latitude>
   </Location>
   <Location>
   <Longitude>-0.066454</Longitude>
   <Latitude>51.128698</Latitude>
   </Location>
   <Location>
   <Longitude>-0.066954</Longitude>
   <Latitude>51.128599</Latitude>
   </Location>
   <Location>
   <Longitude>-0.067383</Longitude>
   <Latitude>51.128510</Latitude>
   </Location>
   <Location>
   <Longitude>-0.068083</Longitude>
   <Latitude>51.128186</Latitude>
   </Location>
   <Location>
   <Longitude>-0.068869</Longitude>
   <Latitude>51.127863</Latitude>
   </Location>
   <Location>
   <Longitude>-0.070170</Longitude>
   <Latitude>51.126973</Latitude>
   </Location>
   <Location>
   <Longitude>-0.070270</Longitude>
   <Latitude>51.126919</Latitude>
   </Location>
   <Location>
   <Longitude>-0.070455</Longitude>
   <Latitude>51.126838</Latitude>
   </Location>
   </Mapping>
   </Track>
   </RouteLink>
   <RouteLink id="i281_9_30">
   <From>
   <StopPointRef>4400EG0242</StopPointRef>
   </From>
   <To>
   <StopPointRef>4400EG0469</StopPointRef>
   </To>
   <Direction>inbound</Direction>
   <Track>
   <Mapping>
   <Location>
   <Longitude>-0.070455</Longitude>
   <Latitude>51.126838</Latitude>
   </Location>
   <Location>
   <Longitude>-0.070784</Longitude>
   <Latitude>51.126703</Latitude>
   </Location>
   <Location>
   <Longitude>-0.071241</Longitude>
   <Latitude>51.126569</Latitude>
   </Location>
   <Location>
   <Longitude>-0.071799</Longitude>
   <Latitude>51.126416</Latitude>
   </Location>
   <Location>
   <Longitude>-0.071927</Longitude>
   <Latitude>51.126389</Latitude>
   </Location>
   <Location>
   <Longitude>-0.072199</Longitude>
   <Latitude>51.126317</Latitude>
   </Location>
   <Location>
   <Longitude>-0.072556</Longitude>
   <Latitude>51.126227</Latitude>
   </Location>
   <Location>
   <Longitude>-0.072670</Longitude>
   <Latitude>51.126191</Latitude>
   </Location>
   <Location>
   <Longitude>-0.072442</Longitude>
   <Latitude>51.125724</Latitude>
   </Location>
   <Location>
   <Longitude>-0.072371</Longitude>
   <Latitude>51.125490</Latitude>
   </Location>
   <Location>
   <Longitude>-0.072385</Longitude>
   <Latitude>51.125229</Latitude>
   </Location>
   </Mapping>
   </Track>
   </RouteLink>
   <RouteLink id="i281_9_31">
   <From>
   <StopPointRef>4400EG0469</StopPointRef>
   </From>
   <To>
   <StopPointRef>4400EG0251</StopPointRef>
   </To>
   <Direction>inbound</Direction>
   <Track>
   <Mapping>
   <Location>
   <Longitude>-0.072385</Longitude>
   <Latitude>51.125229</Latitude>
   </Location>
   <Location>
   <Longitude>-0.072399</Longitude>
   <Latitude>51.125067</Latitude>
   </Location>
   <Location>
   <Longitude>-0.072514</Longitude>
   <Latitude>51.124591</Latitude>
   </Location>
   <Location>
   <Longitude>-0.072557</Longitude>
   <Latitude>51.124501</Latitude>
   </Location>
   <Location>
   <Longitude>-0.072786</Longitude>
   <Latitude>51.124294</Latitude>
   </Location>
   <Location>
   <Longitude>-0.073629</Longitude>
   <Latitude>51.123773</Latitude>
   </Location>
   </Mapping>
   </Track>
   </RouteLink>
   <RouteLink id="i281_9_32">
   <From>
   <StopPointRef>4400EG0251</StopPointRef>
   </From>
   <To>
   <StopPointRef>4400EG0249</StopPointRef>
   </To>
   <Direction>inbound</Direction>
   <Track>
   <Mapping>
   <Location>
   <Longitude>-0.073629</Longitude>
   <Latitude>51.123773</Latitude>
   </Location>
   <Location>
   <Longitude>-0.074186</Longitude>
   <Latitude>51.123441</Latitude>
   </Location>
   <Location>
   <Longitude>-0.074358</Longitude>
   <Latitude>51.123297</Latitude>
   </Location>
   <Location>
   <Longitude>-0.074443</Longitude>
   <Latitude>51.123180</Latitude>
   </Location>
   <Location>
   <Longitude>-0.074486</Longitude>
   <Latitude>51.123090</Latitude>
   </Location>
   <Location>
   <Longitude>-0.074486</Longitude>
   <Latitude>51.123036</Latitude>
   </Location>
   <Location>
   <Longitude>-0.074472</Longitude>
   <Latitude>51.122964</Latitude>
   </Location>
   <Location>
   <Longitude>-0.074443</Longitude>
   <Latitude>51.122892</Latitude>
   </Location>
   <Location>
   <Longitude>-0.074358</Longitude>
   <Latitude>51.122766</Latitude>
   </Location>
   <Location>
   <Longitude>-0.074315</Longitude>
   <Latitude>51.122596</Latitude>
   </Location>
   <Location>
   <Longitude>-0.074315</Longitude>
   <Latitude>51.122371</Latitude>
   </Location>
   <Location>
   <Longitude>-0.074415</Longitude>
   <Latitude>51.122209</Latitude>
   </Location>
   <Location>
   <Longitude>-0.074644</Longitude>
   <Latitude>51.122056</Latitude>
   </Location>
   <Location>
   <Longitude>-0.075344</Longitude>
   <Latitude>51.121598</Latitude>
   </Location>
   <Location>
   <Longitude>-0.075644</Longitude>
   <Latitude>51.121238</Latitude>
   </Location>
   <Location>
   <Longitude>-0.075773</Longitude>
   <Latitude>51.121049</Latitude>
   </Location>
   <Location>
   <Longitude>-0.075859</Longitude>
   <Latitude>51.120960</Latitude>
   </Location>
   <Location>
   <Longitude>-0.075944</Longitude>
   <Latitude>51.120906</Latitude>
   </Location>
   <Location>
   <Longitude>-0.076087</Longitude>
   <Latitude>51.120843</Latitude>
   </Location>
   <Location>
   <Longitude>-0.076187</Longitude>
   <Latitude>51.120798</Latitude>
   </Location>
   <Location>
   <Longitude>-0.076330</Longitude>
   <Latitude>51.120780</Latitude>
   </Location>
   <Location>
   <Longitude>-0.076459</Longitude>
   <Latitude>51.120771</Latitude>
   </Location>
   </Mapping>
   </Track>
   </RouteLink>
   <RouteLink id="i281_9_33">
   <From>
   <StopPointRef>4400EG0249</StopPointRef>
   </From>
   <To>
   <StopPointRef>4400EG0353</StopPointRef>
   </To>
   <Direction>inbound</Direction>
   <Track>
   <Mapping>
   <Location>
   <Longitude>-0.076459</Longitude>
   <Latitude>51.120771</Latitude>
   </Location>
   <Location>
   <Longitude>-0.077287</Longitude>
   <Latitude>51.120681</Latitude>
   </Location>
   <Location>
   <Longitude>-0.077430</Longitude>
   <Latitude>51.121023</Latitude>
   </Location>
   <Location>
   <Longitude>-0.077587</Longitude>
   <Latitude>51.121122</Latitude>
   </Location>
   <Location>
   <Longitude>-0.077987</Longitude>
   <Latitude>51.121418</Latitude>
   </Location>
   <Location>
   <Longitude>-0.078415</Longitude>
   <Latitude>51.121949</Latitude>
   </Location>
   <Location>
   <Longitude>-0.078658</Longitude>
   <Latitude>51.122425</Latitude>
   </Location>
   <Location>
   <Longitude>-0.078701</Longitude>
   <Latitude>51.122515</Latitude>
   </Location>
   </Mapping>
   </Track>
   </RouteLink>
   <RouteLink id="i281_9_34">
   <From>
   <StopPointRef>4400EG0353</StopPointRef>
   </From>
   <To>
   <StopPointRef>4400EG0246</StopPointRef>
   </To>
   <Direction>inbound</Direction>
   <Track>
   <Mapping>
   <Location>
   <Longitude>-0.078701</Longitude>
   <Latitude>51.122515</Latitude>
