<?xml version="1.0" encoding="UTF-8"?>
<TransXChange CreationDateTime="2025-02-27T17:57:55+00:00" SchemaVersion="2.4" xmlns:xsi="http://www.w3.org/2001/XMLSchema-instance" RegistrationDocument="false" xmlns:apd="http://www.govtalk.gov.uk/people/AddressAndPersonalDetails" xmlns="http://www.transxchange.org.uk/" RevisionNumber="0" ModificationDateTime="2025-02-27T17:57:55+00:00" FileName="metrobus-646.xml" xsi:schemaLocation="http://www.transxchange.org.uk/ http://www.transxchange.org.uk/schema/2.4/TransXChange_general.xsd" Modification="new" xml:lang="en"> <!-- ExportProgramVersion="4.184" -->

   <ServicedOrganisations>
   <ServicedOrganisation>
   <OrganisationCode>Sch</OrganisationCode>
   <Name>AnySchool</Name>
   <WorkingDays>
   <DateRange>
   <StartDate>2025-03-03</StartDate>
   <EndDate>2025-03-07</EndDate>
   </DateRange>
   <DateRange>
   <StartDate>2025-03-10</StartDate>
   <EndDate>2025-03-14</EndDate>
   </DateRange>
   <DateRange>
   <StartDate>2025-03-17</StartDate>
   <EndDate>2025-03-21</EndDate>
   </DateRange>
   <DateRange>
   <StartDate>2025-03-24</StartDate>
   <EndDate>2025-03-28</EndDate>
   </DateRange>
   <DateRange>
   <StartDate>2025-03-31</StartDate>
   <EndDate>2025-04-04</EndDate>
   </DateRange>
   <DateRange>
   <StartDate>2025-04-22</StartDate>
   <EndDate>2025-04-25</EndDate>
   </DateRange>
   <DateRange>
   <StartDate>2025-04-28</StartDate>
   <EndDate>2025-05-02</EndDate>
   </DateRange>
   <DateRange>
   <StartDate>2025-05-06</StartDate>
   <EndDate>2025-05-09</EndDate>
   </DateRange>
   <DateRange>
   <StartDate>2025-05-12</StartDate>
   <EndDate>2025-05-16</EndDate>
   </DateRange>
   <DateRange>
   <StartDate>2025-05-19</StartDate>
   <EndDate>2025-05-23</EndDate>
   </DateRange>
   </WorkingDays>
   </ServicedOrganisation>
   </ServicedOrganisations>
   <StopPoints>
   <AnnotatedStopPointRef>
   <StopPointRef>4400EG0269</StopPointRef>
   <CommonName>Sackville School, A22</CommonName>
   <Location>
   <Longitude>0.000602</Longitude>
   <Latitude>51.123474</Latitude>
   </Location>
   </AnnotatedStopPointRef>
   <AnnotatedStopPointRef>
   <StopPointRef>4400EG0270</StopPointRef>
   <CommonName>Sackville College</CommonName>
   <Location>
   <Longitude>-0.004168</Longitude>
   <Latitude>51.123963</Latitude>
   </Location>
   </AnnotatedStopPointRef>
   <AnnotatedStopPointRef>
   <StopPointRef>4400EG0273</StopPointRef>
   <CommonName>East Grinstead, High Street</CommonName>
   <Location>
   <Longitude>-0.008011</Longitude>
   <Latitude>51.123957</Latitude>
   </Location>
   </AnnotatedStopPointRef>
   <AnnotatedStopPointRef>
   <StopPointRef>4400EG0360</StopPointRef>
   <CommonName>Whitehall</CommonName>
   <Location>
   <Longitude>-0.008838</Longitude>
   <Latitude>51.125270</Latitude>
   </Location>
   </AnnotatedStopPointRef>
   <AnnotatedStopPointRef>
   <StopPointRef>4400EG0323</StopPointRef>
   <CommonName>Railway Approach</CommonName>
   <Location>
   <Longitude>-0.013265</Longitude>
   <Latitude>51.126308</Latitude>
   </Location>
   </AnnotatedStopPointRef>
   <AnnotatedStopPointRef>
   <StopPointRef>4400EG0295</StopPointRef>
   <CommonName>East Grinstead Station</CommonName>
   <Location>
   <Longitude>-0.017079</Longitude>
   <Latitude>51.126625</Latitude>
   </Location>
   </AnnotatedStopPointRef>
   <AnnotatedStopPointRef>
   <StopPointRef>4400EG0431</StopPointRef>
   <CommonName>Garland Road</CommonName>
   <Location>
   <Longitude>-0.016745</Longitude>
   <Latitude>51.129699</Latitude>
   </Location>
   </AnnotatedStopPointRef>
   <AnnotatedStopPointRef>
   <StopPointRef>4400EG0320</StopPointRef>
   <CommonName>Trinity Methodist Church</CommonName>
   <LocalityName>Mid Sussex</LocalityName>
   <Location>
   <Longitude>-0.018170</Longitude>
   <Latitude>51.131516</Latitude>
   </Location>
   </AnnotatedStopPointRef>
   <AnnotatedStopPointRef>
   <StopPointRef>4400EG0319</StopPointRef>
   <CommonName>Dormans Park Road</CommonName>
   <LocalityName>Mid Sussex</LocalityName>
   <Location>
   <Longitude>-0.017652</Longitude>
   <Latitude>51.133764</Latitude>
   </Location>
   </AnnotatedStopPointRef>
   <AnnotatedStopPointRef>
   <StopPointRef>4400EG0314</StopPointRef>
   <CommonName>Baldwins Hill, Hermitage Road</CommonName>
   <LocalityName>Mid Sussex</LocalityName>
   <Location>
   <Longitude>-0.018618</Longitude>
   <Latitude>51.137064</Latitude>
   </Location>
   </AnnotatedStopPointRef>
   <AnnotatedStopPointRef>
   <StopPointRef>4400EG0317</StopPointRef>
   <CommonName>Furzefield Road</CommonName>
   <LocalityName>Mid Sussex</LocalityName>
   <Location>
   <Longitude>-0.020043</Longitude>
   <Latitude>51.139681</Latitude>
   </Location>
   </AnnotatedStopPointRef>
   <AnnotatedStopPointRef>
   <StopPointRef>40004410029B</StopPointRef>
   <CommonName>Wadlands Brook Road</CommonName>
   <LocalityName>Tandridge</LocalityName>
   <Location>
   <Longitude>-0.018863</Longitude>
   <Latitude>51.144148</Latitude>
   </Location>
   </AnnotatedStopPointRef>
   <AnnotatedStopPointRef>
   <StopPointRef>40004410030B</StopPointRef>
   <CommonName>Chartham Park</CommonName>
   <LocalityName>Tandridge</LocalityName>
   <Location>
   <Longitude>-0.023870</Longitude>
   <Latitude>51.150445</Latitude>
   </Location>
   </AnnotatedStopPointRef>
   <AnnotatedStopPointRef>
   <StopPointRef>40004410031B</StopPointRef>
   <CommonName>Yew Tree Lodge</CommonName>
   <LocalityName>Tandridge</LocalityName>
   <Location>
   <Longitude>-0.023865</Longitude>
   <Latitude>51.153628</Latitude>
   </Location>
   </AnnotatedStopPointRef>
   <AnnotatedStopPointRef>
   <StopPointRef>40004410032B</StopPointRef>
   <CommonName>Chestnut Walk</CommonName>
   <LocalityName>Tandridge</LocalityName>
   <Location>
   <Longitude>-0.023174</Longitude>
   <Latitude>51.156702</Latitude>
   </Location>
   </AnnotatedStopPointRef>
   <AnnotatedStopPointRef>
   <StopPointRef>40004410033B</StopPointRef>
   <CommonName>Felcourt, Blackberry Road</CommonName>
   <LocalityName>Tandridge</LocalityName>
   <Location>
   <Longitude>-0.022613</Longitude>
   <Latitude>51.158778</Latitude>
   </Location>
   </AnnotatedStopPointRef>
   <AnnotatedStopPointRef>
   <StopPointRef>40004410034B</StopPointRef>
   <CommonName>Felcourt Lane</CommonName>
   <LocalityName>Tandridge</LocalityName>
   <Location>
   <Longitude>-0.021966</Longitude>
   <Latitude>51.161053</Latitude>
   </Location>
   </AnnotatedStopPointRef>
   <AnnotatedStopPointRef>
   <StopPointRef>40004410036B</StopPointRef>
   <CommonName>Jacks Bridge</CommonName>
   <LocalityName>Tandridge</LocalityName>
   <Location>
   <Longitude>-0.017823</Longitude>
   <Latitude>51.166957</Latitude>
   </Location>
   </AnnotatedStopPointRef>
   <AnnotatedStopPointRef>
   <StopPointRef>40004406965B</StopPointRef>
   <CommonName>Stanfords Place</CommonName>
   <LocalityName>Tandridge</LocalityName>
   <Location>
   <Longitude>-0.018184</Longitude>
   <Latitude>51.173466</Latitude>
   </Location>
   </AnnotatedStopPointRef>
   <AnnotatedStopPointRef>
   <StopPointRef>40004410051A</StopPointRef>
   <CommonName>Lingfield, War Memorial</CommonName>
   <Location>
   <Longitude>-0.017224</Longitude>
   <Latitude>51.174463</Latitude>
   </Location>
   </AnnotatedStopPointRef>
   <AnnotatedStopPointRef>
   <StopPointRef>40004410216B</StopPointRef>
   <CommonName>The Star</CommonName>
   <LocalityName>Tandridge</LocalityName>
   <Location>
   <Longitude>-0.013961</Longitude>
   <Latitude>51.175729</Latitude>
   </Location>
   </AnnotatedStopPointRef>
   <AnnotatedStopPointRef>
   <StopPointRef>40004410052B</StopPointRef>
   <CommonName>Little Lullenden</CommonName>
   <LocalityName>Tandridge</LocalityName>
   <Location>
   <Longitude>-0.013882</Longitude>
   <Latitude>51.180053</Latitude>
   </Location>
   </AnnotatedStopPointRef>
   <AnnotatedStopPointRef>
   <StopPointRef>40004410053B</StopPointRef>
   <CommonName>Lingfield, Saxby's Lane</CommonName>
   <LocalityName>Tandridge</LocalityName>
   <Location>
   <Longitude>-0.012777</Longitude>
   <Latitude>51.181554</Latitude>
   </Location>
   </AnnotatedStopPointRef>
   <AnnotatedStopPointRef>
   <StopPointRef>40004410289A</StopPointRef>
   <CommonName>Pauls Mead</CommonName>
   <Location>
   <Longitude>-0.008619</Longitude>
   <Latitude>51.179501</Latitude>
   </Location>
   </AnnotatedStopPointRef>
   <AnnotatedStopPointRef>
   <StopPointRef>40004410049B</StopPointRef>
   <CommonName>Lingfield Station</CommonName>
   <LocalityName>Tandridge</LocalityName>
   <Location>
   <Longitude>-0.008766</Longitude>
   <Latitude>51.177325</Latitude>
   </Location>
   </AnnotatedStopPointRef>
   <AnnotatedStopPointRef>
   <StopPointRef>40004410047A</StopPointRef>
   <CommonName>Lingfield Racecourse</CommonName>
   <Location>
   <Longitude>-0.003502</Longitude>
   <Latitude>51.170749</Latitude>
   </Location>
   </AnnotatedStopPointRef>
   <AnnotatedStopPointRef>
   <StopPointRef>40004410046C</StopPointRef>
   <CommonName>St Pier's Lane</CommonName>
   <Location>
   <Longitude>-0.000170</Longitude>
   <Latitude>51.170324</Latitude>
   </Location>
   </AnnotatedStopPointRef>
   <AnnotatedStopPointRef>
   <StopPointRef>40004410042D</StopPointRef>
   <CommonName>Dormansland, Swallowfield</CommonName>
   <Location>
   <Longitude>0.006282</Longitude>
   <Latitude>51.165104</Latitude>
   </Location>
   </AnnotatedStopPointRef>
   <AnnotatedStopPointRef>
   <StopPointRef>40004410043A</StopPointRef>
   <CommonName>Dormansland Plough</CommonName>
   <LocalityName>Tandridge</LocalityName>
   <Location>
   <Longitude>0.008960</Longitude>
   <Latitude>51.166836</Latitude>
   </Location>
   </AnnotatedStopPointRef>
   <AnnotatedStopPointRef>
   <StopPointRef>40004410812A</StopPointRef>
   <CommonName>Moor Lane West</CommonName>
   <Location>
   <Longitude>0.020397</Longitude>
   <Latitude>51.171455</Latitude>
   </Location>
   </AnnotatedStopPointRef>
   <AnnotatedStopPointRef>
   <StopPointRef>40004410045A</StopPointRef>
   <CommonName>New Barns Farm</CommonName>
   <Location>
   <Longitude>0.040179</Longitude>
   <Latitude>51.172531</Latitude>
   </Location>
   </AnnotatedStopPointRef>
   <AnnotatedStopPointRef>
   <StopPointRef>40004410812B</StopPointRef>
   <CommonName>Moor Lane East</CommonName>
   <Location>
   <Longitude>0.044517</Longitude>
   <Latitude>51.174287</Latitude>
   </Location>
   </AnnotatedStopPointRef>
   <AnnotatedStopPointRef>
   <StopPointRef>2400A034960A</StopPointRef>
   <CommonName>Marsh Green, Wheatsheaf Inn</CommonName>
   <Location>
   <Longitude>0.055543</Longitude>
   <Latitude>51.178292</Latitude>
   </Location>
   </AnnotatedStopPointRef>
   <AnnotatedStopPointRef>
   <StopPointRef>2400A007570A</StopPointRef>
   <CommonName>Den Cross</CommonName>
   <Location>
   <Longitude>0.068897</Longitude>
   <Latitude>51.184549</Latitude>
   </Location>
   </AnnotatedStopPointRef>
   <AnnotatedStopPointRef>
   <StopPointRef>2400A007490A</StopPointRef>
   <CommonName>Edenbridge, Old Hospital</CommonName>
   <Location>
   <Longitude>0.067227</Longitude>
   <Latitude>51.189703</Latitude>
   </Location>
   </AnnotatedStopPointRef>
   <AnnotatedStopPointRef>
   <StopPointRef>2400A007480A</StopPointRef>
   <CommonName>Hever Road</CommonName>
   <Location>
   <Longitude>0.065811</Longitude>
   <Latitude>51.193814</Latitude>
   </Location>
   </AnnotatedStopPointRef>
   <AnnotatedStopPointRef>
   <StopPointRef>2400A007460A</StopPointRef>
   <CommonName>Edenbridge High St, Post Office</CommonName>
   <Location>
   <Longitude>0.064394</Longitude>
   <Latitude>51.197727</Latitude>
   </Location>
   </AnnotatedStopPointRef>
   <AnnotatedStopPointRef>
   <StopPointRef>2400A007580A</StopPointRef>
   <CommonName>Edenbridge Town Station</CommonName>
   <Location>
   <Longitude>0.063827</Longitude>
   <Latitude>51.199256</Latitude>
   </Location>
   </AnnotatedStopPointRef>
   <AnnotatedStopPointRef>
   <StopPointRef>2400104613</StopPointRef>
   <CommonName>Leisure Centre</CommonName>
   <Location>
   <Longitude>0.063120</Longitude>
   <Latitude>51.201729</Latitude>
   </Location>
   </AnnotatedStopPointRef>
   <AnnotatedStopPointRef>
   <StopPointRef>2400A007450A</StopPointRef>
   <CommonName>The Eden Centre</CommonName>
   <Location>
   <Longitude>0.065116</Longitude>
   <Latitude>51.203641</Latitude>
   </Location>
   </AnnotatedStopPointRef>
   <AnnotatedStopPointRef>
   <StopPointRef>2400A071010A</StopPointRef>
   <CommonName>Farmstead Drive</CommonName>
   <Location>
   <Longitude>0.066110</Longitude>
   <Latitude>51.205312</Latitude>
   </Location>
   </AnnotatedStopPointRef>
   <AnnotatedStopPointRef>
   <StopPointRef>2400104615</StopPointRef>
   <CommonName>Edenbridge, Fircroft Way</CommonName>
   <Location>
   <Longitude>0.064826</Longitude>
   <Latitude>51.206600</Latitude>
   </Location>
   </AnnotatedStopPointRef>
   <AnnotatedStopPointRef>
   <StopPointRef>2400A007600A</StopPointRef>
   <CommonName>Enterprise Way</CommonName>
   <Location>
   <Longitude>0.061380</Longitude>
   <Latitude>51.207387</Latitude>
   </Location>
   </AnnotatedStopPointRef>
   <AnnotatedStopPointRef>
   <StopPointRef>2400A007620A</StopPointRef>
   <CommonName>Swan Lane</CommonName>
   <Location>
   <Longitude>0.060445</Longitude>
   <Latitude>51.210391</Latitude>
   </Location>
   </AnnotatedStopPointRef>
   <AnnotatedStopPointRef>
   <StopPointRef>2400A034810A</StopPointRef>
   <CommonName>Orpins Corner</CommonName>
   <LocalityName>Sevenoaks</LocalityName>
   <Location>
   <Longitude>0.059922</Longitude>
   <Latitude>51.212378</Latitude>
   </Location>
   </AnnotatedStopPointRef>
   <AnnotatedStopPointRef>
   <StopPointRef>2400104655</StopPointRef>
   <CommonName>The Rushetts</CommonName>
   <LocalityName>Sevenoaks</LocalityName>
   <Location>
   <Longitude>0.057925</Longitude>
   <Latitude>51.222891</Latitude>
   </Location>
   </AnnotatedStopPointRef>
   <AnnotatedStopPointRef>
   <StopPointRef>2400A034800A</StopPointRef>
   <CommonName>Model Farm</CommonName>
   <LocalityName>Sevenoaks</LocalityName>
   <Location>
   <Longitude>0.060288</Longitude>
   <Latitude>51.227023</Latitude>
   </Location>
   </AnnotatedStopPointRef>
   <AnnotatedStopPointRef>
   <StopPointRef>2400A073430A</StopPointRef>
   <CommonName>Crockham Hill, The Royal Oak</CommonName>
   <LocalityName>Sevenoaks</LocalityName>
   <Location>
   <Longitude>0.064472</Longitude>
   <Latitude>51.236170</Latitude>
   </Location>
   </AnnotatedStopPointRef>
   <AnnotatedStopPointRef>
   <StopPointRef>40004410197B</StopPointRef>
   <CommonName>Caxton Lane</CommonName>
   <LocalityName>Tandridge</LocalityName>
   <Location>
   <Longitude>0.033700</Longitude>
   <Latitude>51.247707</Latitude>
   </Location>
   </AnnotatedStopPointRef>
   <AnnotatedStopPointRef>
   <StopPointRef>40004410198B</StopPointRef>
   <CommonName>Ridlands Lane</CommonName>
   <LocalityName>Tandridge</LocalityName>
   <Location>
   <Longitude>0.027463</Longitude>
   <Latitude>51.250888</Latitude>
   </Location>
   </AnnotatedStopPointRef>
   <AnnotatedStopPointRef>
   <StopPointRef>40004410191D</StopPointRef>
   <CommonName>New Road</CommonName>
   <LocalityName>Tandridge</LocalityName>
   <Location>
   <Longitude>0.019910</Longitude>
   <Latitude>51.255193</Latitude>
   </Location>
   </AnnotatedStopPointRef>
   <AnnotatedStopPointRef>
   <StopPointRef>40004406950B</StopPointRef>
   <CommonName>Detillens Lane</CommonName>
   <LocalityName>Tandridge</LocalityName>
   <Location>
   <Longitude>0.007205</Longitude>
   <Latitude>51.256599</Latitude>
   </Location>
   </AnnotatedStopPointRef>
   <AnnotatedStopPointRef>
   <StopPointRef>40004410186B</StopPointRef>
   <CommonName>Oxted, Council Offices</CommonName>
   <LocalityName>Tandridge</LocalityName>
   <Location>
   <Longitude>-0.000661</Longitude>
   <Latitude>51.256875</Latitude>
   </Location>
   </AnnotatedStopPointRef>
   <AnnotatedStopPointRef>
   <StopPointRef>40004410033A</StopPointRef>
   <CommonName>Felcourt, Blackberry Road</CommonName>
   <LocalityName>Tandridge</LocalityName>
   <Location>
   <Longitude>-0.022614</Longitude>
   <Latitude>51.158284</Latitude>
   </Location>
   </AnnotatedStopPointRef>
   <AnnotatedStopPointRef>
   <StopPointRef>40004410030A</StopPointRef>
   <CommonName>Chartham Park</CommonName>
   <LocalityName>Tandridge</LocalityName>
   <Location>
   <Longitude>-0.023698</Longitude>
   <Latitude>51.150544</Latitude>
   </Location>
   </AnnotatedStopPointRef>
   <AnnotatedStopPointRef>
   <StopPointRef>40004410032A</StopPointRef>
   <CommonName>Chestnut Walk</CommonName>
   <LocalityName>Tandridge</LocalityName>
   <Location>
   <Longitude>-0.023074</Longitude>
   <Latitude>51.156576</Latitude>
   </Location>
   </AnnotatedStopPointRef>
   <AnnotatedStopPointRef>
   <StopPointRef>40004410216A</StopPointRef>
   <CommonName>The Star</CommonName>
   <Location>
   <Longitude>-0.013890</Longitude>
   <Latitude>51.175486</Latitude>
   </Location>
   </AnnotatedStopPointRef>
   <AnnotatedStopPointRef>
   <StopPointRef>4400EG0199</StopPointRef>
   <CommonName>Court Crescent</CommonName>
   <Location>
   <Longitude>-0.001233</Longitude>
   <Latitude>51.127098</Latitude>
   </Location>
   </AnnotatedStopPointRef>
   <AnnotatedStopPointRef>
   <StopPointRef>40004410053A</StopPointRef>
   <CommonName>Lingfield, Saxby's Lane</CommonName>
   <Location>
   <Longitude>-0.012735</Longitude>
   <Latitude>51.181509</Latitude>
   </Location>
   </AnnotatedStopPointRef>
   <AnnotatedStopPointRef>
   <StopPointRef>2400A034940A</StopPointRef>
   <CommonName>Den Cross</CommonName>
   <Location>
   <Longitude>0.069083</Longitude>
   <Latitude>51.184684</Latitude>
   </Location>
   </AnnotatedStopPointRef>
   <AnnotatedStopPointRef>
   <StopPointRef>4400EG0318</StopPointRef>
   <CommonName>Dormans Park Road</CommonName>
   <Location>
   <Longitude>-0.017494</Longitude>
   <Latitude>51.134231</Latitude>
   </Location>
   </AnnotatedStopPointRef>
   <AnnotatedStopPointRef>
   <StopPointRef>40004410043B</StopPointRef>
   <CommonName>Dormansland Plough</CommonName>
   <Location>
   <Longitude>0.009418</Longitude>
   <Latitude>51.167025</Latitude>
   </Location>
   </AnnotatedStopPointRef>
   <AnnotatedStopPointRef>
   <StopPointRef>4400EG0326</StopPointRef>
   <CommonName>East Grinstead Fire Station</CommonName>
   <Location>
   <Longitude>-0.014974</Longitude>
   <Latitude>51.128988</Latitude>
   </Location>
   </AnnotatedStopPointRef>
   <AnnotatedStopPointRef>
   <StopPointRef>4400EG0660</StopPointRef>
   <CommonName>East Grinstead, Sandy Lane</CommonName>
   <Location>
   <Longitude>-0.003706</Longitude>
   <Latitude>51.126669</Latitude>
   </Location>
   </AnnotatedStopPointRef>
   <AnnotatedStopPointRef>
   <StopPointRef>2400A007470A</StopPointRef>
   <CommonName>Edenbridge High Street</CommonName>
   <Location>
   <Longitude>0.064836</Longitude>
   <Latitude>51.197268</Latitude>
   </Location>
   </AnnotatedStopPointRef>
   <AnnotatedStopPointRef>
   <StopPointRef>2400A007500A</StopPointRef>
   <CommonName>Edenbridge, Old Hospital</CommonName>
   <Location>
   <Longitude>0.067384</Longitude>
   <Latitude>51.189478</Latitude>
   </Location>
   </AnnotatedStopPointRef>
   <AnnotatedStopPointRef>
   <StopPointRef>2400105457</StopPointRef>
   <CommonName>Edenbridge, Fircroft Way</CommonName>
   <Location>
   <Longitude>0.065170</Longitude>
   <Latitude>51.206707</Latitude>
   </Location>
   </AnnotatedStopPointRef>
   <AnnotatedStopPointRef>
   <StopPointRef>2400A007440A</StopPointRef>
   <CommonName>The Eden Centre</CommonName>
   <Location>
   <Longitude>0.065087</Longitude>
   <Latitude>51.203632</Latitude>
   </Location>
   </AnnotatedStopPointRef>
   <AnnotatedStopPointRef>
   <StopPointRef>2400A007590A</StopPointRef>
   <CommonName>Edenbridge Town Station</CommonName>
   <LocalityName>Sevenoaks</LocalityName>
   <Location>
   <Longitude>0.063871</Longitude>
   <Latitude>51.199561</Latitude>
   </Location>
   </AnnotatedStopPointRef>
   <AnnotatedStopPointRef>
   <StopPointRef>4400EG0197</StopPointRef>
   <CommonName>Estcots School</CommonName>
   <LocalityName>Mid Sussex</LocalityName>
   <Location>
   <Longitude>0.001906</Longitude>
   <Latitude>51.125118</Latitude>
   </Location>
   </AnnotatedStopPointRef>
   <AnnotatedStopPointRef>
   <StopPointRef>2400102627</StopPointRef>
   <CommonName>Farmstead Drive</CommonName>
   <Location>
   <Longitude>0.066397</Longitude>
   <Latitude>51.205573</Latitude>
   </Location>
   </AnnotatedStopPointRef>
   <AnnotatedStopPointRef>
   <StopPointRef>40004410034A</StopPointRef>
   <CommonName>Felcourt Lane</CommonName>
   <LocalityName>Tandridge</LocalityName>
   <Location>
   <Longitude>-0.021880</Longitude>
   <Latitude>51.160819</Latitude>
   </Location>
   </AnnotatedStopPointRef>
   <AnnotatedStopPointRef>
   <StopPointRef>4400EG0316</StopPointRef>
   <CommonName>Furzefield Road</CommonName>
   <LocalityName>Mid Sussex</LocalityName>
   <Location>
   <Longitude>-0.019986</Longitude>
   <Latitude>51.139636</Latitude>
   </Location>
   </AnnotatedStopPointRef>
   <AnnotatedStopPointRef>
   <StopPointRef>4400EG0315</StopPointRef>
   <CommonName>Baldwins Hill, Hermitage Road</CommonName>
   <LocalityName>Mid Sussex</LocalityName>
   <Location>
   <Longitude>-0.019445</Longitude>
   <Latitude>51.138377</Latitude>
   </Location>
   </AnnotatedStopPointRef>
   <AnnotatedStopPointRef>
   <StopPointRef>2400103640</StopPointRef>
   <CommonName>Hever Road</CommonName>
   <Location>
   <Longitude>0.066210</Longitude>
   <Latitude>51.193238</Latitude>
   </Location>
   </AnnotatedStopPointRef>
   <AnnotatedStopPointRef>
   <StopPointRef>40004410036A</StopPointRef>
   <CommonName>Jacks Bridge</CommonName>
   <LocalityName>Tandridge</LocalityName>
   <Location>
   <Longitude>-0.017623</Longitude>
   <Latitude>51.167055</Latitude>
   </Location>
   </AnnotatedStopPointRef>
   <AnnotatedStopPointRef>
   <StopPointRef>2400104661</StopPointRef>
   <CommonName>Leisure Centre</CommonName>
   <Location>
   <Longitude>0.063448</Longitude>
   <Latitude>51.201468</Latitude>
   </Location>
   </AnnotatedStopPointRef>
   <AnnotatedStopPointRef>
   <StopPointRef>40004410047B</StopPointRef>
   <CommonName>Lingfield Racecourse</CommonName>
   <Location>
   <Longitude>-0.002944</Longitude>
   <Latitude>51.170623</Latitude>
   </Location>
   </AnnotatedStopPointRef>
   <AnnotatedStopPointRef>
   <StopPointRef>40004410051B</StopPointRef>
   <CommonName>Lingfield, War Memorial</CommonName>
   <Location>
   <Longitude>-0.017539</Longitude>
   <Latitude>51.174365</Latitude>
   </Location>
   </AnnotatedStopPointRef>
   <AnnotatedStopPointRef>
   <StopPointRef>40004410049A</StopPointRef>
   <CommonName>Lingfield Station</CommonName>
   <Location>
   <Longitude>-0.008497</Longitude>
   <Latitude>51.176129</Latitude>
   </Location>
   </AnnotatedStopPointRef>
   <AnnotatedStopPointRef>
   <StopPointRef>40004410052A</StopPointRef>
   <CommonName>Little Lullenden</CommonName>
   <Location>
   <Longitude>-0.013769</Longitude>
   <Latitude>51.179316</Latitude>
   </Location>
   </AnnotatedStopPointRef>
   <AnnotatedStopPointRef>
   <StopPointRef>2400A034950A</StopPointRef>
   <CommonName>Marsh Green, Wheatsheaf Inn</CommonName>
   <Location>
   <Longitude>0.056102</Longitude>
   <Latitude>51.178588</Latitude>
   </Location>
   </AnnotatedStopPointRef>
   <AnnotatedStopPointRef>
   <StopPointRef>40004410812C</StopPointRef>
   <CommonName>Moor Lane East</CommonName>
   <Location>
   <Longitude>0.044374</Longitude>
   <Latitude>51.174090</Latitude>
   </Location>
   </AnnotatedStopPointRef>
   <AnnotatedStopPointRef>
   <StopPointRef>40004410812D</StopPointRef>
   <CommonName>Moor Lane West</CommonName>
   <Location>
   <Longitude>0.020768</Longitude>
   <Latitude>51.171311</Latitude>
   </Location>
   </AnnotatedStopPointRef>
   <AnnotatedStopPointRef>
   <StopPointRef>40004410045B</StopPointRef>
   <CommonName>New Barns Farm</CommonName>
   <Location>
   <Longitude>0.040937</Longitude>
   <Latitude>51.172557</Latitude>
   </Location>
   </AnnotatedStopPointRef>
   <AnnotatedStopPointRef>
   <StopPointRef>40004410289B</StopPointRef>
   <CommonName>Pauls Mead</CommonName>
   <Location>
   <Longitude>-0.009346</Longitude>
   <Latitude>51.180580</Latitude>
   </Location>
   </AnnotatedStopPointRef>
   <AnnotatedStopPointRef>
   <StopPointRef>40004406965A</StopPointRef>
   <CommonName>Stanfords Place</CommonName>
   <LocalityName>Tandridge</LocalityName>
   <Location>
   <Longitude>-0.018113</Longitude>
   <Latitude>51.173484</Latitude>
   </Location>
   </AnnotatedStopPointRef>
   <AnnotatedStopPointRef>
   <StopPointRef>40004410048B</StopPointRef>
   <CommonName>Station Road</CommonName>
   <Location>
   <Longitude>-0.008732</Longitude>
   <Latitude>51.172947</Latitude>
   </Location>
   </AnnotatedStopPointRef>
   <AnnotatedStopPointRef>
   <StopPointRef>40004410046B</StopPointRef>
   <CommonName>St Pier's Lane</CommonName>
   <Location>
   <Longitude>-0.000299</Longitude>
   <Latitude>51.170270</Latitude>
   </Location>
   </AnnotatedStopPointRef>
   <AnnotatedStopPointRef>
   <StopPointRef>40004410042C</StopPointRef>
   <CommonName>Dormansland, Swallowfield</CommonName>
   <Location>
   <Longitude>0.006124</Longitude>
   <Latitude>51.165104</Latitude>
   </Location>
   </AnnotatedStopPointRef>
   <AnnotatedStopPointRef>
   <StopPointRef>4400EG0321</StopPointRef>
   <CommonName>Trinity Methodist Church</CommonName>
   <Location>
   <Longitude>-0.018142</Longitude>
   <Latitude>51.131319</Latitude>
   </Location>
   </AnnotatedStopPointRef>
   <AnnotatedStopPointRef>
   <StopPointRef>40004410029A</StopPointRef>
   <CommonName>Wadlands Brook Road</CommonName>
   <LocalityName>Tandridge</LocalityName>
   <Location>
   <Longitude>-0.018821</Longitude>
   <Latitude>51.144050</Latitude>
   </Location>
   </AnnotatedStopPointRef>
   <AnnotatedStopPointRef>
   <StopPointRef>40004410031A</StopPointRef>
   <CommonName>Yew Tree Lodge</CommonName>
   <LocalityName>Tandridge</LocalityName>
   <Location>
   <Longitude>-0.023851</Longitude>
   <Latitude>51.153619</Latitude>
   </Location>
   </AnnotatedStopPointRef>
   </StopPoints>
   <RouteSections>
   <RouteSection id="bQN_baZP">
   <RouteLink id="i646_1_1">
   <From>
   <StopPointRef>4400EG0269</StopPointRef>
   </From>
   <To>
   <StopPointRef>4400EG0270</StopPointRef>
   </To>
   <Direction>inbound</Direction>
   <Track>
   <Mapping>
   <Location>
   <Longitude>0.000617</Longitude>
   <Latitude>51.123537</Latitude>
   </Location>
   <Location>
   <Longitude>0.000502</Longitude>
   <Latitude>51.123546</Latitude>
   </Location>
   <Location>
   <Longitude>0.000431</Longitude>
   <Latitude>51.123555</Latitude>
   </Location>
   <Location>
   <Longitude>-0.000040</Longitude>
   <Latitude>51.123636</Latitude>
   </Location>
   <Location>
   <Longitude>-0.000098</Longitude>
   <Latitude>51.123627</Latitude>
   </Location>
   <Location>
   <Longitude>-0.000155</Longitude>
   <Latitude>51.123636</Latitude>
   </Location>
   <Location>
   <Longitude>-0.000183</Longitude>
   <Latitude>51.123654</Latitude>
   </Location>
   <Location>
   <Longitude>-0.000397</Longitude>
   <Latitude>51.123681</Latitude>
   </Location>
   <Location>
   <Longitude>-0.000612</Longitude>
   <Latitude>51.123699</Latitude>
   </Location>
   <Location>
   <Longitude>-0.000669</Longitude>
   <Latitude>51.123708</Latitude>
   </Location>
   <Location>
   <Longitude>-0.000797</Longitude>
   <Latitude>51.123718</Latitude>
   </Location>
   <Location>
   <Longitude>-0.000855</Longitude>
   <Latitude>51.123718</Latitude>
   </Location>
   <Location>
   <Longitude>-0.001926</Longitude>
   <Latitude>51.123826</Latitude>
   </Location>
   <Location>
   <Longitude>-0.002397</Longitude>
   <Latitude>51.123872</Latitude>
   </Location>
   <Location>
   <Longitude>-0.003497</Longitude>
   <Latitude>51.124007</Latitude>
   </Location>
   <Location>
   <Longitude>-0.003668</Longitude>
   <Latitude>51.124008</Latitude>
   </Location>
   <Location>
   <Longitude>-0.003968</Longitude>
   <Latitude>51.124008</Latitude>
   </Location>
   <Location>
   <Longitude>-0.004168</Longitude>
   <Latitude>51.123999</Latitude>
   </Location>
   </Mapping>
   </Track>
   </RouteLink>
   <RouteLink id="i646_1_2">
   <From>
   <StopPointRef>4400EG0270</StopPointRef>
   </From>
   <To>
   <StopPointRef>4400EG0273</StopPointRef>
   </To>
   <Direction>inbound</Direction>
   <Track>
   <Mapping>
   <Location>
   <Longitude>-0.004168</Longitude>
   <Latitude>51.123999</Latitude>
   </Location>
   <Location>
   <Longitude>-0.004211</Longitude>
   <Latitude>51.123999</Latitude>
   </Location>
   <Location>
   <Longitude>-0.004426</Longitude>
   <Latitude>51.123981</Latitude>
   </Location>
   <Location>
   <Longitude>-0.004797</Longitude>
   <Latitude>51.123928</Latitude>
   </Location>
   <Location>
   <Longitude>-0.005469</Longitude>
   <Latitude>51.123856</Latitude>
   </Location>
   <Location>
   <Longitude>-0.005554</Longitude>
   <Latitude>51.123847</Latitude>
   </Location>
   <Location>
   <Longitude>-0.005626</Longitude>
   <Latitude>51.123847</Latitude>
   </Location>
   <Location>
   <Longitude>-0.005897</Longitude>
   <Latitude>51.123866</Latitude>
   </Location>
   <Location>
   <Longitude>-0.006797</Longitude>
   <Latitude>51.123902</Latitude>
   </Location>
   <Location>
   <Longitude>-0.006897</Longitude>
   <Latitude>51.123929</Latitude>
   </Location>
   <Location>
   <Longitude>-0.007983</Longitude>
   <Latitude>51.124056</Latitude>
   </Location>
   </Mapping>
   </Track>
   </RouteLink>
   <RouteLink id="i646_1_3">
   <From>
   <StopPointRef>4400EG0273</StopPointRef>
   </From>
   <To>
   <StopPointRef>4400EG0360</StopPointRef>
   </To>
   <Direction>inbound</Direction>
   <Track>
   <Mapping>
   <Location>
   <Longitude>-0.007983</Longitude>
   <Latitude>51.124056</Latitude>
   </Location>
   <Location>
   <Longitude>-0.008097</Longitude>
   <Latitude>51.124065</Latitude>
   </Location>
   <Location>
   <Longitude>-0.008183</Longitude>
   <Latitude>51.124056</Latitude>
   </Location>
   <Location>
   <Longitude>-0.008240</Longitude>
   <Latitude>51.124128</Latitude>
   </Location>
   <Location>
   <Longitude>-0.008297</Longitude>
   <Latitude>51.124236</Latitude>
   </Location>
   <Location>
   <Longitude>-0.008581</Longitude>
   <Latitude>51.124839</Latitude>
   </Location>
   <Location>
   <Longitude>-0.008823</Longitude>
   <Latitude>51.125270</Latitude>
   </Location>
   </Mapping>
   </Track>
   </RouteLink>
   <RouteLink id="i646_1_4">
   <From>
   <StopPointRef>4400EG0360</StopPointRef>
   </From>
   <To>
   <StopPointRef>4400EG0323</StopPointRef>
   </To>
   <Direction>inbound</Direction>
   <Track>
   <Mapping>
   <Location>
   <Longitude>-0.008823</Longitude>
   <Latitude>51.125270</Latitude>
   </Location>
   <Location>
   <Longitude>-0.009051</Longitude>
   <Latitude>51.125657</Latitude>
   </Location>
   <Location>
   <Longitude>-0.009122</Longitude>
   <Latitude>51.125738</Latitude>
   </Location>
   <Location>
   <Longitude>-0.009222</Longitude>
   <Latitude>51.125846</Latitude>
   </Location>
   <Location>
   <Longitude>-0.009308</Longitude>
   <Latitude>51.125900</Latitude>
   </Location>
   <Location>
   <Longitude>-0.009322</Longitude>
   <Latitude>51.125909</Latitude>
   </Location>
   <Location>
   <Longitude>-0.009536</Longitude>
   <Latitude>51.126062</Latitude>
   </Location>
   <Location>
   <Longitude>-0.009607</Longitude>
   <Latitude>51.126089</Latitude>
   </Location>
   <Location>
   <Longitude>-0.009979</Longitude>
   <Latitude>51.126296</Latitude>
   </Location>
   <Location>
   <Longitude>-0.010864</Longitude>
   <Latitude>51.126602</Latitude>
   </Location>
   <Location>
   <Longitude>-0.011007</Longitude>
   <Latitude>51.126665</Latitude>
   </Location>
   <Location>
   <Longitude>-0.011264</Longitude>
   <Latitude>51.126549</Latitude>
   </Location>
   <Location>
   <Longitude>-0.011635</Longitude>
   <Latitude>51.126504</Latitude>
   </Location>
   <Location>
   <Longitude>-0.012121</Longitude>
   <Latitude>51.126442</Latitude>
   </Location>
   <Location>
   <Longitude>-0.012393</Longitude>
   <Latitude>51.126406</Latitude>
   </Location>
   <Location>
   <Longitude>-0.012979</Longitude>
   <Latitude>51.126361</Latitude>
   </Location>
   <Location>
   <Longitude>-0.013265</Longitude>
   <Latitude>51.126343</Latitude>
   </Location>
   </Mapping>
   </Track>
   </RouteLink>
   <RouteLink id="i646_1_5">
   <From>
   <StopPointRef>4400EG0323</StopPointRef>
   </From>
   <To>
   <StopPointRef>4400EG0295</StopPointRef>
   </To>
   <Direction>inbound</Direction>
   <Track>
   <Mapping>
   <Location>
   <Longitude>-0.013265</Longitude>
   <Latitude>51.126343</Latitude>
   </Location>
   <Location>
   <Longitude>-0.013407</Longitude>
   <Latitude>51.126335</Latitude>
   </Location>
   <Location>
   <Longitude>-0.013679</Longitude>
   <Latitude>51.126326</Latitude>
   </Location>
   <Location>
   <Longitude>-0.014893</Longitude>
   <Latitude>51.126273</Latitude>
   </Location>
   <Location>
   <Longitude>-0.015865</Longitude>
   <Latitude>51.126210</Latitude>
   </Location>
   <Location>
   <Longitude>-0.016036</Longitude>
   <Latitude>51.126193</Latitude>
   </Location>
   <Location>
   <Longitude>-0.016051</Longitude>
   <Latitude>51.126148</Latitude>
   </Location>
   <Location>
   <Longitude>-0.016108</Longitude>
   <Latitude>51.126112</Latitude>
   </Location>
   <Location>
   <Longitude>-0.016151</Longitude>
   <Latitude>51.126103</Latitude>
   </Location>
   <Location>
   <Longitude>-0.016222</Longitude>
   <Latitude>51.126103</Latitude>
   </Location>
   <Location>
   <Longitude>-0.016265</Longitude>
   <Latitude>51.126121</Latitude>
   </Location>
   <Location>
   <Longitude>-0.016308</Longitude>
   <Latitude>51.126148</Latitude>
   </Location>
   <Location>
   <Longitude>-0.016308</Longitude>
   <Latitude>51.126193</Latitude>
   </Location>
   <Location>
   <Longitude>-0.016294</Longitude>
   <Latitude>51.126238</Latitude>
   </Location>
   <Location>
   <Longitude>-0.016251</Longitude>
   <Latitude>51.126265</Latitude>
   </Location>
   <Location>
   <Longitude>-0.016208</Longitude>
   <Latitude>51.126274</Latitude>
   </Location>
   <Location>
   <Longitude>-0.016193</Longitude>
   <Latitude>51.126382</Latitude>
   </Location>
   <Location>
   <Longitude>-0.016193</Longitude>
   <Latitude>51.126417</Latitude>
   </Location>
   <Location>
   <Longitude>-0.016207</Longitude>
   <Latitude>51.126435</Latitude>
   </Location>
   <Location>
   <Longitude>-0.016250</Longitude>
   <Latitude>51.126453</Latitude>
   </Location>
   <Location>
   <Longitude>-0.016279</Longitude>
   <Latitude>51.126462</Latitude>
   </Location>
   <Location>
   <Longitude>-0.016322</Longitude>
   <Latitude>51.126463</Latitude>
   </Location>
   <Location>
   <Longitude>-0.016422</Longitude>
   <Latitude>51.126472</Latitude>
   </Location>
   <Location>
   <Longitude>-0.016450</Longitude>
   <Latitude>51.126481</Latitude>
   </Location>
   <Location>
   <Longitude>-0.016479</Longitude>
   <Latitude>51.126472</Latitude>
   </Location>
   <Location>
   <Longitude>-0.016565</Longitude>
   <Latitude>51.126454</Latitude>
   </Location>
   <Location>
   <Longitude>-0.016650</Longitude>
   <Latitude>51.126454</Latitude>
   </Location>
   <Location>
   <Longitude>-0.016750</Longitude>
   <Latitude>51.126454</Latitude>
   </Location>
   <Location>
   <Longitude>-0.016836</Longitude>
   <Latitude>51.126472</Latitude>
   </Location>
   <Location>
   <Longitude>-0.016907</Longitude>
   <Latitude>51.126499</Latitude>
   </Location>
   <Location>
   <Longitude>-0.016979</Longitude>
   <Latitude>51.126535</Latitude>
   </Location>
   <Location>
   <Longitude>-0.017036</Longitude>
   <Latitude>51.126580</Latitude>
   </Location>
   <Location>
   <Longitude>-0.017079</Longitude>
   <Latitude>51.126625</Latitude>
   </Location>
   </Mapping>
   </Track>
   </RouteLink>
   <RouteLink id="i646_1_6">
   <From>
   <StopPointRef>4400EG0295</StopPointRef>
   </From>
   <To>
   <StopPointRef>4400EG0431</StopPointRef>
   </To>
   <Direction>inbound</Direction>
   <Track>
   <Mapping>
   <Location>
   <Longitude>-0.017079</Longitude>
   <Latitude>51.126625</Latitude>
   </Location>
   <Location>
   <Longitude>-0.017079</Longitude>
   <Latitude>51.126634</Latitude>
   </Location>
   <Location>
   <Longitude>-0.017107</Longitude>
   <Latitude>51.126688</Latitude>
   </Location>
   <Location>
   <Longitude>-0.017121</Longitude>
   <Latitude>51.126742</Latitude>
   </Location>
   <Location>
   <Longitude>-0.017107</Longitude>
   <Latitude>51.126796</Latitude>
   </Location>
   <Location>
   <Longitude>-0.017078</Longitude>
   <Latitude>51.126850</Latitude>
   </Location>
   <Location>
   <Longitude>-0.017035</Longitude>
   <Latitude>51.126904</Latitude>
   </Location>
   <Location>
   <Longitude>-0.016978</Longitude>
   <Latitude>51.126948</Latitude>
   </Location>
   <Location>
   <Longitude>-0.016964</Longitude>
   <Latitude>51.126957</Latitude>
   </Location>
   <Location>
   <Longitude>-0.016935</Longitude>
   <Latitude>51.127173</Latitude>
   </Location>
   <Location>
   <Longitude>-0.016663</Longitude>
   <Latitude>51.127623</Latitude>
   </Location>
   <Location>
   <Longitude>-0.016333</Longitude>
   <Latitude>51.128144</Latitude>
   </Location>
   <Location>
   <Longitude>-0.015975</Longitude>
   <Latitude>51.128692</Latitude>
   </Location>
   <Location>
   <Longitude>-0.015903</Longitude>
   <Latitude>51.128809</Latitude>
   </Location>
   <Location>
   <Longitude>-0.015846</Longitude>
   <Latitude>51.128854</Latitude>
   </Location>
   <Location>
   <Longitude>-0.015746</Longitude>
   <Latitude>51.128890</Latitude>
   </Location>
   <Location>
   <Longitude>-0.015632</Longitude>
   <Latitude>51.128952</Latitude>
   </Location>
   <Location>
   <Longitude>-0.015560</Longitude>
   <Latitude>51.129015</Latitude>
   </Location>
   <Location>
   <Longitude>-0.015546</Longitude>
   <Latitude>51.129078</Latitude>
   </Location>
   <Location>
   <Longitude>-0.015545</Longitude>
   <Latitude>51.129141</Latitude>
   </Location>
   <Location>
   <Longitude>-0.015560</Longitude>
   <Latitude>51.129240</Latitude>
   </Location>
   <Location>
   <Longitude>-0.016002</Longitude>
   <Latitude>51.129447</Latitude>
   </Location>
   <Location>
   <Longitude>-0.016331</Longitude>
   <Latitude>51.129600</Latitude>
   </Location>
   <Location>
   <Longitude>-0.016673</Longitude>
   <Latitude>51.129762</Latitude>
   </Location>
   </Mapping>
   </Track>
   </RouteLink>
   <RouteLink id="i646_1_7">
   <From>
   <StopPointRef>4400EG0431</StopPointRef>
   </From>
   <To>
   <StopPointRef>4400EG0320</StopPointRef>
   </To>
   <Direction>inbound</Direction>
   <Track>
   <Mapping>
   <Location>
   <Longitude>-0.016673</Longitude>
   <Latitude>51.129762</Latitude>
   </Location>
   <Location>
   <Longitude>-0.016930</Longitude>
   <Latitude>51.129879</Latitude>
   </Location>
   <Location>
   <Longitude>-0.017915</Longitude>
   <Latitude>51.130356</Latitude>
   </Location>
   <Location>
   <Longitude>-0.017972</Longitude>
   <Latitude>51.130384</Latitude>
   </Location>
   <Location>
   <Longitude>-0.018115</Longitude>
   <Latitude>51.130482</Latitude>
   </Location>
   <Location>
   <Longitude>-0.018415</Longitude>
   <Latitude>51.130671</Latitude>
   </Location>
   <Location>
   <Longitude>-0.018472</Longitude>
   <Latitude>51.130743</Latitude>
   </Location>
   <Location>
   <Longitude>-0.018529</Longitude>
   <Latitude>51.130824</Latitude>
   </Location>
   <Location>
   <Longitude>-0.018572</Longitude>
   <Latitude>51.130896</Latitude>
   </Location>
   <Location>
   <Longitude>-0.018586</Longitude>
   <Latitude>51.130896</Latitude>
   </Location>
   <Location>
   <Longitude>-0.018600</Longitude>
   <Latitude>51.130896</Latitude>
   </Location>
   <Location>
   <Longitude>-0.018629</Longitude>
   <Latitude>51.130905</Latitude>
   </Location>
   <Location>
   <Longitude>-0.018643</Longitude>
   <Latitude>51.130905</Latitude>
   </Location>
   <Location>
   <Longitude>-0.018657</Longitude>
   <Latitude>51.130923</Latitude>
   </Location>
   <Location>
   <Longitude>-0.018657</Longitude>
   <Latitude>51.130941</Latitude>
   </Location>
   <Location>
   <Longitude>-0.018657</Longitude>
   <Latitude>51.130950</Latitude>
   </Location>
   <Location>
   <Longitude>-0.018657</Longitude>
   <Latitude>51.130959</Latitude>
   </Location>
   <Location>
   <Longitude>-0.018643</Longitude>
   <Latitude>51.130968</Latitude>
   </Location>
   <Location>
   <Longitude>-0.018629</Longitude>
   <Latitude>51.130977</Latitude>
   </Location>
   <Location>
   <Longitude>-0.018614</Longitude>
   <Latitude>51.130986</Latitude>
   </Location>
   <Location>
   <Longitude>-0.018600</Longitude>
   <Latitude>51.130986</Latitude>
   </Location>
   <Location>
   <Longitude>-0.018586</Longitude>
   <Latitude>51.130986</Latitude>
   </Location>
   <Location>
   <Longitude>-0.018571</Longitude>
   <Latitude>51.130986</Latitude>
   </Location>
   <Location>
   <Longitude>-0.018557</Longitude>
   <Latitude>51.130977</Latitude>
   </Location>
   <Location>
   <Longitude>-0.018543</Longitude>
   <Latitude>51.130977</Latitude>
   </Location>
   <Location>
   <Longitude>-0.018529</Longitude>
   <Latitude>51.130968</Latitude>
   </Location>
   <Location>
   <Longitude>-0.018514</Longitude>
   <Latitude>51.130950</Latitude>
   </Location>
   <Location>
   <Longitude>-0.018486</Longitude>
   <Latitude>51.130968</Latitude>
   </Location>
   <Location>
   <Longitude>-0.018428</Longitude>
   <Latitude>51.131013</Latitude>
   </Location>
   <Location>
   <Longitude>-0.018342</Longitude>
   <Latitude>51.131148</Latitude>
   </Location>
   <Location>
   <Longitude>-0.018314</Longitude>
   <Latitude>51.131211</Latitude>
   </Location>
   <Location>
   <Longitude>-0.018142</Longitude>
   <Latitude>51.131507</Latitude>
   </Location>
   </Mapping>
   </Track>
   </RouteLink>
   <RouteLink id="i646_1_8">
   <From>
   <StopPointRef>4400EG0320</StopPointRef>
   </From>
   <To>
   <StopPointRef>4400EG0319</StopPointRef>
   </To>
   <Direction>inbound</Direction>
   <Track>
   <Mapping>
   <Location>
   <Longitude>-0.018142</Longitude>
   <Latitude>51.131507</Latitude>
   </Location>
   <Location>
   <Longitude>-0.018070</Longitude>
   <Latitude>51.131633</Latitude>
   </Location>
   <Location>
   <Longitude>-0.017955</Longitude>
   <Latitude>51.131840</Latitude>
   </Location>
   <Location>
   <Longitude>-0.017927</Longitude>
   <Latitude>51.131894</Latitude>
   </Location>
   <Location>
   <Longitude>-0.017654</Longitude>
   <Latitude>51.132424</Latitude>
   </Location>
   <Location>
   <Longitude>-0.017595</Longitude>
   <Latitude>51.133638</Latitude>
   </Location>
   <Location>
   <Longitude>-0.017595</Longitude>
   <Latitude>51.133764</Latitude>
   </Location>
   </Mapping>
   </Track>
   </RouteLink>
   <RouteLink id="i646_1_9">
   <From>
   <StopPointRef>4400EG0319</StopPointRef>
   </From>
   <To>
   <StopPointRef>4400EG0314</StopPointRef>
   </To>
   <Direction>inbound</Direction>
   <Track>
   <Mapping>
   <Location>
   <Longitude>-0.017595</Longitude>
   <Latitude>51.133764</Latitude>
   </Location>
   <Location>
   <Longitude>-0.017623</Longitude>
   <Latitude>51.134312</Latitude>
   </Location>
   <Location>
   <Longitude>-0.017621</Longitude>
   <Latitude>51.135103</Latitude>
   </Location>
   <Location>
   <Longitude>-0.017692</Longitude>
   <Latitude>51.135706</Latitude>
   </Location>
   <Location>
   <Longitude>-0.017919</Longitude>
   <Latitude>51.136182</Latitude>
   </Location>
   <Location>
   <Longitude>-0.018304</Longitude>
   <Latitude>51.136722</Latitude>
   </Location>
   <Location>
   <Longitude>-0.018547</Longitude>
   <Latitude>51.137082</Latitude>
   </Location>
   </Mapping>
   </Track>
   </RouteLink>
   <RouteLink id="i646_1_10">
   <From>
   <StopPointRef>4400EG0314</StopPointRef>
   </From>
   <To>
   <StopPointRef>4400EG0317</StopPointRef>
   </To>
   <Direction>inbound</Direction>
   <Track>
   <Mapping>
   <Location>
   <Longitude>-0.018547</Longitude>
   <Latitude>51.137082</Latitude>
   </Location>
   <Location>
   <Longitude>-0.018903</Longitude>
   <Latitude>51.137594</Latitude>
   </Location>
   <Location>
   <Longitude>-0.019231</Longitude>
   <Latitude>51.138017</Latitude>
   </Location>
   <Location>
   <Longitude>-0.019359</Longitude>
   <Latitude>51.138206</Latitude>
   </Location>
   <Location>
   <Longitude>-0.019730</Longitude>
   <Latitude>51.138755</Latitude>
   </Location>
   <Location>
   <Longitude>-0.019844</Longitude>
   <Latitude>51.138953</Latitude>
   </Location>
   <Location>
   <Longitude>-0.020001</Longitude>
   <Latitude>51.139312</Latitude>
   </Location>
   <Location>
   <Longitude>-0.020014</Longitude>
   <Latitude>51.139681</Latitude>
   </Location>
   </Mapping>
   </Track>
   </RouteLink>
   <RouteLink id="i646_1_11">
   <From>
   <StopPointRef>4400EG0317</StopPointRef>
   </From>
   <To>
   <StopPointRef>40004410029B</StopPointRef>
   </To>
   <Direction>inbound</Direction>
   <Track>
   <Mapping>
   <Location>
   <Longitude>-0.020014</Longitude>
   <Latitude>51.139681</Latitude>
   </Location>
   <Location>
   <Longitude>-0.020028</Longitude>
   <Latitude>51.139834</Latitude>
   </Location>
   <Location>
   <Longitude>-0.020028</Longitude>
   <Latitude>51.139915</Latitude>
   </Location>
   <Location>
   <Longitude>-0.020028</Longitude>
   <Latitude>51.139996</Latitude>
   </Location>
   <Location>
   <Longitude>-0.020042</Longitude>
   <Latitude>51.140068</Latitude>
   </Location>
   <Location>
   <Longitude>-0.020042</Longitude>
   <Latitude>51.140149</Latitude>
   </Location>
   <Location>
   <Longitude>-0.020099</Longitude>
   <Latitude>51.140373</Latitude>
   </Location>
   <Location>
   <Longitude>-0.020170</Longitude>
   <Latitude>51.140472</Latitude>
   </Location>
   <Location>
   <Longitude>-0.020284</Longitude>
   <Latitude>51.140679</Latitude>
   </Location>
   <Location>
   <Longitude>-0.020312</Longitude>
   <Latitude>51.140958</Latitude>
   </Location>
   <Location>
   <Longitude>-0.020284</Longitude>
   <Latitude>51.141012</Latitude>
   </Location>
   <Location>
   <Longitude>-0.020011</Longitude>
   <Latitude>51.141857</Latitude>
   </Location>
   <Location>
   <Longitude>-0.019939</Longitude>
   <Latitude>51.141983</Latitude>
   </Location>
   <Location>
   <Longitude>-0.019867</Longitude>
   <Latitude>51.142144</Latitude>
   </Location>
   <Location>
   <Longitude>-0.019839</Longitude>
   <Latitude>51.142180</Latitude>
   </Location>
   <Location>
   <Longitude>-0.019466</Longitude>
   <Latitude>51.142710</Latitude>
   </Location>
   <Location>
   <Longitude>-0.019208</Longitude>
   <Latitude>51.143232</Latitude>
   </Location>
   <Location>
   <Longitude>-0.018849</Longitude>
   <Latitude>51.144148</Latitude>
   </Location>
   </Mapping>
   </Track>
   </RouteLink>
   <RouteLink id="i646_1_12">
   <From>
   <StopPointRef>40004410029B</StopPointRef>
   </From>
   <To>
   <StopPointRef>40004410030B</StopPointRef>
   </To>
   <Direction>inbound</Direction>
   <Track>
   <Mapping>
   <Location>
   <Longitude>-0.018849</Longitude>
   <Latitude>51.144148</Latitude>
   </Location>
   <Location>
   <Longitude>-0.018720</Longitude>
   <Latitude>51.144472</Latitude>
   </Location>
   <Location>
   <Longitude>-0.018691</Longitude>
   <Latitude>51.144562</Latitude>
   </Location>
   <Location>
   <Longitude>-0.018634</Longitude>
   <Latitude>51.144787</Latitude>
   </Location>
   <Location>
   <Longitude>-0.018676</Longitude>
   <Latitude>51.145191</Latitude>
   </Location>
   <Location>
   <Longitude>-0.018861</Longitude>
   <Latitude>51.145659</Latitude>
   </Location>
   <Location>
   <Longitude>-0.019046</Longitude>
   <Latitude>51.145902</Latitude>
   </Location>
   <Location>
   <Longitude>-0.020317</Longitude>
   <Latitude>51.146676</Latitude>
   </Location>
   <Location>
   <Longitude>-0.020674</Longitude>
   <Latitude>51.146892</Latitude>
   </Location>
   <Location>
   <Longitude>-0.022130</Longitude>
   <Latitude>51.147990</Latitude>
   </Location>
   <Location>
   <Longitude>-0.022515</Longitude>
   <Latitude>51.148322</Latitude>
   </Location>
   <Location>
   <Longitude>-0.022544</Longitude>
   <Latitude>51.148358</Latitude>
   </Location>
   <Location>
   <Longitude>-0.023029</Longitude>
   <Latitude>51.148880</Latitude>
   </Location>
   <Location>
   <Longitude>-0.023072</Longitude>
   <Latitude>51.148934</Latitude>
   </Location>
   <Location>
   <Longitude>-0.023243</Longitude>
   <Latitude>51.149204</Latitude>
   </Location>
   <Location>
   <Longitude>-0.023414</Longitude>
   <Latitude>51.149510</Latitude>
   </Location>
   <Location>
   <Longitude>-0.023685</Longitude>
   <Latitude>51.150040</Latitude>
   </Location>
   <Location>
   <Longitude>-0.023756</Longitude>
   <Latitude>51.150463</Latitude>
   </Location>
   </Mapping>
   </Track>
   </RouteLink>
   <RouteLink id="i646_1_13">
   <From>
   <StopPointRef>40004410030B</StopPointRef>
   </From>
   <To>
   <StopPointRef>40004410031B</StopPointRef>
   </To>
   <Direction>inbound</Direction>
   <Track>
   <Mapping>
   <Location>
   <Longitude>-0.023756</Longitude>
   <Latitude>51.150463</Latitude>
   </Location>
   <Location>
   <Longitude>-0.023812</Longitude>
   <Latitude>51.150697</Latitude>
   </Location>
   <Location>
   <Longitude>-0.023897</Longitude>
   <Latitude>51.151335</Latitude>
   </Location>
   <Location>
   <Longitude>-0.023924</Longitude>
   <Latitude>51.152513</Latitude>
   </Location>
   <Location>
   <Longitude>-0.023880</Longitude>
   <Latitude>51.153304</Latitude>
   </Location>
   <Location>
   <Longitude>-0.023865</Longitude>
   <Latitude>51.153628</Latitude>
   </Location>
   </Mapping>
   </Track>
   </RouteLink>
   <RouteLink id="i646_1_14">
   <From>
   <StopPointRef>40004410031B</StopPointRef>
   </From>
   <To>
   <StopPointRef>40004410032B</StopPointRef>
   </To>
   <Direction>inbound</Direction>
   <Track>
   <Mapping>
   <Location>
   <Longitude>-0.023865</Longitude>
   <Latitude>51.153628</Latitude>
   </Location>
   <Location>
   <Longitude>-0.023836</Longitude>
   <Latitude>51.154014</Latitude>
   </Location>
   <Location>
   <Longitude>-0.023404</Longitude>
   <Latitude>51.155713</Latitude>
   </Location>
   <Location>
   <Longitude>-0.023246</Longitude>
   <Latitude>51.156288</Latitude>
   </Location>
   <Location>
   <Longitude>-0.023131</Longitude>
   <Latitude>51.156693</Latitude>
   </Location>
   </Mapping>
   </Track>
   </RouteLink>
   <RouteLink id="i646_1_15">
   <From>
   <StopPointRef>40004410032B</StopPointRef>
   </From>
   <To>
   <StopPointRef>40004410033B</StopPointRef>
   </To>
   <Direction>inbound</Direction>
   <Track>
   <Mapping>
   <Location>
   <Longitude>-0.023131</Longitude>
   <Latitude>51.156693</Latitude>
   </Location>
   <Location>
   <Longitude>-0.022958</Longitude>
   <Latitude>51.157313</Latitude>
   </Location>
   <Location>
   <Longitude>-0.022613</Longitude>
   <Latitude>51.158581</Latitude>
   </Location>
   <Location>
   <Longitude>-0.022556</Longitude>
   <Latitude>51.158769</Latitude>
   </Location>
   </Mapping>
   </Track>
   </RouteLink>
   <RouteLink id="i646_1_16">
   <From>
   <StopPointRef>40004410033B</StopPointRef>
   </From>
   <To>
   <StopPointRef>40004410034B</StopPointRef>
   </To>
   <Direction>inbound</Direction>
   <Track>
   <Mapping>
   <Location>
   <Longitude>-0.022556</Longitude>
   <Latitude>51.158769</Latitude>
   </Location>
   <Location>
   <Longitude>-0.022512</Longitude>
   <Latitude>51.158949</Latitude>
   </Location>
   <Location>
   <Longitude>-0.022239</Longitude>
   <Latitude>51.159866</Latitude>
   </Location>
   <Location>
   <Longitude>-0.021966</Longitude>
   <Latitude>51.160855</Latitude>
   </Location>
   <Location>
   <Longitude>-0.021923</Longitude>
   <Latitude>51.161035</Latitude>
   </Location>
   </Mapping>
   </Track>
   </RouteLink>
   <RouteLink id="i646_1_17">
   <From>
   <StopPointRef>40004410034B</StopPointRef>
   </From>
   <To>
   <StopPointRef>40004410036B</StopPointRef>
   </To>
   <Direction>inbound</Direction>
   <Track>
   <Mapping>
   <Location>
   <Longitude>-0.021923</Longitude>
   <Latitude>51.161035</Latitude>
   </Location>
   <Location>
   <Longitude>-0.021837</Longitude>
   <Latitude>51.161295</Latitude>
   </Location>
   <Location>
   <Longitude>-0.021808</Longitude>
   <Latitude>51.161412</Latitude>
   </Location>
   <Location>
   <Longitude>-0.021635</Longitude>
   <Latitude>51.162041</Latitude>
   </Location>
   <Location>
   <Longitude>-0.021621</Longitude>
   <Latitude>51.162077</Latitude>
   </Location>
   <Location>
   <Longitude>-0.021535</Longitude>
   <Latitude>51.162374</Latitude>
   </Location>
   <Location>
   <Longitude>-0.021405</Longitude>
   <Latitude>51.162688</Latitude>
   </Location>
   <Location>
   <Longitude>-0.021019</Longitude>
   <Latitude>51.163156</Latitude>
   </Location>
   <Location>
   <Longitude>-0.020589</Longitude>
   <Latitude>51.163524</Latitude>
   </Location>
   <Location>
   <Longitude>-0.019744</Longitude>
   <Latitude>51.164351</Latitude>
   </Location>
   <Location>
   <Longitude>-0.019443</Longitude>
   <Latitude>51.164701</Latitude>
   </Location>
   <Location>
   <Longitude>-0.017781</Longitude>
   <Latitude>51.166948</Latitude>
   </Location>
   </Mapping>
   </Track>
   </RouteLink>
   <RouteLink id="i646_1_18">
   <From>
   <StopPointRef>40004410036B</StopPointRef>
   </From>
   <To>
   <StopPointRef>40004406965B</StopPointRef>
   </To>
   <Direction>inbound</Direction>
   <Track>
   <Mapping>
   <Location>
   <Longitude>-0.017781</Longitude>
   <Latitude>51.166948</Latitude>
   </Location>
   <Location>
   <Longitude>-0.017351</Longitude>
   <Latitude>51.167532</Latitude>
   </Location>
   <Location>
   <Longitude>-0.017250</Longitude>
   <Latitude>51.167702</Latitude>
   </Location>
   <Location>
   <Longitude>-0.017107</Longitude>
   <Latitude>51.167783</Latitude>
   </Location>
   <Location>
   <Longitude>-0.017092</Longitude>
   <Latitude>51.167927</Latitude>
   </Location>
   <Location>
   <Longitude>-0.017077</Longitude>
   <Latitude>51.168511</Latitude>
   </Location>
   <Location>
   <Longitude>-0.017233</Longitude>
   <Latitude>51.169195</Latitude>
   </Location>
   <Location>
   <Longitude>-0.017204</Longitude>
   <Latitude>51.169680</Latitude>
   </Location>
   <Location>
   <Longitude>-0.017160</Longitude>
   <Latitude>51.169986</Latitude>
   </Location>
   <Location>
   <Longitude>-0.017203</Longitude>
   <Latitude>51.170301</Latitude>
   </Location>
   <Location>
   <Longitude>-0.017602</Longitude>
   <Latitude>51.171110</Latitude>
   </Location>
   <Location>
   <Longitude>-0.017730</Longitude>
   <Latitude>51.171479</Latitude>
   </Location>
   <Location>
   <Longitude>-0.017900</Longitude>
   <Latitude>51.172270</Latitude>
   </Location>
   <Location>
   <Longitude>-0.017957</Longitude>
   <Latitude>51.172441</Latitude>
   </Location>
   <Location>
   <Longitude>-0.018057</Longitude>
   <Latitude>51.172756</Latitude>
   </Location>
   <Location>
   <Longitude>-0.018071</Longitude>
   <Latitude>51.172926</Latitude>
   </Location>
   <Location>
   <Longitude>-0.018056</Longitude>
   <Latitude>51.173205</Latitude>
   </Location>
   <Location>
   <Longitude>-0.018155</Longitude>
   <Latitude>51.173475</Latitude>
   </Location>
   </Mapping>
   </Track>
   </RouteLink>
   <RouteLink id="i646_1_19">
   <From>
   <StopPointRef>40004406965B</StopPointRef>
   </From>
   <To>
   <StopPointRef>40004410051A</StopPointRef>
   </To>
   <Direction>inbound</Direction>
   <Track>
   <Mapping>
   <Location>
   <Longitude>-0.018155</Longitude>
   <Latitude>51.173475</Latitude>
   </Location>
   <Location>
   <Longitude>-0.018198</Longitude>
   <Latitude>51.173610</Latitude>
   </Location>
   <Location>
   <Longitude>-0.018340</Longitude>
   <Latitude>51.174149</Latitude>
   </Location>
   <Location>
   <Longitude>-0.018354</Longitude>
   <Latitude>51.174203</Latitude>
   </Location>
   <Location>
   <Longitude>-0.018369</Longitude>
   <Latitude>51.174203</Latitude>
   </Location>
   <Location>
   <Longitude>-0.018397</Longitude>
   <Latitude>51.174212</Latitude>
   </Location>
   <Location>
   <Longitude>-0.018412</Longitude>
   <Latitude>51.174221</Latitude>
   </Location>
   <Location>
   <Longitude>-0.018426</Longitude>
   <Latitude>51.174239</Latitude>
   </Location>
   <Location>
   <Longitude>-0.018426</Longitude>
   <Latitude>51.174248</Latitude>
   </Location>
   <Location>
   <Longitude>-0.018426</Longitude>
   <Latitude>51.174266</Latitude>
   </Location>
   <Location>
   <Longitude>-0.018411</Longitude>
   <Latitude>51.174284</Latitude>
   </Location>
   <Location>
   <Longitude>-0.018383</Longitude>
   <Latitude>51.174293</Latitude>
   </Location>
   <Location>
   <Longitude>-0.018354</Longitude>
   <Latitude>51.174293</Latitude>
   </Location>
   <Location>
   <Longitude>-0.018340</Longitude>
   <Latitude>51.174284</Latitude>
   </Location>
   <Location>
   <Longitude>-0.018326</Longitude>
   <Latitude>51.174284</Latitude>
   </Location>
   <Location>
   <Longitude>-0.018311</Longitude>
   <Latitude>51.174266</Latitude>
   </Location>
   <Location>
   <Longitude>-0.018240</Longitude>
   <Latitude>51.174284</Latitude>
   </Location>
   <Location>
   <Longitude>-0.017710</Longitude>
   <Latitude>51.174419</Latitude>
   </Location>
   <Location>
   <Longitude>-0.017224</Longitude>
   <Latitude>51.174436</Latitude>
   </Location>
   </Mapping>
   </Track>
   </RouteLink>
   <RouteLink id="i646_1_20">
   <From>
   <StopPointRef>40004410051A</StopPointRef>
   </From>
   <To>
   <StopPointRef>40004410216B</StopPointRef>
   </To>
   <Direction>inbound</Direction>
   <Track>
   <Mapping>
   <Location>
   <Longitude>-0.017224</Longitude>
   <Latitude>51.174436</Latitude>
   </Location>
   <Location>
   <Longitude>-0.016910</Longitude>
   <Latitude>51.174445</Latitude>
   </Location>
   <Location>
   <Longitude>-0.016466</Longitude>
   <Latitude>51.174418</Latitude>
   </Location>
   <Location>
   <Longitude>-0.015966</Longitude>
   <Latitude>51.174408</Latitude>
   </Location>
   <Location>
   <Longitude>-0.015722</Longitude>
   <Latitude>51.174408</Latitude>
   </Location>
   <Location>
   <Longitude>-0.015551</Longitude>
   <Latitude>51.174381</Latitude>
   </Location>
   <Location>
   <Longitude>-0.014993</Longitude>
   <Latitude>51.174336</Latitude>
   </Location>
   <Location>
   <Longitude>-0.014521</Longitude>
   <Latitude>51.174326</Latitude>
   </Location>
   <Location>
   <Longitude>-0.014221</Longitude>
   <Latitude>51.174362</Latitude>
   </Location>
   <Location>
   <Longitude>-0.013677</Longitude>
   <Latitude>51.174488</Latitude>
   </Location>
   <Location>
   <Longitude>-0.013933</Longitude>
   <Latitude>51.175432</Latitude>
   </Location>
   <Location>
   <Longitude>-0.013961</Longitude>
   <Latitude>51.175567</Latitude>
   </Location>
   <Location>
   <Longitude>-0.013947</Longitude>
   <Latitude>51.175684</Latitude>
   </Location>
   <Location>
   <Longitude>-0.013932</Longitude>
   <Latitude>51.175720</Latitude>
   </Location>
   </Mapping>
   </Track>
   </RouteLink>
   <RouteLink id="i646_1_21">
   <From>
   <StopPointRef>40004410216B</StopPointRef>
   </From>
   <To>
   <StopPointRef>40004410052B</StopPointRef>
   </To>
   <Direction>inbound</Direction>
   <Track>
   <Mapping>
   <Location>
   <Longitude>-0.013932</Longitude>
   <Latitude>51.175720</Latitude>
   </Location>
   <Location>
   <Longitude>-0.013889</Longitude>
   <Latitude>51.175818</Latitude>
   </Location>
   <Location>
   <Longitude>-0.013775</Longitude>
   <Latitude>51.175953</Latitude>
   </Location>
   <Location>
   <Longitude>-0.013732</Longitude>
   <Latitude>51.176052</Latitude>
   </Location>
   <Location>
   <Longitude>-0.013703</Longitude>
   <Latitude>51.176178</Latitude>
   </Location>
   <Location>
   <Longitude>-0.013745</Longitude>
   <Latitude>51.176636</Latitude>
   </Location>
   <Location>
   <Longitude>-0.013887</Longitude>
   <Latitude>51.177014</Latitude>
   </Location>
   <Location>
   <Longitude>-0.013901</Longitude>
   <Latitude>51.177077</Latitude>
   </Location>
   <Location>
   <Longitude>-0.013901</Longitude>
   <Latitude>51.177131</Latitude>
   </Location>
   <Location>
   <Longitude>-0.013887</Longitude>
   <Latitude>51.177167</Latitude>
   </Location>
   <Location>
   <Longitude>-0.013844</Longitude>
   <Latitude>51.177230</Latitude>
   </Location>
   <Location>
   <Longitude>-0.013700</Longitude>
   <Latitude>51.177535</Latitude>
   </Location>
   <Location>
   <Longitude>-0.013700</Longitude>
   <Latitude>51.177832</Latitude>
   </Location>
   <Location>
   <Longitude>-0.013799</Longitude>
   <Latitude>51.178192</Latitude>
   </Location>
   <Location>
   <Longitude>-0.013799</Longitude>
   <Latitude>51.178219</Latitude>
   </Location>
   <Location>
   <Longitude>-0.013770</Longitude>
   <Latitude>51.178354</Latitude>
   </Location>
   <Location>
   <Longitude>-0.013612</Longitude>
   <Latitude>51.178713</Latitude>
   </Location>
   <Location>
   <Longitude>-0.013612</Longitude>
   <Latitude>51.178794</Latitude>
   </Location>
   <Location>
   <Longitude>-0.013854</Longitude>
   <Latitude>51.179451</Latitude>
   </Location>
   <Location>
   <Longitude>-0.013897</Longitude>
   <Latitude>51.179612</Latitude>
   </Location>
   <Location>
   <Longitude>-0.013867</Longitude>
   <Latitude>51.179945</Latitude>
   </Location>
   <Location>
   <Longitude>-0.013824</Longitude>
   <Latitude>51.180044</Latitude>
   </Location>
   </Mapping>
   </Track>
   </RouteLink>
   <RouteLink id="i646_1_22">
   <From>
   <StopPointRef>40004410052B</StopPointRef>
   </From>
   <To>
   <StopPointRef>40004410053B</StopPointRef>
   </To>
   <Direction>inbound</Direction>
   <Track>
   <Mapping>
   <Location>
   <Longitude>-0.013824</Longitude>
   <Latitude>51.180044</Latitude>
   </Location>
   <Location>
   <Longitude>-0.013710</Longitude>
   <Latitude>51.180260</Latitude>
   </Location>
   <Location>
   <Longitude>-0.013165</Longitude>
   <Latitude>51.181032</Latitude>
   </Location>
   <Location>
   <Longitude>-0.012806</Longitude>
   <Latitude>51.181473</Latitude>
   </Location>
   <Location>
   <Longitude>-0.012749</Longitude>
   <Latitude>51.181545</Latitude>
   </Location>
   </Mapping>
   </Track>
   </RouteLink>
   <RouteLink id="i646_1_23">
   <From>
   <StopPointRef>40004410053B</StopPointRef>
   </From>
   <To>
   <StopPointRef>40004410289A</StopPointRef>
   </To>
   <Direction>inbound</Direction>
   <Track>
   <Mapping>
   <Location>
   <Longitude>-0.012749</Longitude>
   <Latitude>51.181545</Latitude>
   </Location>
   <Location>
   <Longitude>-0.012204</Longitude>
   <Latitude>51.182326</Latitude>
   </Location>
   <Location>
   <Longitude>-0.011989</Longitude>
   <Latitude>51.182407</Latitude>
   </Location>
   <Location>
   <Longitude>-0.011875</Longitude>
   <Latitude>51.182290</Latitude>
   </Location>
   <Location>
   <Longitude>-0.011632</Longitude>
   <Latitude>51.182128</Latitude>
   </Location>
   <Location>
   <Longitude>-0.010789</Longitude>
   <Latitude>51.181642</Latitude>
   </Location>
   <Location>
   <Longitude>-0.010189</Longitude>
   <Latitude>51.181336</Latitude>
   </Location>
   <Location>
   <Longitude>-0.009575</Longitude>
   <Latitude>51.180850</Latitude>
   </Location>
   <Location>
   <Longitude>-0.009104</Longitude>
   <Latitude>51.180283</Latitude>
   </Location>
   <Location>
   <Longitude>-0.008704</Longitude>
   <Latitude>51.179680</Latitude>
   </Location>
   <Location>
   <Longitude>-0.008647</Longitude>
   <Latitude>51.179501</Latitude>
   </Location>
   </Mapping>
   </Track>
   </RouteLink>
   <RouteLink id="i646_1_24">
   <From>
   <StopPointRef>40004410289A</StopPointRef>
   </From>
   <To>
   <StopPointRef>40004410049B</StopPointRef>
   </To>
   <Direction>inbound</Direction>
   <Track>
   <Mapping>
   <Location>
   <Longitude>-0.008647</Longitude>
   <Latitude>51.179501</Latitude>
   </Location>
   <Location>
   <Longitude>-0.008634</Longitude>
   <Latitude>51.179285</Latitude>
   </Location>
   <Location>
   <Longitude>-0.008691</Longitude>
   <Latitude>51.179087</Latitude>
   </Location>
   <Location>
   <Longitude>-0.008792</Longitude>
   <Latitude>51.178835</Latitude>
   </Location>
   <Location>
   <Longitude>-0.008922</Longitude>
   <Latitude>51.178278</Latitude>
   </Location>
   <Location>
   <Longitude>-0.008922</Longitude>
   <Latitude>51.177892</Latitude>
   </Location>
   <Location>
   <Longitude>-0.008923</Longitude>
   <Latitude>51.177730</Latitude>
   </Location>
   <Location>
   <Longitude>-0.008823</Longitude>
   <Latitude>51.177316</Latitude>
   </Location>
   </Mapping>
   </Track>
   </RouteLink>
   <RouteLink id="i646_1_25">
   <From>
   <StopPointRef>40004410049B</StopPointRef>
   </From>
   <To>
   <StopPointRef>40004410047A</StopPointRef>
   </To>
   <Direction>inbound</Direction>
   <Track>
   <Mapping>
   <Location>
   <Longitude>-0.008823</Longitude>
   <Latitude>51.177316</Latitude>
   </Location>
   <Location>
   <Longitude>-0.008752</Longitude>
   <Latitude>51.177046</Latitude>
   </Location>
   <Location>
   <Longitude>-0.008610</Longitude>
   <Latitude>51.176615</Latitude>
   </Location>
   <Location>
   <Longitude>-0.008582</Longitude>
   <Latitude>51.176345</Latitude>
   </Location>
   <Location>
   <Longitude>-0.008511</Longitude>
   <Latitude>51.176210</Latitude>
   </Location>
   <Location>
   <Longitude>-0.008468</Longitude>
   <Latitude>51.176120</Latitude>
   </Location>
   <Location>
   <Longitude>-0.008383</Longitude>
   <Latitude>51.175949</Latitude>
   </Location>
   <Location>
   <Longitude>-0.008140</Longitude>
   <Latitude>51.175688</Latitude>
   </Location>
   <Location>
   <Longitude>-0.007626</Longitude>
   <Latitude>51.175283</Latitude>
   </Location>
   <Location>
   <Longitude>-0.007569</Longitude>
   <Latitude>51.174915</Latitude>
   </Location>
   <Location>
   <Longitude>-0.007598</Longitude>
   <Latitude>51.174816</Latitude>
   </Location>
   <Location>
   <Longitude>-0.007627</Longitude>
   <Latitude>51.174762</Latitude>
   </Location>
   <Location>
   <Longitude>-0.007670</Longitude>
   <Latitude>51.174645</Latitude>
   </Location>
   <Location>
   <Longitude>-0.007713</Longitude>
   <Latitude>51.174519</Latitude>
   </Location>
   <Location>
   <Longitude>-0.007713</Longitude>
   <Latitude>51.174492</Latitude>
   </Location>
   <Location>
   <Longitude>-0.007901</Longitude>
   <Latitude>51.173764</Latitude>
   </Location>
   <Location>
   <Longitude>-0.007972</Longitude>
   <Latitude>51.173593</Latitude>
   </Location>
   <Location>
   <Longitude>-0.008030</Longitude>
   <Latitude>51.173495</Latitude>
   </Location>
   <Location>
   <Longitude>-0.008187</Longitude>
   <Latitude>51.173324</Latitude>
   </Location>
   <Location>
   <Longitude>-0.008631</Longitude>
   <Latitude>51.173001</Latitude>
   </Location>
   <Location>
   <Longitude>-0.008389</Longitude>
   <Latitude>51.172758</Latitude>
   </Location>
   <Location>
   <Longitude>-0.008160</Longitude>
   <Latitude>51.172578</Latitude>
   </Location>
   <Location>
   <Longitude>-0.007331</Longitude>
   <Latitude>51.172208</Latitude>
   </Location>
   <Location>
   <Longitude>-0.006989</Longitude>
   <Latitude>51.172001</Latitude>
   </Location>
   <Location>
   <Longitude>-0.006160</Longitude>
   <Latitude>51.171479</Latitude>
   </Location>
   <Location>
   <Longitude>-0.005760</Longitude>
   <Latitude>51.171308</Latitude>
   </Location>
   <Location>
   <Longitude>-0.005174</Longitude>
   <Latitude>51.171155</Latitude>
   </Location>
   <Location>
   <Longitude>-0.004274</Longitude>
   <Latitude>51.170803</Latitude>
   </Location>
   <Location>
   <Longitude>-0.003516</Longitude>
   <Latitude>51.170713</Latitude>
   </Location>
   </Mapping>
   </Track>
   </RouteLink>
   <RouteLink id="i646_1_26">
   <From>
   <StopPointRef>40004410047A</StopPointRef>
   </From>
   <To>
   <StopPointRef>40004410046C</StopPointRef>
   </To>
   <Direction>inbound</Direction>
   <Track>
   <Mapping>
   <Location>
   <Longitude>-0.003516</Longitude>
   <Latitude>51.170713</Latitude>
   </Location>
   <Location>
   <Longitude>-0.002730</Longitude>
   <Latitude>51.170613</Latitude>
   </Location>
   <Location>
   <Longitude>-0.001586</Longitude>
   <Latitude>51.170415</Latitude>
   </Location>
   <Location>
   <Longitude>-0.000585</Longitude>
   <Latitude>51.170342</Latitude>
   </Location>
   <Location>
   <Longitude>-0.000214</Longitude>
   <Latitude>51.170261</Latitude>
   </Location>
   </Mapping>
   </Track>
   </RouteLink>
   <RouteLink id="i646_1_27">
   <From>
   <StopPointRef>40004410046C</StopPointRef>
   </From>
   <To>
   <StopPointRef>40004410042D</StopPointRef>
   </To>
   <Direction>inbound</Direction>
   <Track>
   <Mapping>
   <Location>
   <Longitude>-0.000214</Longitude>
   <Latitude>51.170261</Latitude>
   </Location>
   <Location>
   <Longitude>-0.000028</Longitude>
   <Latitude>51.170216</Latitude>
   </Location>
   <Location>
   <Longitude>0.000558</Longitude>
   <Latitude>51.169999</Latitude>
   </Location>
   <Location>
   <Longitude>0.000872</Longitude>
   <Latitude>51.169819</Latitude>
   </Location>
   <Location>
   <Longitude>0.000972</Longitude>
   <Latitude>51.169729</Latitude>
   </Location>
   <Location>
   <Longitude>0.001129</Longitude>
   <Latitude>51.169522</Latitude>
   </Location>
   <Location>
   <Longitude>0.001429</Longitude>
   <Latitude>51.169109</Latitude>
   </Location>
   <Location>
   <Longitude>0.002014</Longitude>
   <Latitude>51.168650</Latitude>
   </Location>
   <Location>
   <Longitude>0.002328</Longitude>
   <Latitude>51.168469</Latitude>
   </Location>
   <Location>
   <Longitude>0.002500</Longitude>
   <Latitude>51.168370</Latitude>
   </Location>
   <Location>
   <Longitude>0.002985</Longitude>
   <Latitude>51.168136</Latitude>
   </Location>
   <Location>
   <Longitude>0.002985</Longitude>
   <Latitude>51.168109</Latitude>
   </Location>
   <Location>
   <Longitude>0.002971</Longitude>
   <Latitude>51.168082</Latitude>
   </Location>
   <Location>
   <Longitude>0.002999</Longitude>
   <Latitude>51.168055</Latitude>
   </Location>
   <Location>
   <Longitude>0.003099</Longitude>
   <Latitude>51.167974</Latitude>
   </Location>
   <Location>
   <Longitude>0.003285</Longitude>
   <Latitude>51.167830</Latitude>
   </Location>
   <Location>
   <Longitude>0.003328</Longitude>
   <Latitude>51.167794</Latitude>
   </Location>
   <Location>
   <Longitude>0.003685</Longitude>
   <Latitude>51.167533</Latitude>
   </Location>
   <Location>
   <Longitude>0.004912</Longitude>
   <Latitude>51.166597</Latitude>
   </Location>
   <Location>
   <Longitude>0.005112</Longitude>
   <Latitude>51.166417</Latitude>
   </Location>
   <Location>
   <Longitude>0.005226</Longitude>
   <Latitude>51.166273</Latitude>
   </Location>
   <Location>
   <Longitude>0.005426</Longitude>
   <Latitude>51.166012</Latitude>
   </Location>
   <Location>
   <Longitude>0.005540</Longitude>
   <Latitude>51.165868</Latitude>
   </Location>
   <Location>
   <Longitude>0.005568</Longitude>
   <Latitude>51.165832</Latitude>
   </Location>
   <Location>
   <Longitude>0.005668</Longitude>
   <Latitude>51.165715</Latitude>
   </Location>
   <Location>
   <Longitude>0.006196</Longitude>
   <Latitude>51.165077</Latitude>
   </Location>
   </Mapping>
   </Track>
   </RouteLink>
   <RouteLink id="i646_1_28">
   <From>
   <StopPointRef>40004410042D</StopPointRef>
   </From>
   <To>
   <StopPointRef>40004410043A</StopPointRef>
   </To>
   <Direction>inbound</Direction>
   <Track>
   <Mapping>
   <Location>
   <Longitude>0.006196</Longitude>
   <Latitude>51.165077</Latitude>
   </Location>
   <Location>
   <Longitude>0.006324</Longitude>
   <Latitude>51.164924</Latitude>
   </Location>
   <Location>
   <Longitude>0.006638</Longitude>
   <Latitude>51.164528</Latitude>
   </Location>
   <Location>
   <Longitude>0.007024</Longitude>
   <Latitude>51.164357</Latitude>
   </Location>
   <Location>
   <Longitude>0.007167</Longitude>
   <Latitude>51.164330</Latitude>
   </Location>
   <Location>
   <Longitude>0.007512</Longitude>
   <Latitude>51.165507</Latitude>
   </Location>
   <Location>
   <Longitude>0.007713</Longitude>
   <Latitude>51.165839</Latitude>
   </Location>
   <Location>
   <Longitude>0.008000</Longitude>
   <Latitude>51.166109</Latitude>
   </Location>
   <Location>
   <Longitude>0.008129</Longitude>
   <Latitude>51.166244</Latitude>
   </Location>
   <Location>
   <Longitude>0.008587</Longitude>
   <Latitude>51.166558</Latitude>
   </Location>
   <Location>
   <Longitude>0.008988</Longitude>
   <Latitude>51.166818</Latitude>
   </Location>
   </Mapping>
   </Track>
   </RouteLink>
   <RouteLink id="i646_1_29">
   <From>
   <StopPointRef>40004410043A</StopPointRef>
   </From>
   <To>
   <StopPointRef>40004410812A</StopPointRef>
   </To>
   <Direction>inbound</Direction>
   <Track>
   <Mapping>
   <Location>
   <Longitude>0.008988</Longitude>
   <Latitude>51.166818</Latitude>
   </Location>
   <Location>
   <Longitude>0.009289</Longitude>
   <Latitude>51.167007</Latitude>
   </Location>
   <Location>
   <Longitude>0.009461</Longitude>
   <Latitude>51.167142</Latitude>
   </Location>
   <Location>
   <Longitude>0.009590</Longitude>
   <Latitude>51.167249</Latitude>
   </Location>
   <Location>
   <Longitude>0.009647</Longitude>
   <Latitude>51.167276</Latitude>
   </Location>
   <Location>
   <Longitude>0.009747</Longitude>
   <Latitude>51.167330</Latitude>
   </Location>
   <Location>
   <Longitude>0.010149</Longitude>
   <Latitude>51.167824</Latitude>
   </Location>
   <Location>
   <Longitude>0.010608</Longitude>
   <Latitude>51.168408</Latitude>
   </Location>
   <Location>
   <Longitude>0.010737</Longitude>
   <Latitude>51.168543</Latitude>
   </Location>
   <Location>
   <Longitude>0.011123</Longitude>
   <Latitude>51.168749</Latitude>
   </Location>
   <Location>
   <Longitude>0.011653</Longitude>
   <Latitude>51.168929</Latitude>
   </Location>
   <Location>
   <Longitude>0.013199</Longitude>
   <Latitude>51.169583</Latitude>
   </Location>
   <Location>
   <Longitude>0.014101</Longitude>
   <Latitude>51.170122</Latitude>
   </Location>
   <Location>
   <Longitude>0.014302</Longitude>
   <Latitude>51.170311</Latitude>
   </Location>
   <Location>
   <Longitude>0.014646</Longitude>
   <Latitude>51.170769</Latitude>
   </Location>
   <Location>
   <Longitude>0.014847</Longitude>
   <Latitude>51.170832</Latitude>
   </Location>
   <Location>
   <Longitude>0.015690</Longitude>
   <Latitude>51.170822</Latitude>
   </Location>
   <Location>
   <Longitude>0.016634</Longitude>
   <Latitude>51.170857</Latitude>
   </Location>
   <Location>
   <Longitude>0.017092</Longitude>
   <Latitude>51.170946</Latitude>
   </Location>
   <Location>
   <Longitude>0.017593</Longitude>
   <Latitude>51.171197</Latitude>
   </Location>
   <Location>
   <Longitude>0.017994</Longitude>
   <Latitude>51.171332</Latitude>
   </Location>
   <Location>
   <Longitude>0.018624</Longitude>
   <Latitude>51.171439</Latitude>
   </Location>
   <Location>
   <Longitude>0.019310</Longitude>
   <Latitude>51.171483</Latitude>
   </Location>
   <Location>
   <Longitude>0.020382</Longitude>
   <Latitude>51.171374</Latitude>
   </Location>
   </Mapping>
   </Track>
   </RouteLink>
   <RouteLink id="i646_1_30">
   <From>
   <StopPointRef>40004410812A</StopPointRef>
   </From>
   <To>
   <StopPointRef>40004410045A</StopPointRef>
   </To>
   <Direction>inbound</Direction>
   <Track>
   <Mapping>
   <Location>
   <Longitude>0.020382</Longitude>
   <Latitude>51.171374</Latitude>
   </Location>
   <Location>
   <Longitude>0.021083</Longitude>
   <Latitude>51.171302</Latitude>
   </Location>
   <Location>
   <Longitude>0.022612</Longitude>
   <Latitude>51.170941</Latitude>
   </Location>
   <Location>
   <Longitude>0.022970</Longitude>
   <Latitude>51.170877</Latitude>
   </Location>
   <Location>
   <Longitude>0.024428</Longitude>
   <Latitude>51.170777</Latitude>
   </Location>
   <Location>
   <Longitude>0.025401</Longitude>
   <Latitude>51.170983</Latitude>
   </Location>
   <Location>
   <Longitude>0.025930</Longitude>
   <Latitude>51.171000</Latitude>
   </Location>
   <Location>
   <Longitude>0.027731</Longitude>
   <Latitude>51.170684</Latitude>
   </Location>
   <Location>
   <Longitude>0.028232</Longitude>
   <Latitude>51.170674</Latitude>
   </Location>
   <Location>
   <Longitude>0.029033</Longitude>
   <Latitude>51.170781</Latitude>
   </Location>
   <Location>
   <Longitude>0.029376</Longitude>
   <Latitude>51.170853</Latitude>
   </Location>
   <Location>
   <Longitude>0.029491</Longitude>
   <Latitude>51.170924</Latitude>
   </Location>
   <Location>
   <Longitude>0.029837</Longitude>
   <Latitude>51.171751</Latitude>
   </Location>
   <Location>
   <Longitude>0.029951</Longitude>
   <Latitude>51.171850</Latitude>
   </Location>
   <Location>
   <Longitude>0.030023</Longitude>
   <Latitude>51.171895</Latitude>
   </Location>
   <Location>
   <Longitude>0.030223</Longitude>
   <Latitude>51.171940</Latitude>
   </Location>
   <Location>
   <Longitude>0.030524</Longitude>
   <Latitude>51.171975</Latitude>
   </Location>
   <Location>
   <Longitude>0.031039</Longitude>
   <Latitude>51.172046</Latitude>
   </Location>
   <Location>
   <Longitude>0.031153</Longitude>
   <Latitude>51.172064</Latitude>
   </Location>
   <Location>
   <Longitude>0.031196</Longitude>
   <Latitude>51.172064</Latitude>
   </Location>
   <Location>
   <Longitude>0.032141</Longitude>
   <Latitude>51.172315</Latitude>
   </Location>
   <Location>
   <Longitude>0.032684</Longitude>
   <Latitude>51.172413</Latitude>
   </Location>
   <Location>
   <Longitude>0.033414</Longitude>
   <Latitude>51.172466</Latitude>
   </Location>
   <Location>
   <Longitude>0.033757</Longitude>
   <Latitude>51.172547</Latitude>
   </Location>
   <Location>
   <Longitude>0.034101</Longitude>
   <Latitude>51.172583</Latitude>
   </Location>
   <Location>
   <Longitude>0.035660</Longitude>
   <Latitude>51.172599</Latitude>
   </Location>
   <Location>
   <Longitude>0.036546</Longitude>
   <Latitude>51.172472</Latitude>
   </Location>
   <Location>
   <Longitude>0.036974</Longitude>
   <Latitude>51.172238</Latitude>
   </Location>
   <Location>
   <Longitude>0.037246</Longitude>
   <Latitude>51.172183</Latitude>
   </Location>
   <Location>
   <Longitude>0.037561</Longitude>
   <Latitude>51.172219</Latitude>
   </Location>
   <Location>
   <Longitude>0.038448</Longitude>
   <Latitude>51.172389</Latitude>
   </Location>
   <Location>
   <Longitude>0.039850</Longitude>
   <Latitude>51.172513</Latitude>
   </Location>
   <Location>
   <Longitude>0.040179</Longitude>
   <Latitude>51.172504</Latitude>
   </Location>
   </Mapping>
   </Track>
   </RouteLink>
   <RouteLink id="i646_1_31">
   <From>
   <StopPointRef>40004410045A</StopPointRef>
   </From>
   <To>
   <StopPointRef>40004410812B</StopPointRef>
   </To>
   <Direction>inbound</Direction>
   <Track>
   <Mapping>
   <Location>
   <Longitude>0.040179</Longitude>
   <Latitude>51.172504</Latitude>
   </Location>
   <Location>
   <Longitude>0.040336</Longitude>
   <Latitude>51.172503</Latitude>
   </Location>
   <Location>
   <Longitude>0.041280</Longitude>
   <Latitude>51.172664</Latitude>
   </Location>
   <Location>
   <Longitude>0.041796</Longitude>
   <Latitude>51.172870</Latitude>
   </Location>
   <Location>
   <Longitude>0.042555</Longitude>
   <Latitude>51.173373</Latitude>
   </Location>
   <Location>
   <Longitude>0.043815</Longitude>
   <Latitude>51.173893</Latitude>
   </Location>
   <Location>
   <Longitude>0.044589</Longitude>
   <Latitude>51.174215</Latitude>
   </Location>
   </Mapping>
   </Track>
   </RouteLink>
   <RouteLink id="i646_1_32">
   <From>
   <StopPointRef>40004410812B</StopPointRef>
   </From>
   <To>
   <StopPointRef>2400A034960A</StopPointRef>
   </To>
   <Direction>inbound</Direction>
   <Track>
   <Mapping>
   <Location>
   <Longitude>0.044589</Longitude>
   <Latitude>51.174215</Latitude>
   </Location>
   <Location>
   <Longitude>0.044732</Longitude>
   <Latitude>51.174278</Latitude>
   </Location>
   <Location>
   <Longitude>0.045563</Longitude>
   <Latitude>51.174673</Latitude>
   </Location>
   <Location>
   <Longitude>0.046508</Longitude>
   <Latitude>51.174986</Latitude>
   </Location>
   <Location>
   <Longitude>0.047209</Longitude>
   <Latitude>51.175300</Latitude>
   </Location>
   <Location>
   <Longitude>0.047639</Longitude>
   <Latitude>51.175461</Latitude>
   </Location>
   <Location>
   <Longitude>0.048698</Longitude>
   <Latitude>51.175739</Latitude>
   </Location>
   <Location>
   <Longitude>0.049385</Longitude>
   <Latitude>51.175954</Latitude>
   </Location>
   <Location>
   <Longitude>0.050087</Longitude>
   <Latitude>51.176258</Latitude>
   </Location>
   <Location>
   <Longitude>0.050388</Longitude>
   <Latitude>51.176348</Latitude>
   </Location>
   <Location>
   <Longitude>0.050517</Longitude>
   <Latitude>51.176375</Latitude>
   </Location>
   <Location>
   <Longitude>0.050760</Longitude>
   <Latitude>51.176428</Latitude>
   </Location>
   <Location>
   <Longitude>0.050889</Longitude>
   <Latitude>51.176464</Latitude>
   </Location>
   <Location>
   <Longitude>0.053996</Longitude>
   <Latitude>51.177395</Latitude>
   </Location>
   <Location>
   <Longitude>0.054211</Longitude>
   <Latitude>51.177494</Latitude>
   </Location>
   <Location>
   <Longitude>0.054755</Longitude>
   <Latitude>51.177790</Latitude>
   </Location>
   <Location>
   <Longitude>0.055314</Longitude>
   <Latitude>51.178086</Latitude>
   </Location>
   <Location>
   <Longitude>0.055572</Longitude>
   <Latitude>51.178274</Latitude>
   </Location>
   </Mapping>
   </Track>
   </RouteLink>
   <RouteLink id="i646_1_33">
   <From>
   <StopPointRef>2400A034960A</StopPointRef>
   </From>
   <To>
   <StopPointRef>2400A007570A</StopPointRef>
   </To>
   <Direction>inbound</Direction>
   <Track>
   <Mapping>
   <Location>
   <Longitude>0.055572</Longitude>
   <Latitude>51.178274</Latitude>
   </Location>
   <Location>
   <Longitude>0.055658</Longitude>
   <Latitude>51.178328</Latitude>
   </Location>
   <Location>
   <Longitude>0.056102</Longitude>
   <Latitude>51.178642</Latitude>
   </Location>
   <Location>
   <Longitude>0.056662</Longitude>
   <Latitude>51.179154</Latitude>
   </Location>
   <Location>
   <Longitude>0.057265</Longitude>
   <Latitude>51.179755</Latitude>
   </Location>
   <Location>
   <Longitude>0.057953</Longitude>
   <Latitude>51.180141</Latitude>
   </Location>
   <Location>
   <Longitude>0.058497</Longitude>
   <Latitude>51.180446</Latitude>
   </Location>
   <Location>
   <Longitude>0.061005</Longitude>
   <Latitude>51.181845</Latitude>
   </Location>
   <Location>
   <Longitude>0.062151</Longitude>
   <Latitude>51.182410</Latitude>
   </Location>
   <Location>
   <Longitude>0.062280</Longitude>
   <Latitude>51.182482</Latitude>
   </Location>
   <Location>
   <Longitude>0.063283</Longitude>
   <Latitude>51.182723</Latitude>
   </Location>
   <Location>
   <Longitude>0.064242</Longitude>
   <Latitude>51.182938</Latitude>
   </Location>
   <Location>
   <Longitude>0.065015</Longitude>
   <Latitude>51.183278</Latitude>
   </Location>
   <Location>
   <Longitude>0.065460</Longitude>
   <Latitude>51.183466</Latitude>
   </Location>
   <Location>
   <Longitude>0.066176</Longitude>
   <Latitude>51.183690</Latitude>
   </Location>
   <Location>
   <Longitude>0.066533</Longitude>
   <Latitude>51.183743</Latitude>
   </Location>
   <Location>
   <Longitude>0.069095</Longitude>
   <Latitude>51.184135</Latitude>
   </Location>
   <Location>
   <Longitude>0.069153</Longitude>
   <Latitude>51.184144</Latitude>
   </Location>
   <Location>
   <Longitude>0.069067</Longitude>
   <Latitude>51.184180</Latitude>
   </Location>
   <Location>
   <Longitude>0.069038</Longitude>
   <Latitude>51.184198</Latitude>
   </Location>
   <Location>
   <Longitude>0.069010</Longitude>
   <Latitude>51.184234</Latitude>
   </Location>
   <Location>
   <Longitude>0.068967</Longitude>
   <Latitude>51.184270</Latitude>
   </Location>
   <Location>
   <Longitude>0.068953</Longitude>
   <Latitude>51.184315</Latitude>
   </Location>
   <Location>
   <Longitude>0.068897</Longitude>
   <Latitude>51.184549</Latitude>
   </Location>
   </Mapping>
   </Track>
   </RouteLink>
   <RouteLink id="i646_1_34">
   <From>
   <StopPointRef>2400A007570A</StopPointRef>
   </From>
   <To>
   <StopPointRef>2400A007490A</StopPointRef>
   </To>
   <Direction>inbound</Direction>
   <Track>
   <Mapping>
   <Location>
   <Longitude>0.068897</Longitude>
   <Latitude>51.184549</Latitude>
   </Location>
   <Location>
   <Longitude>0.068671</Longitude>
   <Latitude>51.185368</Latitude>
   </Location>
   <Location>
   <Longitude>0.068501</Longitude>
   <Latitude>51.185925</Latitude>
   </Location>
   <Location>
   <Longitude>0.068303</Longitude>
   <Latitude>51.186591</Latitude>
   </Location>
   <Location>
   <Longitude>0.068247</Longitude>
   <Latitude>51.186780</Latitude>
   </Location>
   <Location>
   <Longitude>0.068035</Longitude>
   <Latitude>51.187481</Latitude>
   </Location>
   <Location>
   <Longitude>0.067992</Longitude>
   <Latitude>51.187607</Latitude>
   </Location>
   <Location>
   <Longitude>0.067907</Longitude>
   <Latitude>51.187886</Latitude>
   </Location>
   <Location>
   <Longitude>0.067582</Longitude>
   <Latitude>51.188840</Latitude>
   </Location>
   <Location>
   <Longitude>0.067440</Longitude>
   <Latitude>51.189190</Latitude>
   </Location>
   <Location>
   <Longitude>0.067284</Longitude>
   <Latitude>51.189694</Latitude>
   </Location>
   </Mapping>
   </Track>
   </RouteLink>
   <RouteLink id="i646_1_35">
   <From>
   <StopPointRef>2400A007490A</StopPointRef>
   </From>
   <To>
   <StopPointRef>2400A007480A</StopPointRef>
   </To>
   <Direction>inbound</Direction>
   <Track>
   <Mapping>
   <Location>
   <Longitude>0.067284</Longitude>
   <Latitude>51.189694</Latitude>
   </Location>
   <Location>
   <Longitude>0.067214</Longitude>
   <Latitude>51.189946</Latitude>
   </Location>
   <Location>
   <Longitude>0.066492</Longitude>
   <Latitude>51.192069</Latitude>
   </Location>
   <Location>
   <Longitude>0.066364</Longitude>
   <Latitude>51.192500</Latitude>
   </Location>
   <Location>
   <Longitude>0.066237</Longitude>
   <Latitude>51.192878</Latitude>
   </Location>
   <Location>
   <Longitude>0.066166</Longitude>
   <Latitude>51.193094</Latitude>
   </Location>
   <Location>
   <Longitude>0.066138</Longitude>
   <Latitude>51.193184</Latitude>
   </Location>
   <Location>
   <Longitude>0.065954</Longitude>
   <Latitude>51.193787</Latitude>
   </Location>
   <Location>
   <Longitude>0.065940</Longitude>
   <Latitude>51.193832</Latitude>
   </Location>
   </Mapping>
   </Track>
   </RouteLink>
   <RouteLink id="i646_1_36">
   <From>
   <StopPointRef>2400A007480A</StopPointRef>
   </From>
   <To>
   <StopPointRef>2400A007460A</StopPointRef>
   </To>
   <Direction>inbound</Direction>
   <Track>
   <Mapping>
   <Location>
   <Longitude>0.065940</Longitude>
   <Latitude>51.193832</Latitude>
   </Location>
   <Location>
   <Longitude>0.065897</Longitude>
   <Latitude>51.193940</Latitude>
   </Location>
   <Location>
   <Longitude>0.065855</Longitude>
   <Latitude>51.194012</Latitude>
   </Location>
   <Location>
   <Longitude>0.065798</Longitude>
   <Latitude>51.194066</Latitude>
   </Location>
   <Location>
   <Longitude>0.065741</Longitude>
   <Latitude>51.194111</Latitude>
   </Location>
   <Location>
   <Longitude>0.065726</Longitude>
   <Latitude>51.194102</Latitude>
   </Location>
   <Location>
   <Longitude>0.065698</Longitude>
   <Latitude>51.194093</Latitude>
   </Location>
   <Location>
   <Longitude>0.065683</Longitude>
   <Latitude>51.194093</Latitude>
   </Location>
   <Location>
   <Longitude>0.065655</Longitude>
   <Latitude>51.194084</Latitude>
   </Location>
   <Location>
   <Longitude>0.065640</Longitude>
   <Latitude>51.194093</Latitude>
   </Location>
   <Location>
   <Longitude>0.065612</Longitude>
   <Latitude>51.194093</Latitude>
   </Location>
   <Location>
   <Longitude>0.065583</Longitude>
   <Latitude>51.194102</Latitude>
   </Location>
   <Location>
   <Longitude>0.065555</Longitude>
   <Latitude>51.194120</Latitude>
   </Location>
   <Location>
   <Longitude>0.065555</Longitude>
   <Latitude>51.194129</Latitude>
   </Location>
   <Location>
   <Longitude>0.065526</Longitude>
   <Latitude>51.194147</Latitude>
   </Location>
   <Location>
   <Longitude>0.065526</Longitude>
   <Latitude>51.194165</Latitude>
   </Location>
   <Location>
   <Longitude>0.065526</Longitude>
   <Latitude>51.194183</Latitude>
   </Location>
   <Location>
   <Longitude>0.065541</Longitude>
   <Latitude>51.194210</Latitude>
   </Location>
   <Location>
   <Longitude>0.065555</Longitude>
   <Latitude>51.194219</Latitude>
   </Location>
   <Location>
   <Longitude>0.065569</Longitude>
   <Latitude>51.194228</Latitude>
   </Location>
   <Location>
   <Longitude>0.065584</Longitude>
   <Latitude>51.194237</Latitude>
   </Location>
   <Location>
   <Longitude>0.065612</Longitude>
   <Latitude>51.194246</Latitude>
   </Location>
   <Location>
   <Longitude>0.065627</Longitude>
   <Latitude>51.194246</Latitude>
   </Location>
   <Location>
   <Longitude>0.065641</Longitude>
   <Latitude>51.194246</Latitude>
   </Location>
   <Location>
   <Longitude>0.065684</Longitude>
   <Latitude>51.194246</Latitude>
   </Location>
   <Location>
   <Longitude>0.065713</Longitude>
   <Latitude>51.194362</Latitude>
   </Location>
   <Location>
   <Longitude>0.065671</Longitude>
   <Latitude>51.194596</Latitude>
   </Location>
   <Location>
   <Longitude>0.065600</Longitude>
   <Latitude>51.194848</Latitude>
   </Location>
   <Location>
   <Longitude>0.065359</Longitude>
   <Latitude>51.195496</Latitude>
   </Location>
   <Location>
   <Longitude>0.065288</Longitude>
   <Latitude>51.195703</Latitude>
   </Location>
   <Location>
   <Longitude>0.065034</Longitude>
   <Latitude>51.196512</Latitude>
   </Location>
   <Location>
   <Longitude>0.064722</Longitude>
   <Latitude>51.197492</Latitude>
   </Location>
   <Location>
   <Longitude>0.064580</Longitude>
   <Latitude>51.197771</Latitude>
   </Location>
   </Mapping>
   </Track>
   </RouteLink>
   <RouteLink id="i646_1_37">
   <From>
   <StopPointRef>2400A007460A</StopPointRef>
   </From>
   <To>
   <StopPointRef>2400A007580A</StopPointRef>
   </To>
   <Direction>inbound</Direction>
   <Track>
   <Mapping>
   <Location>
   <Longitude>0.064580</Longitude>
   <Latitude>51.197771</Latitude>
   </Location>
   <Location>
   <Longitude>0.064410</Longitude>
   <Latitude>51.198311</Latitude>
   </Location>
   <Location>
   <Longitude>0.064026</Longitude>
   <Latitude>51.199013</Latitude>
   </Location>
   <Location>
   <Longitude>0.063927</Longitude>
   <Latitude>51.199274</Latitude>
   </Location>
   </Mapping>
   </Track>
   </RouteLink>
   <RouteLink id="i646_1_38">
   <From>
   <StopPointRef>2400A007580A</StopPointRef>
   </From>
   <To>
   <StopPointRef>2400104613</StopPointRef>
   </To>
   <Direction>inbound</Direction>
   <Track>
   <Mapping>
   <Location>
   <Longitude>0.063927</Longitude>
   <Latitude>51.199274</Latitude>
   </Location>
   <Location>
   <Longitude>0.063856</Longitude>
   <Latitude>51.199472</Latitude>
   </Location>
   <Location>
   <Longitude>0.063828</Longitude>
   <Latitude>51.199615</Latitude>
   </Location>
   <Location>
   <Longitude>0.063828</Longitude>
   <Latitude>51.199642</Latitude>
   </Location>
   <Location>
   <Longitude>0.063814</Longitude>
   <Latitude>51.199669</Latitude>
   </Location>
   <Location>
   <Longitude>0.063771</Longitude>
   <Latitude>51.199687</Latitude>
   </Location>
   <Location>
   <Longitude>0.063743</Longitude>
   <Latitude>51.199705</Latitude>
   </Location>
   <Location>
   <Longitude>0.063700</Longitude>
   <Latitude>51.199715</Latitude>
   </Location>
   <Location>
   <Longitude>0.063442</Longitude>
   <Latitude>51.199769</Latitude>
   </Location>
   <Location>
   <Longitude>0.063371</Longitude>
   <Latitude>51.199796</Latitude>
   </Location>
   <Location>
   <Longitude>0.063400</Longitude>
   <Latitude>51.199841</Latitude>
   </Location>
   <Location>
   <Longitude>0.063457</Longitude>
   <Latitude>51.199958</Latitude>
   </Location>
   <Location>
   <Longitude>0.063515</Longitude>
   <Latitude>51.200065</Latitude>
   </Location>
   <Location>
   <Longitude>0.063572</Longitude>
   <Latitude>51.200101</Latitude>
   </Location>
   <Location>
   <Longitude>0.063602</Longitude>
   <Latitude>51.200245</Latitude>
   </Location>
   <Location>
   <Longitude>0.063602</Longitude>
   <Latitude>51.200335</Latitude>
   </Location>
   <Location>
   <Longitude>0.063602</Longitude>
   <Latitude>51.200425</Latitude>
   </Location>
   <Location>
   <Longitude>0.063560</Longitude>
   <Latitude>51.200686</Latitude>
   </Location>
   <Location>
   <Longitude>0.063405</Longitude>
   <Latitude>51.201252</Latitude>
   </Location>
   <Location>
   <Longitude>0.063334</Longitude>
   <Latitude>51.201432</Latitude>
   </Location>
   <Location>
   <Longitude>0.063235</Longitude>
   <Latitude>51.201747</Latitude>
   </Location>
   </Mapping>
   </Track>
   </RouteLink>
   <RouteLink id="i646_1_39">
   <From>
   <StopPointRef>2400104613</StopPointRef>
   </From>
   <To>
   <StopPointRef>2400A007450A</StopPointRef>
   </To>
   <Direction>inbound</Direction>
   <Track>
   <Mapping>
   <Location>
   <Longitude>0.063235</Longitude>
   <Latitude>51.201747</Latitude>
   </Location>
   <Location>
   <Longitude>0.063178</Longitude>
   <Latitude>51.201918</Latitude>
   </Location>
   <Location>
   <Longitude>0.063150</Longitude>
   <Latitude>51.202026</Latitude>
   </Location>
   <Location>
   <Longitude>0.063107</Longitude>
   <Latitude>51.202116</Latitude>
   </Location>
   <Location>
   <Longitude>0.063051</Longitude>
   <Latitude>51.202296</Latitude>
   </Location>
   <Location>
   <Longitude>0.063008</Longitude>
   <Latitude>51.202422</Latitude>
   </Location>
   <Location>
   <Longitude>0.062767</Longitude>
   <Latitude>51.203132</Latitude>
   </Location>
   <Location>
   <Longitude>0.062640</Longitude>
   <Latitude>51.203483</Latitude>
   </Location>
   <Location>
   <Longitude>0.064515</Longitude>
   <Latitude>51.203570</Latitude>
   </Location>
   <Location>
   <Longitude>0.065116</Longitude>
   <Latitude>51.203641</Latitude>
   </Location>
   </Mapping>
   </Track>
   </RouteLink>
   <RouteLink id="i646_1_40">
   <From>
   <StopPointRef>2400A007450A</StopPointRef>
   </From>
   <To>
   <StopPointRef>2400A071010A</StopPointRef>
   </To>
   <Direction>inbound</Direction>
   <Track>
   <Mapping>
   <Location>
   <Longitude>0.065116</Longitude>
   <Latitude>51.203641</Latitude>
   </Location>
   <Location>
   <Longitude>0.065231</Longitude>
   <Latitude>51.203650</Latitude>
   </Location>
   <Location>
   <Longitude>0.065460</Longitude>
   <Latitude>51.203695</Latitude>
   </Location>
   <Location>
   <Longitude>0.066219</Longitude>
   <Latitude>51.203838</Latitude>
   </Location>
   <Location>
   <Longitude>0.066034</Longitude>
   <Latitude>51.204305</Latitude>
   </Location>
   <Location>
   <Longitude>0.066020</Longitude>
   <Latitude>51.204368</Latitude>
   </Location>
   <Location>
   <Longitude>0.066021</Longitude>
   <Latitude>51.204431</Latitude>
   </Location>
   <Location>
   <Longitude>0.066021</Longitude>
   <Latitude>51.204503</Latitude>
   </Location>
   <Location>
   <Longitude>0.066166</Longitude>
   <Latitude>51.205087</Latitude>
   </Location>
   <Location>
   <Longitude>0.066224</Longitude>
   <Latitude>51.205303</Latitude>
   </Location>
   </Mapping>
   </Track>
   </RouteLink>
   <RouteLink id="i646_1_41">
   <From>
   <StopPointRef>2400A071010A</StopPointRef>
   </From>
   <To>
   <StopPointRef>2400104615</StopPointRef>
   </To>
   <Direction>inbound</Direction>
   <Track>
   <Mapping>
   <Location>
   <Longitude>0.066224</Longitude>
   <Latitude>51.205303</Latitude>
   </Location>
   <Location>
   <Longitude>0.066485</Longitude>
   <Latitude>51.206265</Latitude>
   </Location>
   <Location>
   <Longitude>0.066500</Longitude>
   <Latitude>51.206409</Latitude>
   </Location>
   <Location>
   <Longitude>0.066500</Longitude>
   <Latitude>51.206417</Latitude>
   </Location>
   <Location>
   <Longitude>0.066457</Longitude>
   <Latitude>51.206471</Latitude>
   </Location>
   <Location>
   <Longitude>0.066386</Longitude>
   <Latitude>51.206517</Latitude>
   </Location>
   <Location>
   <Longitude>0.066286</Longitude>
   <Latitude>51.206535</Latitude>
   </Location>
   <Location>
   <Longitude>0.064927</Longitude>
   <Latitude>51.206698</Latitude>
   </Location>
   <Location>
   <Longitude>0.064855</Longitude>
   <Latitude>51.206707</Latitude>
   </Location>
   </Mapping>
   </Track>
   </RouteLink>
   <RouteLink id="i646_1_42">
   <From>
   <StopPointRef>2400104615</StopPointRef>
   </From>
   <To>
   <StopPointRef>2400A007600A</StopPointRef>
   </To>
   <Direction>inbound</Direction>
   <Track>
   <Mapping>
   <Location>
   <Longitude>0.064855</Longitude>
   <Latitude>51.206707</Latitude>
   </Location>
   <Location>
   <Longitude>0.062323</Longitude>
   <Latitude>51.206963</Latitude>
   </Location>
   <Location>
   <Longitude>0.061965</Longitude>
   <Latitude>51.206945</Latitude>
   </Location>
   <Location>
   <Longitude>0.061621</Longitude>
   <Latitude>51.206883</Latitude>
   </Location>
   <Location>
   <Longitude>0.061451</Longitude>
   <Latitude>51.207395</Latitude>
   </Location>
   </Mapping>
   </Track>
   </RouteLink>
   <RouteLink id="i646_1_43">
   <From>
   <StopPointRef>2400A007600A</StopPointRef>
   </From>
   <To>
   <StopPointRef>2400A007620A</StopPointRef>
   </To>
   <Direction>inbound</Direction>
   <Track>
   <Mapping>
   <Location>
   <Longitude>0.061451</Longitude>
   <Latitude>51.207395</Latitude>
   </Location>
   <Location>
   <Longitude>0.061309</Longitude>
   <Latitude>51.207827</Latitude>
   </Location>
   <Location>
   <Longitude>0.061267</Longitude>
   <Latitude>51.207989</Latitude>
   </Location>
   <Location>
   <Longitude>0.061182</Longitude>
   <Latitude>51.208241</Latitude>
   </Location>
   <Location>
   <Longitude>0.061069</Longitude>
   <Latitude>51.208565</Latitude>
   </Location>
   <Location>
   <Longitude>0.060885</Longitude>
   <Latitude>51.209149</Latitude>
   </Location>
   <Location>
   <Longitude>0.060771</Longitude>
   <Latitude>51.209518</Latitude>
   </Location>
   <Location>
   <Longitude>0.060743</Longitude>
   <Latitude>51.209617</Latitude>
   </Location>
   <Location>
   <Longitude>0.060630</Longitude>
   <Latitude>51.209977</Latitude>
   </Location>
   <Location>
   <Longitude>0.060630</Longitude>
   <Latitude>51.210040</Latitude>
   </Location>
   <Location>
   <Longitude>0.060531</Longitude>
   <Latitude>51.210400</Latitude>
   </Location>
   </Mapping>
   </Track>
   </RouteLink>
   <RouteLink id="i646_1_44">
   <From>
   <StopPointRef>2400A007620A</StopPointRef>
   </From>
   <To>
   <StopPointRef>2400A034810A</StopPointRef>
   </To>
   <Direction>inbound</Direction>
   <Track>
   <Mapping>
   <Location>
   <Longitude>0.060531</Longitude>
   <Latitude>51.210400</Latitude>
   </Location>
   <Location>
   <Longitude>0.060489</Longitude>
   <Latitude>51.210570</Latitude>
   </Location>
   <Location>
   <Longitude>0.060149</Longitude>
   <Latitude>51.211713</Latitude>
   </Location>
   <Location>
   <Longitude>0.059965</Longitude>
   <Latitude>51.212387</Latitude>
   </Location>
   </Mapping>
   </Track>
   </RouteLink>
   <RouteLink id="i646_1_45">
   <From>
   <StopPointRef>2400A034810A</StopPointRef>
