{
  "?xml": {
    "version": "1.0",
    "encoding": "UTF-8"
  },
  "TransXChange": {
    "ServicedOrganisations": {
      "ServicedOrganisation": {
        "OrganisationCode": "Sch",
        "Name": "AnySchool",
        "WorkingDays": {
          "DateRange": [
            {
              "StartDate": "2025-03-03",
              "EndDate": "2025-03-07"
            },
            {
              "StartDate": "2025-03-10",
              "EndDate": "2025-03-14"
            },
            {
              "StartDate": "2025-03-17",
              "EndDate": "2025-03-21"
            },
            {
              "StartDate": "2025-03-24",
              "EndDate": "2025-03-28"
            },
            {
              "StartDate": "2025-03-31",
              "EndDate": "2025-04-04"
            },
            {
              "StartDate": "2025-04-22",
              "EndDate": "2025-04-25"
            },
            {
              "StartDate": "2025-04-28",
              "EndDate": "2025-05-02"
            },
            {
              "StartDate": "2025-05-06",
              "EndDate": "2025-05-09"
            },
            {
              "StartDate": "2025-05-12",
              "EndDate": "2025-05-16"
            },
            {
              "StartDate": "2025-05-19",
              "EndDate": "2025-05-23"
            }
          ]
        }
      }
    },
    "StopPoints": [
      {
        "AnnotatedStopPointRef": [
          {
            "StopPointRef": "40004408001B",
            "CommonName": "Charlwood, Ifield Road",
            "Location": {
              "Longitude": -0.224022,
              "Latitude": 51.155127
            }
          },
          {
            "StopPointRef": "40004408093B",
            "CommonName": "Abinger Common",
            "Location": {
              "Longitude": -0.397686,
              "Latitude": 51.197989
            }
          },
          {
            "StopPointRef": "40004408801G",
            "CommonName": "Leith Hill Road",
            "Location": {
              "Longitude": -0.396929,
              "Latitude": 51.196076
            }
          },
          {
            "StopPointRef": "40004408091B",
            "CommonName": "Feldmore Corner",
            "Location": {
              "Longitude": -0.402459,
              "Latitude": 51.190676
            }
          },
          {
            "StopPointRef": "40004408300A",
            "CommonName": "Belmont School",
            "Location": {
              "Longitude": -0.403179,
              "Latitude": 51.189253
            }
          },
          {
            "StopPointRef": "40004408801I",
            "CommonName": "Pasture Wood Road",
            "Location": {
              "Longitude": -0.407754,
              "Latitude": 51.184422
            }
          },
          {
            "StopPointRef": "40004407339A",
            "CommonName": "Pitland Street",
            "Location": {
              "Longitude": -0.409762,
              "Latitude": 51.185289
            }
          },
          {
            "StopPointRef": "40004407819D",
            "CommonName": "Holmbury Hill Road",
            "Location": {
              "Longitude": -0.410663,
              "Latitude": 51.187301
            }
          },
          {
            "StopPointRef": "40004407340A",
            "CommonName": "Holmbury St Mary",
            "Location": {
              "Longitude": -0.41302,
              "Latitude": 51.188876
            }
          },
          {
            "StopPointRef": "40004407819E",
            "CommonName": "Horsham Road",
            "Location": {
              "Longitude": -0.411577,
              "Latitude": 51.191182
            }
          },
          {
            "StopPointRef": "40004407976A",
            "CommonName": "Felday Houses",
            "Location": {
              "Longitude": -0.412766,
              "Latitude": 51.193525
            }
          },
          {
            "StopPointRef": "40004407975B",
            "CommonName": "Woodhouse Lane",
            "Location": {
              "Longitude": -0.418073,
              "Latitude": 51.197413
            }
          },
          {
            "StopPointRef": "40004407819F",
            "CommonName": "Water Lane",
            "Location": {
              "Longitude": -0.420307,
              "Latitude": 51.201749
            }
          },
          {
            "StopPointRef": "40004407973B",
            "CommonName": "Hoe Lane",
            "Location": {
              "Longitude": -0.426399,
              "Latitude": 51.203179
            }
          },
          {
            "StopPointRef": "40004407972B",
            "CommonName": "Rad Lane",
            "Location": {
              "Longitude": -0.43214,
              "Latitude": 51.207316
            }
          },
          {
            "StopPointRef": "40004408801J",
            "CommonName": "Abinger Hammer",
            "Location": {
              "Longitude": -0.431599,
              "Latitude": 51.211624
            }
          },
          {
            "StopPointRef": "40004408095B",
            "CommonName": "Clockhouse",
            "Location": {
              "Longitude": -0.432489,
              "Latitude": 51.215901
            }
          },
          {
            "StopPointRef": "40004407367B",
            "CommonName": "Gomshall Railway Station",
            "Location": {
              "Longitude": -0.44594,
              "Latitude": 51.219008
            }
          },
          {
            "StopPointRef": "40004407368B",
            "CommonName": "The Compasses",
            "Location": {
              "Longitude": -0.447954,
              "Latitude": 51.220234
            }
          },
          {
            "StopPointRef": "40004407369B",
            "CommonName": "Queen Street",
            "Location": {
              "Longitude": -0.449678,
              "Latitude": 51.220966
            }
          },
          {
            "StopPointRef": "40004407371B",
            "CommonName": "Upper Lodge",
            "Location": {
              "Longitude": -0.470785,
              "Latitude": 51.221529
            }
          },
          {
            "StopPointRef": "40004407370A",
            "CommonName": "Shere Village Hall",
            "Location": {
              "Longitude": -0.463661,
              "Latitude": 51.2205
            }
          },
          {
            "StopPointRef": "40004407531A",
            "CommonName": "Medical Centre",
            "Location": {
              "Longitude": -0.459539,
              "Latitude": 51.220558
            }
          },
          {
            "StopPointRef": "40004407369A",
            "CommonName": "Queen Street",
            "Location": {
              "Longitude": -0.450896,
              "Latitude": 51.221196
            }
          },
          {
            "StopPointRef": "40004407368A",
            "CommonName": "The Compasses",
            "Location": {
              "Longitude": -0.447522,
              "Latitude": 51.219912
            }
          },
          {
            "StopPointRef": "40004407367A",
            "CommonName": "Gomshall Railway Station",
            "Location": {
              "Longitude": -0.445066,
              "Latitude": 51.21893
            }
          },
          {
            "StopPointRef": "40004408095A",
            "CommonName": "Clockhouse",
            "Location": {
              "Longitude": -0.432045,
              "Latitude": 51.215876
            }
          },
          {
            "StopPointRef": "40004408096A",
            "CommonName": "Paddington Farm",
            "Location": {
              "Longitude": -0.425236,
              "Latitude": 51.214591
            }
          },
          {
            "StopPointRef": "40004408801A",
            "CommonName": "Abinger Hammer",
            "Location": {
              "Longitude": -0.431399,
              "Latitude": 51.211634
            }
          },
          {
            "StopPointRef": "40004408097A",
            "CommonName": "Abinger Hall Lodge",
            "Location": {
              "Longitude": -0.41894,
              "Latitude": 51.214933
            }
          },
          {
            "StopPointRef": "40004407972A",
            "CommonName": "Rad Lane",
            "Location": {
              "Longitude": -0.431911,
              "Latitude": 51.207362
            }
          },
          {
            "StopPointRef": "40004408098B",
            "CommonName": "The Crossways",
            "Location": {
              "Longitude": -0.413401,
              "Latitude": 51.215056
            }
          },
          {
            "StopPointRef": "40004407973A",
            "CommonName": "Hoe Lane",
            "Location": {
              "Longitude": -0.426315,
              "Latitude": 51.203323
            }
          },
          {
            "StopPointRef": "40004407819A",
            "CommonName": "Water Lane",
            "Location": {
              "Longitude": -0.420251,
              "Latitude": 51.201857
            }
          },
          {
            "StopPointRef": "40004407975A",
            "CommonName": "Woodhouse Lane",
            "Location": {
              "Longitude": -0.417556,
              "Latitude": 51.197225
            }
          },
          {
            "StopPointRef": "40004407976B",
            "CommonName": "Felday Houses",
            "Location": {
              "Longitude": -0.412982,
              "Latitude": 51.193767
            }
          },
          {
            "StopPointRef": "40004407819B",
            "CommonName": "Horsham Road",
            "Location": {
              "Longitude": -0.41166,
              "Latitude": 51.190795
            }
          },
          {
            "StopPointRef": "40004407340B",
            "CommonName": "Holmbury St Mary",
            "Location": {
              "Longitude": -0.412503,
              "Latitude": 51.188599
            }
          },
          {
            "StopPointRef": "40004407819C",
            "CommonName": "Holmbury Hill Road",
            "Location": {
              "Longitude": -0.410247,
              "Latitude": 51.187104
            }
          },
          {
            "StopPointRef": "40004407339B",
            "CommonName": "Pitland Street",
            "Location": {
              "Longitude": -0.409749,
              "Latitude": 51.185505
            }
          },
          {
            "StopPointRef": "40004408801B",
            "CommonName": "Pasture Wood Road",
            "Location": {
              "Longitude": -0.407812,
              "Latitude": 51.184566
            }
          },
          {
            "StopPointRef": "40004408300B",
            "CommonName": "Belmont School",
            "Location": {
              "Longitude": -0.403423,
              "Latitude": 51.189226
            }
          },
          {
            "StopPointRef": "40004408091A",
            "CommonName": "Feldmore Corner",
            "Location": {
              "Longitude": -0.402431,
              "Latitude": 51.190766
            }
          },
          {
            "StopPointRef": "40004408801D",
            "CommonName": "Leith Hill Road",
            "Location": {
              "Longitude": -0.397086,
              "Latitude": 51.19603
            }
          },
          {
            "StopPointRef": "40004408093A",
            "CommonName": "Abinger Common",
            "Location": {
              "Longitude": -0.397741,
              "Latitude": 51.197683
            }
          },
          {
            "StopPointRef": "40004408801E",
            "CommonName": "Hollow Lane",
            "Location": {
              "Longitude": -0.399198,
              "Latitude": 51.206013
            }
          },
          {
            "StopPointRef": "40004408099A",
            "CommonName": "Manor Farm",
            "Location": {
              "Longitude": -0.399486,
              "Latitude": 51.214904
            }
          },
          {
            "StopPointRef": "40004408100A",
            "CommonName": "Wotton Hatch",
            "Location": {
              "Longitude": -0.389293,
              "Latitude": 51.216989
            }
          },
          {
            "StopPointRef": "40004408101A",
            "CommonName": "Balchins Lane",
            "Location": {
              "Longitude": -0.378066,
              "Latitude": 51.223337
            }
          },
          {
            "StopPointRef": "40004408103A",
            "CommonName": "Parsonage Lane",
            "Location": {
              "Longitude": -0.36701,
              "Latitude": 51.225296
            }
          },
          {
            "StopPointRef": "40004408105A",
            "CommonName": "Milton Avenue",
            "Location": {
              "Longitude": -0.360428,
              "Latitude": 51.226157
            }
          },
          {
            "StopPointRef": "40004408106A",
            "CommonName": "Milton Court",
            "Location": {
              "Longitude": -0.353115,
              "Latitude": 51.226757
            }
          },
          {
            "StopPointRef": "40004408107A",
            "CommonName": "Sondes Place Drive",
            "Location": {
              "Longitude": -0.343341,
              "Latitude": 51.230474
            }
          },
          {
            "StopPointRef": "40004408108A",
            "CommonName": "Glebe Road",
            "Location": {
              "Longitude": -0.339767,
              "Latitude": 51.231596
            }
          },
          {
            "StopPointRef": "40004408086A",
            "CommonName": "South Street",
            "Location": {
              "Longitude": -0.333806,
              "Latitude": 51.230889
            }
          },
          {
            "StopPointRef": "40004408085A",
            "CommonName": "Dorking, Townfield Court",
            "Location": {
              "Longitude": -0.335505,
              "Latitude": 51.227128
            }
          },
          {
            "StopPointRef": "40004408109A",
            "CommonName": "Dorking, Priory School",
            "Location": {
              "Longitude": -0.341984,
              "Latitude": 51.225649
            }
          },
          {
            "StopPointRef": "40004408088A",
            "CommonName": "Vincent Lane",
            "Location": {
              "Longitude": -0.337379,
              "Latitude": 51.229506
            }
          },
          {
            "StopPointRef": "40004408110A",
            "CommonName": "West Street",
            "Location": {
              "Longitude": -0.335315,
              "Latitude": 51.231776
            }
          },
          {
            "StopPointRef": "40004408111A",
            "CommonName": "Dorking, White Horse",
            "Location": {
              "Longitude": -0.330036,
              "Latitude": 51.232821
            }
          },
          {
            "StopPointRef": "40004408112B",
            "CommonName": "Moores Road",
            "Location": {
              "Longitude": -0.327237,
              "Latitude": 51.234382
            }
          },
          {
            "StopPointRef": "40004408113B",
            "CommonName": "Council Offices",
            "Location": {
              "Longitude": -0.32475,
              "Latitude": 51.235321
            }
          },
          {
            "StopPointRef": "40004408115A",
            "CommonName": "Dorking Station",
            "Location": {
              "Longitude": -0.324404,
              "Latitude": 51.24077
            }
          },
          {
            "StopPointRef": "40004408114A",
            "CommonName": "Deepdene Avenue",
            "Location": {
              "Longitude": -0.32383,
              "Latitude": 51.237634
            }
          },
          {
            "StopPointRef": "40004408058A",
            "CommonName": "South Drive",
            "Location": {
              "Longitude": -0.322461,
              "Latitude": 51.232934
            }
          },
          {
            "StopPointRef": "40004408057A",
            "CommonName": "Deepdene House",
            "Location": {
              "Longitude": -0.323453,
              "Latitude": 51.230937
            }
          },
          {
            "StopPointRef": "40004408056A",
            "CommonName": "Chart Lane South",
            "Location": {
              "Longitude": -0.319077,
              "Latitude": 51.223105
            }
          },
          {
            "StopPointRef": "40004408055A",
            "CommonName": "Chart Downs",
            "Location": {
              "Longitude": -0.317414,
              "Latitude": 51.219683
            }
          },
          {
            "StopPointRef": "40004408024B",
            "CommonName": "Gadbrook Crossroads",
            "Location": {
              "Longitude": -0.279695,
              "Latitude": 51.21003
            }
          },
          {
            "StopPointRef": "40004408023A",
            "CommonName": "Bunts Place",
            "Location": {
              "Longitude": -0.276823,
              "Latitude": 51.207697
            }
          },
          {
            "StopPointRef": "40004408022A",
            "CommonName": "Bunce Common Road",
            "Location": {
              "Longitude": -0.270757,
              "Latitude": 51.208308
            }
          },
          {
            "StopPointRef": "40004408020C",
            "CommonName": "Recreation Ground",
            "Location": {
              "Longitude": -0.260887,
              "Latitude": 51.20986
            }
          },
          {
            "StopPointRef": "40004408947A",
            "CommonName": "Seven Stars",
            "Location": {
              "Longitude": -0.257425,
              "Latitude": 51.210369
            }
          },
          {
            "StopPointRef": "40004408018C",
            "CommonName": "North Downs Primary School",
            "Location": {
              "Longitude": -0.252699,
              "Latitude": 51.209656
            }
          },
          {
            "StopPointRef": "40004408017D",
            "CommonName": "Leigh, Plough",
            "Location": {
              "Longitude": -0.250146,
              "Latitude": 51.208284
            }
          },
          {
            "StopPointRef": "40004409233A",
            "CommonName": "Norwood Hill, Fox Revived",
            "Location": {
              "Longitude": -0.226802,
              "Latitude": 51.177673
            }
          },
          {
            "StopPointRef": "40004412050A",
            "CommonName": "Chapel Road",
            "LocalityName": "Mole Valley",
            "Location": {
              "Longitude": -0.222649,
              "Latitude": 51.155102
            }
          },
          {
            "StopPointRef": "40004408002B",
            "CommonName": "Charlwood, The Charlwood",
            "Location": {
              "Longitude": -0.219688,
              "Latitude": 51.154512
            }
          },
          {
            "StopPointRef": "40004408003B",
            "CommonName": "Farmfield Hospital",
            "Location": {
              "Longitude": -0.199129,
              "Latitude": 51.160025
            }
          },
          {
            "StopPointRef": "40004408004B",
            "CommonName": "Little Deeping Farm",
            "Location": {
              "Longitude": -0.195131,
              "Latitude": 51.162591
            }
          },
          {
            "StopPointRef": "40004408005A",
            "CommonName": "Povey Cross",
            "Location": {
              "Longitude": -0.187184,
              "Latitude": 51.164188
            }
          },
          {
            "StopPointRef": "40004408232A",
            "CommonName": "Hookwood Tesco",
            "Location": {
              "Longitude": -0.185763,
              "Latitude": 51.168703
            }
          },
          {
            "StopPointRef": "40004406944A",
            "CommonName": "Gatwick Business Park",
            "Location": {
              "Longitude": -0.189483,
              "Latitude": 51.169662
            }
          },
          {
            "StopPointRef": "40004408007A",
            "CommonName": "Hookwood, Black Horse",
            "Location": {
              "Longitude": -0.191663,
              "Latitude": 51.172789
            }
          },
          {
            "StopPointRef": "40004409015A",
            "CommonName": "Whitmore Way",
            "Location": {
              "Longitude": -0.183146,
              "Latitude": 51.176428
            }
          },
          {
            "StopPointRef": "40004409014B",
            "CommonName": "Court Lodge Road",
            "Location": {
              "Longitude": -0.180989,
              "Latitude": 51.177607
            }
          },
          {
            "StopPointRef": "40004409013B",
            "CommonName": "Vicarage Lane",
            "Location": {
              "Longitude": -0.175871,
              "Latitude": 51.179247
            }
          },
          {
            "StopPointRef": "40004409013D",
            "CommonName": "Horley, Vicarage Lane",
            "Location": {
              "Longitude": -0.17434,
              "Latitude": 51.178888
            }
          },
          {
            "StopPointRef": "40004409012B",
            "CommonName": "The Glebe",
            "Location": {
              "Longitude": -0.172191,
              "Latitude": 51.176561
            }
          },
          {
            "StopPointRef": "40004409011B",
            "CommonName": "Air Balloon",
            "Location": {
              "Longitude": -0.16934,
              "Latitude": 51.173947
            }
          },
          {
            "StopPointRef": "40004409010B",
            "CommonName": "Horley, Lidl",
            "Location": {
              "Longitude": -0.165119,
              "Latitude": 51.17225
            }
          },
          {
            "StopPointRef": "40004409320B",
            "CommonName": "Horley, Town Centre",
            "Location": {
              "Longitude": -0.161927,
              "Latitude": 51.170382
            }
          },
          {
            "StopPointRef": "40004409007B",
            "CommonName": "Horley, Station",
            "Location": {
              "Longitude": -0.160838,
              "Latitude": 51.168962
            }
          },
          {
            "StopPointRef": "40004409005B",
            "CommonName": "Avenue Gardens",
            "Location": {
              "Longitude": -0.156234,
              "Latitude": 51.169342
            }
          },
          {
            "StopPointRef": "40004409007A",
            "CommonName": "Horley, Station",
            "Location": {
              "Longitude": -0.16131,
              "Latitude": 51.168881
            }
          },
          {
            "StopPointRef": "40004409009B",
            "CommonName": "Massetts Road",
            "Location": {
              "Longitude": -0.168962,
              "Latitude": 51.17
            }
          },
          {
            "StopPointRef": "40004409008B",
            "CommonName": "St Bartholomew's Church",
            "Location": {
              "Longitude": -0.175324,
              "Latitude": 51.168809
            }
          },
          {
            "StopPointRef": "4400CY0343",
            "CommonName": "Gatwick, South Terminal",
            "Location": {
              "Longitude": -0.161709,
              "Latitude": 51.157633
            }
          },
          {
            "StopPointRef": "4400CY0433",
            "CommonName": "City Place",
            "Location": {
              "Longitude": -0.162377,
              "Latitude": 51.145172
            }
          },
          {
            "StopPointRef": "4400CY0398",
            "CommonName": "Gatwick Road, North",
            "Location": {
              "Longitude": -0.164639,
              "Latitude": 51.137664
            }
          },
          {
            "StopPointRef": "4400CY0399",
            "CommonName": "Gatwick Road Central",
            "Location": {
              "Longitude": -0.167575,
              "Latitude": 51.133167
            }
          },
          {
            "StopPointRef": "4400CY0427",
            "CommonName": "Gatwick Road South",
            "Location": {
              "Longitude": -0.169999,
              "Latitude": 51.129587
            }
          },
          {
            "StopPointRef": "4400CY0571",
            "CommonName": "Northgate Avenue North",
            "Location": {
              "Longitude": -0.171732,
              "Latitude": 51.123661
            }
          },
          {
            "StopPointRef": "4400CY0573",
            "CommonName": "Northgate Avenue Central",
            "Location": {
              "Longitude": -0.177667,
              "Latitude": 51.11909
            }
          },
          {
            "StopPointRef": "4400CY0575",
            "CommonName": "Northgate Avenue South",
            "Location": {
              "Longitude": -0.180221,
              "Latitude": 51.117407
            }
          },
          {
            "StopPointRef": "4400CY0305",
            "CommonName": "Crawley, The Broadway",
            "Location": {
              "Longitude": -0.188018,
              "Latitude": 51.115954
            }
          },
          {
            "StopPointRef": "4400CY0292",
            "CommonName": "Crawley Bus Station",
            "Location": {
              "Longitude": -0.186742,
              "Latitude": 51.113483
            }
          },
          {
            "StopPointRef": "40004408097B",
            "CommonName": "Abinger Hall Lodge",
            "Location": {
              "Longitude": -0.418996,
              "Latitude": 51.214816
            }
          },
          {
            "StopPointRef": "40004408018B",
            "CommonName": "North Downs Primary School",
            "Location": {
              "Longitude": -0.252899,
              "Latitude": 51.209709
            }
          },
          {
            "StopPointRef": "40004409011A",
            "CommonName": "Air Balloon",
            "Location": {
              "Longitude": -0.169512,
              "Latitude": 51.17409
            }
          },
          {
            "StopPointRef": "40004408101B",
            "CommonName": "Balchins Lane",
            "Location": {
              "Longitude": -0.377607,
              "Latitude": 51.223248
            }
          },
          {
            "StopPointRef": "40004409008A",
            "CommonName": "St Bartholomew's Church",
            "Location": {
              "Longitude": -0.175181,
              "Latitude": 51.168926
            }
          },
          {
            "StopPointRef": "40004408022B",
            "CommonName": "Bunce Common Road",
            "Location": {
              "Longitude": -0.272058,
              "Latitude": 51.208019
            }
          },
          {
            "StopPointRef": "40004408023B",
            "CommonName": "Bunts Place",
            "Location": {
              "Longitude": -0.276922,
              "Latitude": 51.207517
            }
          },
          {
            "StopPointRef": "40004412050B",
            "CommonName": "Chapel Road",
            "LocalityName": "Mole Valley",
            "Location": {
              "Longitude": -0.222735,
              "Latitude": 51.15503
            }
          },
          {
            "StopPointRef": "40004408056B",
            "CommonName": "Chart Lane South",
            "Location": {
              "Longitude": -0.319205,
              "Latitude": 51.222979
            }
          },
          {
            "StopPointRef": "40004408001A",
            "CommonName": "Charlwood, Ifield Road",
            "Location": {
              "Longitude": -0.22405,
              "Latitude": 51.154993
            }
          },
          {
            "StopPointRef": "40004408002A",
            "CommonName": "Charlwood, The Charlwood",
            "Location": {
              "Longitude": -0.219502,
              "Latitude": 51.154431
            }
          },
          {
            "StopPointRef": "4400CY0434",
            "CommonName": "City Place",
            "Location": {
              "Longitude": -0.162664,
              "Latitude": 51.145622
            }
          },
          {
            "StopPointRef": "40004408113A",
            "CommonName": "Council Offices",
            "Location": {
              "Longitude": -0.32329,
              "Latitude": 51.23545
            }
          },
          {
            "StopPointRef": "40004409014A",
            "CommonName": "Court Lodge Road",
            "Location": {
              "Longitude": -0.180631,
              "Latitude": 51.177562
            }
          },
          {
            "StopPointRef": "4400CY0301",
            "CommonName": "Crawley, The Broadway",
            "Location": {
              "Longitude": -0.188275,
              "Latitude": 51.116134
            }
          },
          {
            "StopPointRef": "4400CY0298",
            "CommonName": "Crawley Bus Station",
            "Location": {
              "Longitude": -0.186827,
              "Latitude": 51.113429
            }
          },
          {
            "StopPointRef": "40004408057B",
            "CommonName": "Deepdene House",
            "Location": {
              "Longitude": -0.323483,
              "Latitude": 51.231053
            }
          },
          {
            "StopPointRef": "40004408111B",
            "CommonName": "Dorking, White Horse",
            "Location": {
              "Longitude": -0.330207,
              "Latitude": 51.232596
            }
          },
          {
            "StopPointRef": "40004408003A",
            "CommonName": "Farmfield Hospital",
            "Location": {
              "Longitude": -0.1994,
              "Latitude": 51.159656
            }
          },
          {
            "StopPointRef": "40004408024A",
            "CommonName": "Gadbrook Crossroads",
            "Location": {
              "Longitude": -0.279464,
              "Latitude": 51.209635
            }
          },
          {
            "StopPointRef": "4400CY0400",
            "CommonName": "Gatwick Road Central",
            "Location": {
              "Longitude": -0.16799,
              "Latitude": 51.132951
            }
          },
          {
            "StopPointRef": "40004406944B",
            "CommonName": "Gatwick Business Park",
            "Location": {
              "Longitude": -0.189297,
              "Latitude": 51.169698
            }
          },
          {
            "StopPointRef": "4400CY0342",
            "CommonName": "Gatwick, South Terminal",
            "Location": {
              "Longitude": -0.162466,
              "Latitude": 51.157732
            }
          },
          {
            "StopPointRef": "4400CY0395",
            "CommonName": "Gatwick Road, North",
            "Location": {
              "Longitude": -0.164583,
              "Latitude": 51.138518
            }
          },
          {
            "StopPointRef": "4400CY0402",
            "CommonName": "Gatwick Road South",
            "Location": {
              "Longitude": -0.169887,
              "Latitude": 51.130855
            }
          },
          {
            "StopPointRef": "40004408108B",
            "CommonName": "Glebe Road",
            "Location": {
              "Longitude": -0.341026,
              "Latitude": 51.231243
            }
          },
          {
            "StopPointRef": "40004408801F",
            "CommonName": "Hollow Lane",
            "Location": {
              "Longitude": -0.399012,
              "Latitude": 51.206005
            }
          },
          {
            "StopPointRef": "40004408007B",
            "CommonName": "Hookwood, Black Horse",
            "Location": {
              "Longitude": -0.19142,
              "Latitude": 51.17278
            }
          },
          {
            "StopPointRef": "40004409013A",
            "CommonName": "Horley, Vicarage Lane/Lee Street",
            "Location": {
              "Longitude": -0.174311,
              "Latitude": 51.178744
            }
          },
          {
            "StopPointRef": "40004409320A",
            "CommonName": "Horley, Town Centre",
            "Location": {
              "Longitude": -0.162814,
              "Latitude": 51.171056
            }
          },
          {
            "StopPointRef": "40004409010A",
            "CommonName": "Horley, Lidl",
            "Location": {
              "Longitude": -0.165863,
              "Latitude": 51.172447
            }
          },
          {
            "StopPointRef": "40004408017C",
            "CommonName": "Leigh, Plough",
            "Location": {
              "Longitude": -0.250074,
              "Latitude": 51.208131
            }
          },
          {
            "StopPointRef": "40004408004A",
            "CommonName": "Little Deeping Farm",
            "Location": {
              "Longitude": -0.195545,
              "Latitude": 51.162464
            }
          },
          {
            "StopPointRef": "40004408099B",
            "CommonName": "Manor Farm",
            "Location": {
              "Longitude": -0.400001,
              "Latitude": 51.214813
            }
          },
          {
            "StopPointRef": "40004409009A",
            "CommonName": "Massetts Road",
            "Location": {
              "Longitude": -0.16942,
              "Latitude": 51.17
            }
          },
          {
            "StopPointRef": "40004408105B",
            "CommonName": "Milton Avenue",
            "Location": {
              "Longitude": -0.360342,
              "Latitude": 51.226076
            }
          },
          {
            "StopPointRef": "40004408106B",
            "CommonName": "Milton Court",
            "Location": {
              "Longitude": -0.353473,
              "Latitude": 51.226694
            }
          },
          {
            "StopPointRef": "40004408112A",
            "CommonName": "Moores Road",
            "Location": {
              "Longitude": -0.326865,
              "Latitude": 51.234382
            }
          },
          {
            "StopPointRef": "4400CY0542",
            "CommonName": "Napier Way",
            "Location": {
              "Longitude": -0.170054,
              "Latitude": 51.128374
            }
          },
          {
            "StopPointRef": "4400CY0574",
            "CommonName": "Northgate Avenue South",
            "Location": {
              "Longitude": -0.180379,
              "Latitude": 51.117479
            }
          },
          {
            "StopPointRef": "4400CY0572",
            "CommonName": "Northgate Avenue Central",
            "Location": {
              "Longitude": -0.178153,
              "Latitude": 51.118874
            }
          },
          {
            "StopPointRef": "4400CY0576",
            "CommonName": "Northgate Avenue North",
            "Location": {
              "Longitude": -0.172532,
              "Latitude": 51.123391
            }
          },
          {
            "StopPointRef": "40004409223B",
            "CommonName": "Norwood Hill, Fox Revived",
            "Location": {
              "Longitude": -0.226801,
              "Latitude": 51.177583
            }
          },
          {
            "StopPointRef": "40004408096B",
            "CommonName": "Paddington Farm",
            "Location": {
              "Longitude": -0.425823,
              "Latitude": 51.214581
            }
          },
          {
            "StopPointRef": "40004408005B",
            "CommonName": "Povey Cross",
            "Location": {
              "Longitude": -0.186884,
              "Latitude": 51.164243
            }
          },
          {
            "StopPointRef": "40004408020B",
            "CommonName": "Recreation Ground",
            "Location": {
              "Longitude": -0.260886,
              "Latitude": 51.209734
            }
          },
          {
            "StopPointRef": "40004408019B",
            "CommonName": "Seven Stars",
            "Location": {
              "Longitude": -0.25731,
              "Latitude": 51.210261
            }
          },
          {
            "StopPointRef": "40004408107B",
            "CommonName": "Sondes Place Drive",
            "Location": {
              "Longitude": -0.343827,
              "Latitude": 51.230203
            }
          },
          {
            "StopPointRef": "40004408058B",
            "CommonName": "South Drive",
            "Location": {
              "Longitude": -0.322562,
              "Latitude": 51.233105
            }
          },
          {
            "StopPointRef": "40004408098A",
            "CommonName": "The Crossways",
            "Location": {
              "Longitude": -0.413272,
              "Latitude": 51.214984
            }
          },
          {
            "StopPointRef": "40004408104B",
            "CommonName": "Broomfield Park",
            "Location": {
              "Longitude": -0.363446,
              "Latitude": 51.225547
            }
          },
          {
            "StopPointRef": "40004409012A",
            "CommonName": "The Glebe",
            "LocalityName": "Reigate and Banstead",
            "Location": {
              "Longitude": -0.17219,
              "Latitude": 51.176255
            }
          },
          {
            "StopPointRef": "40004409013C",
            "CommonName": "Vicarage Lane",
            "Location": {
              "Longitude": -0.1762,
              "Latitude": 51.17904
            }
          },
          {
            "StopPointRef": "40004408103B",
            "CommonName": "Westcott Green",
            "Location": {
              "Longitude": -0.367066,
              "Latitude": 51.22517
            }
          },
          {
            "StopPointRef": "40004409015B",
            "CommonName": "Whitmore Way",
            "Location": {
              "Longitude": -0.182832,
              "Latitude": 51.176509
            }
          },
          {
            "StopPointRef": "40004408100B",
            "CommonName": "Wotton Hatch",
            "Location": {
              "Longitude": -0.389178,
              "Latitude": 51.216935
            }
          }
        ]
      }
    ],
    "RouteSections": [
      {
        "RouteSection": [
          {
            "RouteLink": [
              {
                "From": {
                  "StopPointRef": "40004408085A"
                },
                "To": {
                  "StopPointRef": "40004408088A"
                },
                "Direction": "inbound",
                "Track": {
                  "Mapping": {
                    "Location": [
                      {
                        "Longitude": -0.335577,
                        "Latitude": 51.227181
                      },
                      {
                        "Longitude": -0.33562,
                        "Latitude": 51.227154
                      },
                      {
                        "Longitude": -0.336034,
                        "Latitude": 51.227001
                      },
                      {
                        "Longitude": -0.33612,
                        "Latitude": 51.226973
                      },
                      {
                        "Longitude": -0.336249,
                        "Latitude": 51.226982
                      },
                      {
                        "Longitude": -0.336321,
                        "Latitude": 51.227027
                      },
                      {
                        "Longitude": -0.336364,
                        "Latitude": 51.227072
                      },
                      {
                        "Longitude": -0.336407,
                        "Latitude": 51.227117
                      },
                      {
                        "Longitude": -0.336537,
                        "Latitude": 51.227332
                      },
                      {
                        "Longitude": -0.336609,
                        "Latitude": 51.22744
                      },
                      {
                        "Longitude": -0.336725,
                        "Latitude": 51.2277
                      },
                      {
                        "Longitude": -0.336915,
                        "Latitude": 51.228455
                      },
                      {
                        "Longitude": -0.33693,
                        "Latitude": 51.228491
                      },
                      {
                        "Longitude": -0.336989,
                        "Latitude": 51.228761
                      },
                      {
                        "Longitude": -0.337047,
                        "Latitude": 51.228985
                      },
                      {
                        "Longitude": -0.337235,
                        "Latitude": 51.229336
                      },
                      {
                        "Longitude": -0.337322,
                        "Latitude": 51.229515
                      }
                    ]
                  }
                },
                "id": "i22_2_1"
              },
              {
                "From": {
                  "StopPointRef": "40004408088A"
                },
                "To": {
                  "StopPointRef": "40004408110A"
                },
                "Direction": "inbound",
                "Track": {
                  "Mapping": {
                    "Location": [
                      {
                        "Longitude": -0.337322,
                        "Latitude": 51.229515
                      },
                      {
                        "Longitude": -0.337481,
                        "Latitude": 51.229848
                      },
                      {
                        "Longitude": -0.337829,
                        "Latitude": 51.230611
                      },
                      {
                        "Longitude": -0.338133,
                        "Latitude": 51.231177
                      },
                      {
                        "Longitude": -0.338176,
                        "Latitude": 51.231303
                      },
                      {
                        "Longitude": -0.338176,
                        "Latitude": 51.231366
                      },
                      {
                        "Longitude": -0.338162,
                        "Latitude": 51.231393
                      },
                      {
                        "Longitude": -0.338092,
                        "Latitude": 51.23168
                      },
                      {
                        "Longitude": -0.337849,
                        "Latitude": 51.23169
                      },
                      {
                        "Longitude": -0.33762,
                        "Latitude": 51.231708
                      },
                      {
                        "Longitude": -0.336933,
                        "Latitude": 51.231782
                      },
                      {
                        "Longitude": -0.336417,
                        "Latitude": 51.231774
                      },
                      {
                        "Longitude": -0.335759,
                        "Latitude": 51.231766
                      },
                      {
                        "Longitude": -0.3354,
                        "Latitude": 51.231758
                      },
                      {
                        "Longitude": -0.335315,
                        "Latitude": 51.231749
                      }
                    ]
                  }
                },
                "id": "i22_2_2"
              },
              {
                "From": {
                  "StopPointRef": "40004408110A"
                },
                "To": {
                  "StopPointRef": "40004408111A"
                },
                "Direction": "inbound",
                "Track": {
                  "Mapping": {
                    "Location": [
                      {
                        "Longitude": -0.335315,
                        "Latitude": 51.231749
                      },
                      {
                        "Longitude": -0.335085,
                        "Latitude": 51.231732
                      },
                      {
                        "Longitude": -0.333638,
                        "Latitude": 51.231609
                      },
                      {
                        "Longitude": -0.333123,
                        "Latitude": 51.231565
                      },
                      {
                        "Longitude": -0.333065,
                        "Latitude": 51.231556
                      },
                      {
                        "Longitude": -0.332922,
                        "Latitude": 51.231538
                      },
                      {
                        "Longitude": -0.332836,
                        "Latitude": 51.231529
                      },
                      {
                        "Longitude": -0.332793,
                        "Latitude": 51.231538
                      },
                      {
                        "Longitude": -0.332579,
                        "Latitude": 51.231584
                      },
                      {
                        "Longitude": -0.332193,
                        "Latitude": 51.231719
                      },
                      {
                        "Longitude": -0.332136,
                        "Latitude": 51.231764
                      },
                      {
                        "Longitude": -0.331878,
                        "Latitude": 51.2319
                      },
                      {
                        "Longitude": -0.330993,
                        "Latitude": 51.232333
                      },
                      {
                        "Longitude": -0.330779,
                        "Latitude": 51.232433
                      },
                      {
                        "Longitude": -0.330479,
                        "Latitude": 51.232577
                      },
                      {
                        "Longitude": -0.329993,
                        "Latitude": 51.232776
                      }
                    ]
                  }
                },
                "id": "i22_2_3"
              },
              {
                "From": {
                  "StopPointRef": "40004408111A"
                },
                "To": {
                  "StopPointRef": "40004408112B"
                },
                "Direction": "inbound",
                "Track": {
                  "Mapping": {
                    "Location": [
                      {
                        "Longitude": -0.329993,
                        "Latitude": 51.232776
                      },
                      {
                        "Longitude": -0.32985,
                        "Latitude": 51.232839
                      },
                      {
                        "Longitude": -0.329736,
                        "Latitude": 51.232893
                      },
                      {
                        "Longitude": -0.328878,
                        "Latitude": 51.233317
                      },
                      {
                        "Longitude": -0.328265,
                        "Latitude": 51.233759
                      },
                      {
                        "Longitude": -0.328051,
                        "Latitude": 51.233912
                      },
                      {
                        "Longitude": -0.32768,
                        "Latitude": 51.234147
                      },
                      {
                        "Longitude": -0.327194,
                        "Latitude": 51.234346
                      }
                    ]
                  }
                },
                "id": "i22_2_4"
              },
              {
                "From": {
                  "StopPointRef": "40004408112B"
                },
                "To": {
                  "StopPointRef": "40004408113B"
                },
                "Direction": "inbound",
                "Track": {
                  "Mapping": {
                    "Location": [
                      {
                        "Longitude": -0.327194,
                        "Latitude": 51.234346
                      },
                      {
                        "Longitude": -0.327151,
                        "Latitude": 51.234364
                      },
                      {
                        "Longitude": -0.326651,
                        "Latitude": 51.234536
                      },
                      {
                        "Longitude": -0.326293,
                        "Latitude": 51.234689
                      },
                      {
                        "Longitude": -0.325436,
                        "Latitude": 51.235041
                      },
                      {
                        "Longitude": -0.325021,
                        "Latitude": 51.235186
                      },
                      {
                        "Longitude": -0.324964,
                        "Latitude": 51.235204
                      },
                      {
                        "Longitude": -0.324707,
                        "Latitude": 51.235268
                      }
                    ]
                  }
                },
                "id": "i22_2_5"
              },
              {
                "From": {
                  "StopPointRef": "40004408113B"
                },
                "To": {
                  "StopPointRef": "40004408115A"
                },
                "Direction": "inbound",
                "Track": {
                  "Mapping": {
                    "Location": [
                      {
                        "Longitude": -0.324707,
                        "Latitude": 51.235268
                      },
                      {
                        "Longitude": -0.324306,
                        "Latitude": 51.235358
                      },
                      {
                        "Longitude": -0.323505,
                        "Latitude": 51.235468
                      },
                      {
                        "Longitude": -0.323061,
                        "Latitude": 51.235532
                      },
                      {
                        "Longitude": -0.322804,
                        "Latitude": 51.235649
                      },
                      {
                        "Longitude": -0.322647,
                        "Latitude": 51.235757
                      },
                      {
                        "Longitude": -0.322618,
                        "Latitude": 51.235802
                      },
                      {
                        "Longitude": -0.322806,
                        "Latitude": 51.236098
                      },
                      {
                        "Longitude": -0.323656,
                        "Latitude": 51.237167
                      },
                      {
                        "Longitude": -0.323915,
                        "Latitude": 51.237463
                      },
                      {
                        "Longitude": -0.324275,
                        "Latitude": 51.237777
                      },
                      {
                        "Longitude": -0.324548,
                        "Latitude": 51.23801
                      },
                      {
                        "Longitude": -0.324966,
                        "Latitude": 51.238441
                      },
                      {
                        "Longitude": -0.325139,
                        "Latitude": 51.23871
                      },
                      {
                        "Longitude": -0.325356,
                        "Latitude": 51.239069
                      },
                      {
                        "Longitude": -0.325574,
                        "Latitude": 51.23968
                      },
                      {
                        "Longitude": -0.325631,
                        "Latitude": 51.239806
                      },
                      {
                        "Longitude": -0.325374,
                        "Latitude": 51.239842
                      },
                      {
                        "Longitude": -0.325216,
                        "Latitude": 51.239879
                      },
                      {
                        "Longitude": -0.325102,
                        "Latitude": 51.239897
                      },
                      {
                        "Longitude": -0.324874,
                        "Latitude": 51.240095
                      },
                      {
                        "Longitude": -0.324518,
                        "Latitude": 51.240464
                      },
                      {
                        "Longitude": -0.324647,
                        "Latitude": 51.2405
                      },
                      {
                        "Longitude": -0.324718,
                        "Latitude": 51.240545
                      },
                      {
                        "Longitude": -0.324776,
                        "Latitude": 51.240599
                      },
                      {
                        "Longitude": -0.324748,
                        "Latitude": 51.240698
                      },
                      {
                        "Longitude": -0.324691,
                        "Latitude": 51.240743
                      },
                      {
                        "Longitude": -0.324591,
                        "Latitude": 51.240779
                      },
                      {
                        "Longitude": -0.32449,
                        "Latitude": 51.240779
                      },
                      {
                        "Longitude": -0.324419,
                        "Latitude": 51.240752
                      }
                    ]
                  }
                },
                "id": "i22_2_6"
              },
              {
                "From": {
                  "StopPointRef": "40004408115A"
                },
                "To": {
                  "StopPointRef": "40004408114A"
                },
                "Direction": "inbound",
                "Track": {
                  "Mapping": {
                    "Location": [
                      {
                        "Longitude": -0.324419,
                        "Latitude": 51.240752
                      },
                      {
                        "Longitude": -0.32439,
                        "Latitude": 51.240743
                      },
                      {
                        "Longitude": -0.324361,
                        "Latitude": 51.24069
                      },
                      {
                        "Longitude": -0.324361,
                        "Latitude": 51.240609
                      },
                      {
                        "Longitude": -0.324518,
                        "Latitude": 51.240464
                      },
                      {
                        "Longitude": -0.324874,
                        "Latitude": 51.240095
                      },
                      {
                        "Longitude": -0.325102,
                        "Latitude": 51.239897
                      },
                      {
                        "Longitude": -0.325187,
                        "Latitude": 51.239789
                      },
                      {
                        "Longitude": -0.32533,
                        "Latitude": 51.239717
                      },
                      {
                        "Longitude": -0.324824,
                        "Latitude": 51.238639
                      },
                      {
                        "Longitude": -0.324737,
                        "Latitude": 51.238486
                      },
                      {
                        "Longitude": -0.324607,
                        "Latitude": 51.238343
                      },
                      {
                        "Longitude": -0.324362,
                        "Latitude": 51.238082
                      },
                      {
                        "Longitude": -0.324075,
                        "Latitude": 51.237813
                      },
                      {
                        "Longitude": -0.323888,
                        "Latitude": 51.237616
                      }
                    ]
                  }
                },
                "id": "i22_2_7"
              },
              {
                "From": {
                  "StopPointRef": "40004408114A"
                },
                "To": {
                  "StopPointRef": "40004408058A"
                },
                "Direction": "inbound",
                "Track": {
                  "Mapping": {
                    "Location": [
                      {
                        "Longitude": -0.323888,
                        "Latitude": 51.237616
                      },
                      {
                        "Longitude": -0.323801,
                        "Latitude": 51.237517
                      },
                      {
                        "Longitude": -0.323513,
                        "Latitude": 51.237167
                      },
                      {
                        "Longitude": -0.322692,
                        "Latitude": 51.236135
                      },
                      {
                        "Longitude": -0.322619,
                        "Latitude": 51.236036
                      },
                      {
                        "Longitude": -0.322289,
                        "Latitude": 51.235884
                      },
                      {
                        "Longitude": -0.322218,
                        "Latitude": 51.235866
                      },
                      {
                        "Longitude": -0.32216,
                        "Latitude": 51.23583
                      },
                      {
                        "Longitude": -0.322117,
                        "Latitude": 51.235785
                      },
                      {
                        "Longitude": -0.322088,
                        "Latitude": 51.235749
                      },
                      {
                        "Longitude": -0.322088,
                        "Latitude": 51.23574
                      },
                      {
                        "Longitude": -0.322088,
                        "Latitude": 51.235686
                      },
                      {
                        "Longitude": -0.322116,
                        "Latitude": 51.235632
                      },
                      {
                        "Longitude": -0.322115,
                        "Latitude": 51.235452
                      },
                      {
                        "Longitude": -0.322115,
                        "Latitude": 51.235408
                      },
                      {
                        "Longitude": -0.322157,
                        "Latitude": 51.235291
                      },
                      {
                        "Longitude": -0.322395,
                        "Latitude": 51.234076
                      },
                      {
                        "Longitude": -0.32245,
                        "Latitude": 51.233627
                      },
                      {
                        "Longitude": -0.322491,
                        "Latitude": 51.233303
                      },
                      {
                        "Longitude": -0.322547,
                        "Latitude": 51.232943
                      }
                    ]
                  }
                },
                "id": "i22_2_8"
              },
              {
                "From": {
                  "StopPointRef": "40004408058A"
                },
                "To": {
                  "StopPointRef": "40004408057A"
                },
                "Direction": "inbound",
                "Track": {
                  "Mapping": {
                    "Location": [
                      {
                        "Longitude": -0.322547,
                        "Latitude": 51.232943
                      },
                      {
                        "Longitude": -0.32263,
                        "Latitude": 51.232296
                      },
                      {
                        "Longitude": -0.322728,
                        "Latitude": 51.231864
                      },
                      {
                        "Longitude": -0.322827,
                        "Latitude": 51.231666
                      },
                      {
                        "Longitude": -0.323055,
                        "Latitude": 51.231369
                      },
                      {
                        "Longitude": -0.323368,
                        "Latitude": 51.231081
                      },
                      {
                        "Longitude": -0.323397,
                        "Latitude": 51.231054
                      },
                      {
                        "Longitude": -0.323511,
                        "Latitude": 51.230972
                      }
                    ]
                  }
                },
                "id": "i22_2_9"
              },
              {
                "From": {
                  "StopPointRef": "40004408057A"
                },
                "To": {
                  "StopPointRef": "40004408056A"
                },
                "Direction": "inbound",
                "Track": {
                  "Mapping": {
                    "Location": [
                      {
                        "Longitude": -0.323511,
                        "Latitude": 51.230972
                      },
                      {
                        "Longitude": -0.323911,
                        "Latitude": 51.230711
                      },
                      {
                        "Longitude": -0.324182,
                        "Latitude": 51.230522
                      },
                      {
                        "Longitude": -0.32451,
                        "Latitude": 51.230251
                      },
                      {
                        "Longitude": -0.324595,
                        "Latitude": 51.230143
                      },
                      {
                        "Longitude": -0.324723,
                        "Latitude": 51.229972
                      },
                      {
                        "Longitude": -0.324836,
                        "Latitude": 51.229711
                      },
                      {
                        "Longitude": -0.324864,
                        "Latitude": 51.229423
                      },
                      {
                        "Longitude": -0.324805,
                        "Latitude": 51.229073
                      },
                      {
                        "Longitude": -0.324775,
                        "Latitude": 51.228965
                      },
                      {
                        "Longitude": -0.324674,
                        "Latitude": 51.228759
                      },
                      {
                        "Longitude": -0.324429,
                        "Latitude": 51.228444
                      },
                      {
                        "Longitude": -0.324185,
                        "Latitude": 51.228256
                      },
                      {
                        "Longitude": -0.323926,
                        "Latitude": 51.228104
                      },
                      {
                        "Longitude": -0.322649,
                        "Latitude": 51.227531
                      },
                      {
                        "Longitude": -0.322075,
                        "Latitude": 51.227226
                      },
                      {
                        "Longitude": -0.321745,
                        "Latitude": 51.227038
                      },
                      {
                        "Longitude": -0.321486,
                        "Latitude": 51.226859
                      },
                      {
                        "Longitude": -0.320926,
                        "Latitude": 51.226437
                      },
                      {
                        "Longitude": -0.320868,
                        "Latitude": 51.226392
                      },
                      {
                        "Longitude": -0.320537,
                        "Latitude": 51.226033
                      },
                      {
                        "Longitude": -0.320465,
                        "Latitude": 51.225926
                      },
                      {
                        "Longitude": -0.319945,
                        "Latitude": 51.225055
                      },
                      {
                        "Longitude": -0.319871,
                        "Latitude": 51.224569
                      },
                      {
                        "Longitude": -0.319868,
                        "Latitude": 51.223958
                      },
                      {
                        "Longitude": -0.319868,
                        "Latitude": 51.223895
                      },
                      {
                        "Longitude": -0.319782,
                        "Latitude": 51.223868
                      },
                      {
                        "Longitude": -0.319724,
                        "Latitude": 51.223841
                      },
                      {
                        "Longitude": -0.319667,
                        "Latitude": 51.223806
                      },
                      {
                        "Longitude": -0.319523,
                        "Latitude": 51.223608
                      },
                      {
                        "Longitude": -0.319422,
                        "Latitude": 51.223482
                      },
                      {
                        "Longitude": -0.319379,
                        "Latitude": 51.22341
                      },
                      {
                        "Longitude": -0.319162,
                        "Latitude": 51.223087
                      }
                    ]
                  }
                },
                "id": "i22_2_10"
              },
              {
                "From": {
                  "StopPointRef": "40004408056A"
                },
                "To": {
                  "StopPointRef": "40004408055A"
                },
                "Direction": "inbound",
                "Track": {
                  "Mapping": {
                    "Location": [
                      {
                        "Longitude": -0.319162,
                        "Latitude": 51.223087
                      },
                      {
                        "Longitude": -0.318802,
                        "Latitude": 51.22254
                      },
                      {
                        "Longitude": -0.318284,
                        "Latitude": 51.222064
                      },
                      {
                        "Longitude": -0.317535,
                        "Latitude": 51.221202
                      },
                      {
                        "Longitude": -0.317032,
                        "Latitude": 51.220637
                      },
                      {
                        "Longitude": -0.316485,
                        "Latitude": 51.220045
                      },
                      {
                        "Longitude": -0.316384,
                        "Latitude": 51.219928
                      },
                      {
                        "Longitude": -0.316627,
                        "Latitude": 51.219846
                      },
                      {
                        "Longitude": -0.316727,
                        "Latitude": 51.219873
                      },
                      {
                        "Longitude": -0.317099,
                        "Latitude": 51.219729
                      },
                      {
                        "Longitude": -0.317471,
                        "Latitude": 51.219773
                      },
                      {
                        "Longitude": -0.317385,
                        "Latitude": 51.219692
                      }
                    ]
                  }
                },
                "id": "i22_2_11"
              },
              {
                "From": {
                  "StopPointRef": "40004408055A"
                },
                "To": {
                  "StopPointRef": "40004408024B"
                },
                "Direction": "inbound",
                "Track": {
                  "Mapping": {
                    "Location": [
                      {
                        "Longitude": -0.317385,
                        "Latitude": 51.219692
                      },
                      {
                        "Longitude": -0.317471,
                        "Latitude": 51.219773
                      },
                      {
                        "Longitude": -0.317099,
                        "Latitude": 51.219729
                      },
                      {
                        "Longitude": -0.316727,
                        "Latitude": 51.219873
                      },
                      {
                        "Longitude": -0.316713,
                        "Latitude": 51.219954
                      },
                      {
                        "Longitude": -0.316485,
                        "Latitude": 51.220045
                      },
                      {
                        "Longitude": -0.316384,
                        "Latitude": 51.219928
                      },
                      {
                        "Longitude": -0.315635,
                        "Latitude": 51.219066
                      },
                      {
                        "Longitude": -0.314988,
                        "Latitude": 51.218312
                      },
                      {
                        "Longitude": -0.3148,
                        "Latitude": 51.217998
                      },
                      {
                        "Longitude": -0.314786,
                        "Latitude": 51.217971
                      },
                      {
                        "Longitude": -0.314626,
                        "Latitude": 51.217531
                      },
                      {
                        "Longitude": -0.314264,
                        "Latitude": 51.216551
                      },
                      {
                        "Longitude": -0.314177,
                        "Latitude": 51.216327
                      },
                      {
                        "Longitude": -0.313669,
                        "Latitude": 51.214952
                      },
                      {
                        "Longitude": -0.313524,
                        "Latitude": 51.214566
                      },
                      {
                        "Longitude": -0.313075,
                        "Latitude": 51.213461
                      },
                      {
                        "Longitude": -0.312974,
                        "Latitude": 51.213263
                      },
                      {
                        "Longitude": -0.312484,
                        "Latitude": 51.212635
                      },
                      {
                        "Longitude": -0.312354,
                        "Latitude": 51.212401
                      },
                      {
                        "Longitude": -0.312195,
                        "Latitude": 51.212051
                      },
                      {
                        "Longitude": -0.311817,
                        "Latitude": 51.210775
                      },
                      {
                        "Longitude": -0.311788,
                        "Latitude": 51.210577
                      },
                      {
                        "Longitude": -0.311787,
                        "Latitude": 51.210442
                      },
                      {
                        "Longitude": -0.311828,
                        "Latitude": 51.210047
                      },
                      {
                        "Longitude": -0.311855,
                        "Latitude": 51.209741
                      },
                      {
                        "Longitude": -0.311853,
                        "Latitude": 51.209265
                      },
                      {
                        "Longitude": -0.311777,
                        "Latitude": 51.208366
                      },
                      {
                        "Longitude": -0.311732,
                        "Latitude": 51.207853
                      },
                      {
                        "Longitude": -0.311688,
                        "Latitude": 51.207629
                      },
                      {
                        "Longitude": -0.311601,
                        "Latitude": 51.207386
                      },
                      {
                        "Longitude": -0.311197,
                        "Latitude": 51.206775
                      },
                      {
                        "Longitude": -0.310549,
                        "Latitude": 51.205932
                      },
                      {
                        "Longitude": -0.310146,
                        "Latitude": 51.205411
                      },
                      {
                        "Longitude": -0.309731,
                        "Latitude": 51.205313
                      },
                      {
                        "Longitude": -0.309043,
                        "Latitude": 51.20526
                      },
                      {
                        "Longitude": -0.308628,
                        "Latitude": 51.205288
                      },
                      {
                        "Longitude": -0.308157,
                        "Latitude": 51.205423
                      },
                      {
                        "Longitude": -0.307186,
                        "Latitude": 51.205911
                      },
                      {
                        "Longitude": -0.306743,
                        "Latitude": 51.206037
                      },
                      {
                        "Longitude": -0.306414,
                        "Latitude": 51.206047
                      },
                      {
                        "Longitude": -0.305726,
                        "Latitude": 51.205931
                      },
                      {
                        "Longitude": -0.305053,
                        "Latitude": 51.205771
                      },
                      {
                        "Longitude": -0.304565,
                        "Latitude": 51.205529
                      },
                      {
                        "Longitude": -0.304192,
                        "Latitude": 51.205404
                      },
                      {
                        "Longitude": -0.304164,
                        "Latitude": 51.205395
                      },
                      {
                        "Longitude": -0.303834,
                        "Latitude": 51.205341
                      },
                      {
                        "Longitude": -0.302418,
                        "Latitude": 51.205407
                      },
                      {
                        "Longitude": -0.30103,
                        "Latitude": 51.20558
                      },
                      {
                        "Longitude": -0.299929,
                        "Latitude": 51.205654
                      },
                      {
                        "Longitude": -0.298927,
                        "Latitude": 51.205683
                      },
                      {
                        "Longitude": -0.297997,
                        "Latitude": 51.205702
                      },
                      {
                        "Longitude": -0.297539,
                        "Latitude": 51.205712
                      },
                      {
                        "Longitude": -0.297281,
                        "Latitude": 51.205712
                      },
                      {
                        "Longitude": -0.297253,
                        "Latitude": 51.205713
                      },
                      {
                        "Longitude": -0.296952,
                        "Latitude": 51.20574
                      },
                      {
                        "Longitude": -0.296723,
                        "Latitude": 51.205749
                      },
                      {
                        "Longitude": -0.296065,
                        "Latitude": 51.205858
                      },
                      {
                        "Longitude": -0.294578,
                        "Latitude": 51.206095
                      },
                      {
                        "Longitude": -0.293992,
                        "Latitude": 51.206222
                      },
                      {
                        "Longitude": -0.291735,
                        "Latitude": 51.207376
                      },
                      {
                        "Longitude": -0.289919,
                        "Latitude": 51.207838
                      },
                      {
                        "Longitude": -0.288848,
                        "Latitude": 51.208316
                      },
                      {
                        "Longitude": -0.286961,
                        "Latitude": 51.208966
                      },
                      {
                        "Longitude": -0.286547,
                        "Latitude": 51.209102
                      },
                      {
                        "Longitude": -0.286404,
                        "Latitude": 51.209138
                      },
                      {
                        "Longitude": -0.286232,
                        "Latitude": 51.209174
                      },
                      {
                        "Longitude": -0.284458,
                        "Latitude": 51.209366
                      },
                      {
                        "Longitude": -0.283485,
                        "Latitude": 51.20944
                      },
                      {
                        "Longitude": -0.281997,
                        "Latitude": 51.209541
                      },
                      {
                        "Longitude": -0.281196,
                        "Latitude": 51.209722
                      },
                      {
                        "Longitude": -0.279766,
                        "Latitude": 51.210048
                      },
                      {
                        "Longitude": -0.279738,
                        "Latitude": 51.210012
                      }
                    ]
                  }
                },
                "id": "i22_2_12"
              },
              {
                "From": {
                  "StopPointRef": "40004408024B"
                },
                "To": {
                  "StopPointRef": "40004408023A"
                },
                "Direction": "inbound",
                "Track": {
                  "Mapping": {
                    "Location": [
                      {
                        "Longitude": -0.279738,
                        "Latitude": 51.210012
                      },
                      {
                        "Longitude": -0.278573,
                        "Latitude": 51.20862
                      },
                      {
                        "Longitude": -0.278487,
                        "Latitude": 51.208548
                      },
                      {
                        "Longitude": -0.278214,
                        "Latitude": 51.208342
                      },
                      {
                        "Longitude": -0.278142,
                        "Latitude": 51.208288
                      },
                      {
                        "Longitude": -0.277439,
                        "Latitude": 51.207912
                      },
                      {
                        "Longitude": -0.277411,
                        "Latitude": 51.207903
                      },
                      {
                        "Longitude": -0.27688,
                        "Latitude": 51.207652
                      }
                    ]
                  }
                },
                "id": "i22_2_13"
              },
              {
                "From": {
                  "StopPointRef": "40004408023A"
                },
                "To": {
                  "StopPointRef": "40004408022A"
                },
                "Direction": "inbound",
                "Track": {
                  "Mapping": {
                    "Location": [
                      {
                        "Longitude": -0.27688,
                        "Latitude": 51.207652
                      },
                      {
                        "Longitude": -0.276192,
                        "Latitude": 51.20732
                      },
                      {
                        "Longitude": -0.275705,
                        "Latitude": 51.207411
                      },
                      {
                        "Longitude": -0.274704,
                        "Latitude": 51.207592
                      },
                      {
                        "Longitude": -0.270757,
                        "Latitude": 51.208308
                      }
                    ]
                  }
                },
                "id": "i22_2_14"
              },
              {
                "From": {
                  "StopPointRef": "40004408022A"
                },
                "To": {
                  "StopPointRef": "40004408020C"
                },
                "Direction": "inbound",
                "Track": {
                  "Mapping": {
                    "Location": [
                      {
                        "Longitude": -0.270757,
                        "Latitude": 51.208308
                      },
                      {
                        "Longitude": -0.268039,
                        "Latitude": 51.208798
                      },
                      {
                        "Longitude": -0.266766,
                        "Latitude": 51.209088
                      },
                      {
                        "Longitude": -0.265765,
                        "Latitude": 51.20917
                      },
                      {
                        "Longitude": -0.263004,
                        "Latitude": 51.209695
                      },
                      {
                        "Longitude": -0.262475,
                        "Latitude": 51.209768
                      },
                      {
                        "Longitude": -0.260886,
                        "Latitude": 51.20977
                      }
                    ]
                  }
                },
                "id": "i22_2_15"
              },
              {
                "From": {
                  "StopPointRef": "40004408020C"
                },
                "To": {
                  "StopPointRef": "40004408947A"
                },
                "Direction": "inbound",
                "Track": {
                  "Mapping": {
                    "Location": [
                      {
                        "Longitude": -0.260886,
                        "Latitude": 51.20977
                      },
                      {
                        "Longitude": -0.258897,
                        "Latitude": 51.209773
                      },
                      {
                        "Longitude": -0.258768,
                        "Latitude": 51.209782
                      },
                      {
                        "Longitude": -0.258582,
                        "Latitude": 51.20981
                      },
                      {
                        "Longitude": -0.258339,
                        "Latitude": 51.2099
                      },
                      {
                        "Longitude": -0.258082,
                        "Latitude": 51.20999
                      },
                      {
                        "Longitude": -0.257939,
                        "Latitude": 51.210035
                      },
                      {
                        "Longitude": -0.257796,
                        "Latitude": 51.210098
                      },
                      {
                        "Longitude": -0.257681,
                        "Latitude": 51.210152
                      },
                      {
                        "Longitude": -0.257524,
                        "Latitude": 51.210261
                      },
                      {
                        "Longitude": -0.257396,
                        "Latitude": 51.210351
                      }
                    ]
                  }
                },
                "id": "i22_2_16"
              },
              {
                "From": {
                  "StopPointRef": "40004408947A"
                },
                "To": {
                  "StopPointRef": "40004408018C"
                },
                "Direction": "inbound",
                "Track": {
                  "Mapping": {
                    "Location": [
                      {
                        "Longitude": -0.257396,
                        "Latitude": 51.210351
                      },
                      {
                        "Longitude": -0.257353,
                        "Latitude": 51.210378
                      },
                      {
                        "Longitude": -0.257267,
                        "Latitude": 51.210432
                      },
                      {
                        "Longitude": -0.257082,
                        "Latitude": 51.210576
                      },
                      {
                        "Longitude": -0.256996,
                        "Latitude": 51.210621
                      },
                      {
                        "Longitude": -0.256953,
                        "Latitude": 51.210639
                      },
                      {
                        "Longitude": -0.256839,
                        "Latitude": 51.210675
                      },
                      {
                        "Longitude": -0.256681,
                        "Latitude": 51.210711
                      },
                      {
                        "Longitude": -0.255923,
                        "Latitude": 51.210865
                      },
                      {
                        "Longitude": -0.255265,
                        "Latitude": 51.21092
                      },
                      {
                        "Longitude": -0.25505,
                        "Latitude": 51.210893
                      },
                      {
                        "Longitude": -0.254792,
                        "Latitude": 51.210804
                      },
                      {
                        "Longitude": -0.253072,
                        "Latitude": 51.209853
                      },
                      {
                        "Longitude": -0.252713,
                        "Latitude": 51.209647
                      }
                    ]
                  }
                },
                "id": "i22_2_17"
              },
              {
                "From": {
                  "StopPointRef": "40004408018C"
                },
                "To": {
                  "StopPointRef": "40004408017D"
                },
                "Direction": "inbound",
                "Track": {
                  "Mapping": {
                    "Location": [
                      {
                        "Longitude": -0.252713,
                        "Latitude": 51.209647
                      },
                      {
                        "Longitude": -0.251135,
                        "Latitude": 51.208696
                      },
                      {
                        "Longitude": -0.250576,
                        "Latitude": 51.2084
                      },
                      {
                        "Longitude": -0.250203,
                        "Latitude": 51.20823
                      }
                    ]
                  }
                },
                "id": "i22_2_18"
              },
              {
                "From": {
                  "StopPointRef": "40004408017D"
                },
                "To": {
                  "StopPointRef": "40004409233A"
                },
                "Direction": "inbound",
                "Track": {
                  "Mapping": {
                    "Location": [
                      {
                        "Longitude": -0.250203,
                        "Latitude": 51.20823
                      },
                      {
                        "Longitude": -0.250017,
                        "Latitude": 51.20814
                      },
                      {
                        "Longitude": -0.24963,
                        "Latitude": 51.207988
                      },
                      {
                        "Longitude": -0.249544,
                        "Latitude": 51.207943
                      },
                      {
                        "Longitude": -0.249487,
                        "Latitude": 51.207925
                      },
                      {
                        "Longitude": -0.249444,
                        "Latitude": 51.207907
                      },
                      {
                        "Longitude": -0.248914,
                        "Latitude": 51.207674
                      },
                      {
                        "Longitude": -0.248598,
                        "Latitude": 51.207485
                      },
                      {
                        "Longitude": -0.24778,
                        "Latitude": 51.206884
                      },
                      {
                        "Longitude": -0.247465,
                        "Latitude": 51.206642
                      },
                      {
                        "Longitude": -0.246891,
                        "Latitude": 51.206184
                      },
                      {
                        "Longitude": -0.246446,
                        "Latitude": 51.205951
                      },
                      {
                        "Longitude": -0.246174,
                        "Latitude": 51.205834
                      },
                      {
                        "Longitude": -0.245257,
                        "Latitude": 51.205422
                      },
                      {
                        "Longitude": -0.244755,
                        "Latitude": 51.205108
                      },
                      {
                        "Longitude": -0.244453,
                        "Latitude": 51.204812
                      },
                      {
                        "Longitude": -0.244079,
                        "Latitude": 51.204255
                      },
                      {
                        "Longitude": -0.244021,
                        "Latitude": 51.203859
                      },
                      {
                        "Longitude": -0.244048,
                        "Latitude": 51.20358
                      },
                      {
                        "Longitude": -0.244233,
                        "Latitude": 51.203167
                      },
                      {
                        "Longitude": -0.244504,
                        "Latitude": 51.202807
                      },
                      {
                        "Longitude": -0.245317,
                        "Latitude": 51.201889
                      },
                      {
                        "Longitude": -0.245502,
                        "Latitude": 51.201574
                      },
                      {
                        "Longitude": -0.246041,
                        "Latitude": 51.200063
                      },
                      {
                        "Longitude": -0.246651,
                        "Latitude": 51.198668
                      },
                      {
                        "Longitude": -0.246708,
                        "Latitude": 51.198461
                      },
                      {
                        "Longitude": -0.24665,
                        "Latitude": 51.198165
                      },
                      {
                        "Longitude": -0.246592,
                        "Latitude": 51.198084
                      },
                      {
                        "Longitude": -0.24642,
                        "Latitude": 51.197904
                      },
                      {
                        "Longitude": -0.24599,
                        "Latitude": 51.197671
                      },
                      {
                        "Longitude": -0.243569,
                        "Latitude": 51.196982
                      },
                      {
                        "Longitude": -0.243168,
                        "Latitude": 51.196839
                      },
                      {
                        "Longitude": -0.242795,
                        "Latitude": 51.196605
                      },
                      {
                        "Longitude": -0.242652,
                        "Latitude": 51.196489
                      },
                      {
                        "Longitude": -0.242609,
                        "Latitude": 51.196453
                      },
                      {
                        "Longitude": -0.242494,
                        "Latitude": 51.196345
                      },
                      {
                        "Longitude": -0.242408,
                        "Latitude": 51.196273
                      },
                      {
                        "Longitude": -0.242279,
                        "Latitude": 51.196112
                      },
                      {
                        "Longitude": -0.242178,
                        "Latitude": 51.195941
                      },
                      {
                        "Longitude": -0.241976,
                        "Latitude": 51.195393
                      },
                      {
                        "Longitude": -0.24189,
                        "Latitude": 51.195186
                      },
                      {
                        "Longitude": -0.241788,
                        "Latitude": 51.19471
                      },
                      {
                        "Longitude": -0.241773,
                        "Latitude": 51.194647
                      },
                      {
                        "Longitude": -0.241643,
                        "Latitude": 51.194108
                      },
                      {
                        "Longitude": -0.241513,
                        "Latitude": 51.193811
                      },
                      {
                        "Longitude": -0.240895,
                        "Latitude": 51.192904
                      },
                      {
                        "Longitude": -0.240694,
                        "Latitude": 51.192679
                      },
                      {
                        "Longitude": -0.240307,
                        "Latitude": 51.192392
                      },
                      {
                        "Longitude": -0.239776,
                        "Latitude": 51.191781
                      },
                      {
                        "Longitude": -0.239172,
                        "Latitude": 51.190964
                      },
                      {
                        "Longitude": -0.2391,
                        "Latitude": 51.190847
                      },
                      {
                        "Longitude": -0.238799,
                        "Latitude": 51.190596
                      },
                      {
                        "Longitude": -0.238197,
                        "Latitude": 51.19021
                      },
                      {
                        "Longitude": -0.236878,
                        "Latitude": 51.189501
                      },
                      {
                        "Longitude": -0.236492,
                        "Latitude": 51.189295
                      },
                      {
                        "Longitude": -0.235287,
                        "Latitude": 51.188442
                      },
                      {
                        "Longitude": -0.234571,
                        "Latitude": 51.188075
                      },
                      {
                        "Longitude": -0.233983,
                        "Latitude": 51.187752
                      },
                      {
                        "Longitude": -0.23361,
                        "Latitude": 51.187437
                      },
                      {
                        "Longitude": -0.233366,
                        "Latitude": 51.187132
                      },
                      {
                        "Longitude": -0.233251,
                        "Latitude": 51.186925
                      },
                      {
                        "Longitude": -0.233194,
                        "Latitude": 51.186799
                      },
                      {
                        "Longitude": -0.23315,
                        "Latitude": 51.186674
                      },
                      {
                        "Longitude": -0.233064,
                        "Latitude": 51.18644
                      },
                      {
                        "Longitude": -0.231766,
                        "Latitude": 51.182818
                      },