{
  "?xml": {
    "version": "1.0",
    "encoding": "UTF-8"
  },
  "TransXChange": {
    "ServicedOrganisations": {
      "ServicedOrganisation": {
        "OrganisationCode": "Sch",
        "Name": "AnySchool",
        "WorkingDays": {
          "DateRange": [
            {
              "StartDate": "2025-03-03",
              "EndDate": "2025-03-07"
            },
            {
              "StartDate": "2025-03-10",
              "EndDate": "2025-03-14"
            },
            {
              "StartDate": "2025-03-17",
              "EndDate": "2025-03-21"
            },
            {
              "StartDate": "2025-03-24",
              "EndDate": "2025-03-28"
            },
            {
              "StartDate": "2025-03-31",
              "EndDate": "2025-04-04"
            },
            {
              "StartDate": "2025-04-22",
              "EndDate": "2025-04-25"
            },
            {
              "StartDate": "2025-04-28",
              "EndDate": "2025-05-02"
            },
            {
              "StartDate": "2025-05-06",
              "EndDate": "2025-05-09"
            },
            {
              "StartDate": "2025-05-12",
              "EndDate": "2025-05-16"
            },
            {
              "StartDate": "2025-05-19",
              "EndDate": "2025-05-23"
            }
          ]
        }
      }
    },
    "StopPoints": [
      {
        "AnnotatedStopPointRef": [
          {
            "StopPointRef": "4400EG0269",
            "CommonName": "Sackville School, A22",
            "Location": {
              "Longitude": 0.000602,
              "Latitude": 51.123474
            }
          },
          {
            "StopPointRef": "4400EG0270",
            "CommonName": "Sackville College",
            "Location": {
              "Longitude": -0.004168,
              "Latitude": 51.123963
            }
          },
          {
            "StopPointRef": "4400EG0273",
            "CommonName": "East Grinstead, High Street",
            "Location": {
              "Longitude": -0.008011,
              "Latitude": 51.123957
            }
          },
          {
            "StopPointRef": "4400EG0360",
            "CommonName": "Whitehall",
            "Location": {
              "Longitude": -0.008838,
              "Latitude": 51.12527
            }
          },
          {
            "StopPointRef": "4400EG0323",
            "CommonName": "Railway Approach",
            "Location": {
              "Longitude": -0.013265,
              "Latitude": 51.126308
            }
          },
          {
            "StopPointRef": "4400EG0295",
            "CommonName": "East Grinstead Station",
            "Location": {
              "Longitude": -0.017079,
              "Latitude": 51.126625
            }
          },
          {
            "StopPointRef": "4400EG0431",
            "CommonName": "Garland Road",
            "Location": {
              "Longitude": -0.016745,
              "Latitude": 51.129699
            }
          },
          {
            "StopPointRef": "4400EG0320",
            "CommonName": "Trinity Methodist Church",
            "LocalityName": "Mid Sussex",
            "Location": {
              "Longitude": -0.01817,
              "Latitude": 51.131516
            }
          },
          {
            "StopPointRef": "4400EG0319",
            "CommonName": "Dormans Park Road",
            "LocalityName": "Mid Sussex",
            "Location": {
              "Longitude": -0.017652,
              "Latitude": 51.133764
            }
          },
          {
            "StopPointRef": "4400EG0314",
            "CommonName": "Baldwins Hill, Hermitage Road",
            "LocalityName": "Mid Sussex",
            "Location": {
              "Longitude": -0.018618,
              "Latitude": 51.137064
            }
          },
          {
            "StopPointRef": "4400EG0317",
            "CommonName": "Furzefield Road",
            "LocalityName": "Mid Sussex",
            "Location": {
              "Longitude": -0.020043,
              "Latitude": 51.139681
            }
          },
          {
            "StopPointRef": "40004410029B",
            "CommonName": "Wadlands Brook Road",
            "LocalityName": "Tandridge",
            "Location": {
              "Longitude": -0.018863,
              "Latitude": 51.144148
            }
          },
          {
            "StopPointRef": "40004410030B",
            "CommonName": "Chartham Park",
            "LocalityName": "Tandridge",
            "Location": {
              "Longitude": -0.02387,
              "Latitude": 51.150445
            }
          },
          {
            "StopPointRef": "40004410031B",
            "CommonName": "Yew Tree Lodge",
            "LocalityName": "Tandridge",
            "Location": {
              "Longitude": -0.023865,
              "Latitude": 51.153628
            }
          },
          {
            "StopPointRef": "40004410032B",
            "CommonName": "Chestnut Walk",
            "LocalityName": "Tandridge",
            "Location": {
              "Longitude": -0.023174,
              "Latitude": 51.156702
            }
          },
          {
            "StopPointRef": "40004410033B",
            "CommonName": "Felcourt, Blackberry Road",
            "LocalityName": "Tandridge",
            "Location": {
              "Longitude": -0.022613,
              "Latitude": 51.158778
            }
          },
          {
            "StopPointRef": "40004410034B",
            "CommonName": "Felcourt Lane",
            "LocalityName": "Tandridge",
            "Location": {
              "Longitude": -0.021966,
              "Latitude": 51.161053
            }
          },
          {
            "StopPointRef": "40004410036B",
            "CommonName": "Jacks Bridge",
            "LocalityName": "Tandridge",
            "Location": {
              "Longitude": -0.017823,
              "Latitude": 51.166957
            }
          },
          {
            "StopPointRef": "40004406965B",
            "CommonName": "Stanfords Place",
            "LocalityName": "Tandridge",
            "Location": {
              "Longitude": -0.018184,
              "Latitude": 51.173466
            }
          },
          {
            "StopPointRef": "40004410051A",
            "CommonName": "Lingfield, War Memorial",
            "Location": {
              "Longitude": -0.017224,
              "Latitude": 51.174463
            }
          },
          {
            "StopPointRef": "40004410216B",
            "CommonName": "The Star",
            "LocalityName": "Tandridge",
            "Location": {
              "Longitude": -0.013961,
              "Latitude": 51.175729
            }
          },
          {
            "StopPointRef": "40004410052B",
            "CommonName": "Little Lullenden",
            "LocalityName": "Tandridge",
            "Location": {
              "Longitude": -0.013882,
              "Latitude": 51.180053
            }
          },
          {
            "StopPointRef": "40004410053B",
            "CommonName": "Lingfield, Saxby's Lane",
            "LocalityName": "Tandridge",
            "Location": {
              "Longitude": -0.012777,
              "Latitude": 51.181554
            }
          },
          {
            "StopPointRef": "40004410289A",
            "CommonName": "Pauls Mead",
            "Location": {
              "Longitude": -0.008619,
              "Latitude": 51.179501
            }
          },
          {
            "StopPointRef": "40004410049B",
            "CommonName": "Lingfield Station",
            "LocalityName": "Tandridge",
            "Location": {
              "Longitude": -0.008766,
              "Latitude": 51.177325
            }
          },
          {
            "StopPointRef": "40004410047A",
            "CommonName": "Lingfield Racecourse",
            "Location": {
              "Longitude": -0.003502,
              "Latitude": 51.170749
            }
          },
          {
            "StopPointRef": "40004410046C",
            "CommonName": "St Pier's Lane",
            "Location": {
              "Longitude": -0.00017,
              "Latitude": 51.170324
            }
          },
          {
            "StopPointRef": "40004410042D",
            "CommonName": "Dormansland, Swallowfield",
            "Location": {
              "Longitude": 0.006282,
              "Latitude": 51.165104
            }
          },
          {
            "StopPointRef": "40004410043A",
            "CommonName": "Dormansland Plough",
            "LocalityName": "Tandridge",
            "Location": {
              "Longitude": 0.00896,
              "Latitude": 51.166836
            }
          },
          {
            "StopPointRef": "40004410812A",
            "CommonName": "Moor Lane West",
            "Location": {
              "Longitude": 0.020397,
              "Latitude": 51.171455
            }
          },
          {
            "StopPointRef": "40004410045A",
            "CommonName": "New Barns Farm",
            "Location": {
              "Longitude": 0.040179,
              "Latitude": 51.172531
            }
          },
          {
            "StopPointRef": "40004410812B",
            "CommonName": "Moor Lane East",
            "Location": {
              "Longitude": 0.044517,
              "Latitude": 51.174287
            }
          },
          {
            "StopPointRef": "2400A034960A",
            "CommonName": "Marsh Green, Wheatsheaf Inn",
            "Location": {
              "Longitude": 0.055543,
              "Latitude": 51.178292
            }
          },
          {
            "StopPointRef": "2400A007570A",
            "CommonName": "Den Cross",
            "Location": {
              "Longitude": 0.068897,
              "Latitude": 51.184549
            }
          },
          {
            "StopPointRef": "2400A007490A",
            "CommonName": "Edenbridge, Old Hospital",
            "Location": {
              "Longitude": 0.067227,
              "Latitude": 51.189703
            }
          },
          {
            "StopPointRef": "2400A007480A",
            "CommonName": "Hever Road",
            "Location": {
              "Longitude": 0.065811,
              "Latitude": 51.193814
            }
          },
          {
            "StopPointRef": "2400A007460A",
            "CommonName": "Edenbridge High St, Post Office",
            "Location": {
              "Longitude": 0.064394,
              "Latitude": 51.197727
            }
          },
          {
            "StopPointRef": "2400A007580A",
            "CommonName": "Edenbridge Town Station",
            "Location": {
              "Longitude": 0.063827,
              "Latitude": 51.199256
            }
          },
          {
            "StopPointRef": 2400104613,
            "CommonName": "Leisure Centre",
            "Location": {
              "Longitude": 0.06312,
              "Latitude": 51.201729
            }
          },
          {
            "StopPointRef": "2400A007450A",
            "CommonName": "The Eden Centre",
            "Location": {
              "Longitude": 0.065116,
              "Latitude": 51.203641
            }
          },
          {
            "StopPointRef": "2400A071010A",
            "CommonName": "Farmstead Drive",
            "Location": {
              "Longitude": 0.06611,
              "Latitude": 51.205312
            }
          },
          {
            "StopPointRef": 2400104615,
            "CommonName": "Edenbridge, Fircroft Way",
            "Location": {
              "Longitude": 0.064826,
              "Latitude": 51.2066
            }
          },
          {
            "StopPointRef": "2400A007600A",
            "CommonName": "Enterprise Way",
            "Location": {
              "Longitude": 0.06138,
              "Latitude": 51.207387
            }
          },
          {
            "StopPointRef": "2400A007620A",
            "CommonName": "Swan Lane",
            "Location": {
              "Longitude": 0.060445,
              "Latitude": 51.210391
            }
          },
          {
            "StopPointRef": "2400A034810A",
            "CommonName": "Orpins Corner",
            "LocalityName": "Sevenoaks",
            "Location": {
              "Longitude": 0.059922,
              "Latitude": 51.212378
            }
          },
          {
            "StopPointRef": 2400104655,
            "CommonName": "The Rushetts",
            "LocalityName": "Sevenoaks",
            "Location": {
              "Longitude": 0.057925,
              "Latitude": 51.222891
            }
          },
          {
            "StopPointRef": "2400A034800A",
            "CommonName": "Model Farm",
            "LocalityName": "Sevenoaks",
            "Location": {
              "Longitude": 0.060288,
              "Latitude": 51.227023
            }
          },
          {
            "StopPointRef": "2400A073430A",
            "CommonName": "Crockham Hill, The Royal Oak",
            "LocalityName": "Sevenoaks",
            "Location": {
              "Longitude": 0.064472,
              "Latitude": 51.23617
            }
          },
          {
            "StopPointRef": "40004410197B",
            "CommonName": "Caxton Lane",
            "LocalityName": "Tandridge",
            "Location": {
              "Longitude": 0.0337,
              "Latitude": 51.247707
            }
          },
          {
            "StopPointRef": "40004410198B",
            "CommonName": "Ridlands Lane",
            "LocalityName": "Tandridge",
            "Location": {
              "Longitude": 0.027463,
              "Latitude": 51.250888
            }
          },
          {
            "StopPointRef": "40004410191D",
            "CommonName": "New Road",
            "LocalityName": "Tandridge",
            "Location": {
              "Longitude": 0.01991,
              "Latitude": 51.255193
            }
          },
          {
            "StopPointRef": "40004406950B",
            "CommonName": "Detillens Lane",
            "LocalityName": "Tandridge",
            "Location": {
              "Longitude": 0.007205,
              "Latitude": 51.256599
            }
          },
          {
            "StopPointRef": "40004410186B",
            "CommonName": "Oxted, Council Offices",
            "LocalityName": "Tandridge",
            "Location": {
              "Longitude": -0.000661,
              "Latitude": 51.256875
            }
          },
          {
            "StopPointRef": "40004410033A",
            "CommonName": "Felcourt, Blackberry Road",
            "LocalityName": "Tandridge",
            "Location": {
              "Longitude": -0.022614,
              "Latitude": 51.158284
            }
          },
          {
            "StopPointRef": "40004410030A",
            "CommonName": "Chartham Park",
            "LocalityName": "Tandridge",
            "Location": {
              "Longitude": -0.023698,
              "Latitude": 51.150544
            }
          },
          {
            "StopPointRef": "40004410032A",
            "CommonName": "Chestnut Walk",
            "LocalityName": "Tandridge",
            "Location": {
              "Longitude": -0.023074,
              "Latitude": 51.156576
            }
          },
          {
            "StopPointRef": "40004410216A",
            "CommonName": "The Star",
            "Location": {
              "Longitude": -0.01389,
              "Latitude": 51.175486
            }
          },
          {
            "StopPointRef": "4400EG0199",
            "CommonName": "Court Crescent",
            "Location": {
              "Longitude": -0.001233,
              "Latitude": 51.127098
            }
          },
          {
            "StopPointRef": "40004410053A",
            "CommonName": "Lingfield, Saxby's Lane",
            "Location": {
              "Longitude": -0.012735,
              "Latitude": 51.181509
            }
          },
          {
            "StopPointRef": "2400A034940A",
            "CommonName": "Den Cross",
            "Location": {
              "Longitude": 0.069083,
              "Latitude": 51.184684
            }
          },
          {
            "StopPointRef": "4400EG0318",
            "CommonName": "Dormans Park Road",
            "Location": {
              "Longitude": -0.017494,
              "Latitude": 51.134231
            }
          },
          {
            "StopPointRef": "40004410043B",
            "CommonName": "Dormansland Plough",
            "Location": {
              "Longitude": 0.009418,
              "Latitude": 51.167025
            }
          },
          {
            "StopPointRef": "4400EG0326",
            "CommonName": "East Grinstead Fire Station",
            "Location": {
              "Longitude": -0.014974,
              "Latitude": 51.128988
            }
          },
          {
            "StopPointRef": "4400EG0660",
            "CommonName": "East Grinstead, Sandy Lane",
            "Location": {
              "Longitude": -0.003706,
              "Latitude": 51.126669
            }
          },
          {
            "StopPointRef": "2400A007470A",
            "CommonName": "Edenbridge High Street",
            "Location": {
              "Longitude": 0.064836,
              "Latitude": 51.197268
            }
          },
          {
            "StopPointRef": "2400A007500A",
            "CommonName": "Edenbridge, Old Hospital",
            "Location": {
              "Longitude": 0.067384,
              "Latitude": 51.189478
            }
          },
          {
            "StopPointRef": 2400105457,
            "CommonName": "Edenbridge, Fircroft Way",
            "Location": {
              "Longitude": 0.06517,
              "Latitude": 51.206707
            }
          },
          {
            "StopPointRef": "2400A007440A",
            "CommonName": "The Eden Centre",
            "Location": {
              "Longitude": 0.065087,
              "Latitude": 51.203632
            }
          },
          {
            "StopPointRef": "2400A007590A",
            "CommonName": "Edenbridge Town Station",
            "LocalityName": "Sevenoaks",
            "Location": {
              "Longitude": 0.063871,
              "Latitude": 51.199561
            }
          },
          {
            "StopPointRef": "4400EG0197",
            "CommonName": "Estcots School",
            "LocalityName": "Mid Sussex",
            "Location": {
              "Longitude": 0.001906,
              "Latitude": 51.125118
            }
          },
          {
            "StopPointRef": 2400102627,
            "CommonName": "Farmstead Drive",
            "Location": {
              "Longitude": 0.066397,
              "Latitude": 51.205573
            }
          },
          {
            "StopPointRef": "40004410034A",
            "CommonName": "Felcourt Lane",
            "LocalityName": "Tandridge",
            "Location": {
              "Longitude": -0.02188,
              "Latitude": 51.160819
            }
          },
          {
            "StopPointRef": "4400EG0316",
            "CommonName": "Furzefield Road",
            "LocalityName": "Mid Sussex",
            "Location": {
              "Longitude": -0.019986,
              "Latitude": 51.139636
            }
          },
          {
            "StopPointRef": "4400EG0315",
            "CommonName": "Baldwins Hill, Hermitage Road",
            "LocalityName": "Mid Sussex",
            "Location": {
              "Longitude": -0.019445,
              "Latitude": 51.138377
            }
          },
          {
            "StopPointRef": 2400103640,
            "CommonName": "Hever Road",
            "Location": {
              "Longitude": 0.06621,
              "Latitude": 51.193238
            }
          },
          {
            "StopPointRef": "40004410036A",
            "CommonName": "Jacks Bridge",
            "LocalityName": "Tandridge",
            "Location": {
              "Longitude": -0.017623,
              "Latitude": 51.167055
            }
          },
          {
            "StopPointRef": 2400104661,
            "CommonName": "Leisure Centre",
            "Location": {
              "Longitude": 0.063448,
              "Latitude": 51.201468
            }
          },
          {
            "StopPointRef": "40004410047B",
            "CommonName": "Lingfield Racecourse",
            "Location": {
              "Longitude": -0.002944,
              "Latitude": 51.170623
            }
          },
          {
            "StopPointRef": "40004410051B",
            "CommonName": "Lingfield, War Memorial",
            "Location": {
              "Longitude": -0.017539,
              "Latitude": 51.174365
            }
          },
          {
            "StopPointRef": "40004410049A",
            "CommonName": "Lingfield Station",
            "Location": {
              "Longitude": -0.008497,
              "Latitude": 51.176129
            }
          },
          {
            "StopPointRef": "40004410052A",
            "CommonName": "Little Lullenden",
            "Location": {
              "Longitude": -0.013769,
              "Latitude": 51.179316
            }
          },
          {
            "StopPointRef": "2400A034950A",
            "CommonName": "Marsh Green, Wheatsheaf Inn",
            "Location": {
              "Longitude": 0.056102,
              "Latitude": 51.178588
            }
          },
          {
            "StopPointRef": "40004410812C",
            "CommonName": "Moor Lane East",
            "Location": {
              "Longitude": 0.044374,
              "Latitude": 51.17409
            }
          },
          {
            "StopPointRef": "40004410812D",
            "CommonName": "Moor Lane West",
            "Location": {
              "Longitude": 0.020768,
              "Latitude": 51.171311
            }
          },
          {
            "StopPointRef": "40004410045B",
            "CommonName": "New Barns Farm",
            "Location": {
              "Longitude": 0.040937,
              "Latitude": 51.172557
            }
          },
          {
            "StopPointRef": "40004410289B",
            "CommonName": "Pauls Mead",
            "Location": {
              "Longitude": -0.009346,
              "Latitude": 51.18058
            }
          },
          {
            "StopPointRef": "40004406965A",
            "CommonName": "Stanfords Place",
            "LocalityName": "Tandridge",
            "Location": {
              "Longitude": -0.018113,
              "Latitude": 51.173484
            }
          },
          {
            "StopPointRef": "40004410048B",
            "CommonName": "Station Road",
            "Location": {
              "Longitude": -0.008732,
              "Latitude": 51.172947
            }
          },
          {
            "StopPointRef": "40004410046B",
            "CommonName": "St Pier's Lane",
            "Location": {
              "Longitude": -0.000299,
              "Latitude": 51.17027
            }
          },
          {
            "StopPointRef": "40004410042C",
            "CommonName": "Dormansland, Swallowfield",
            "Location": {
              "Longitude": 0.006124,
              "Latitude": 51.165104
            }
          },
          {
            "StopPointRef": "4400EG0321",
            "CommonName": "Trinity Methodist Church",
            "Location": {
              "Longitude": -0.018142,
              "Latitude": 51.131319
            }
          },
          {
            "StopPointRef": "40004410029A",
            "CommonName": "Wadlands Brook Road",
            "LocalityName": "Tandridge",
            "Location": {
              "Longitude": -0.018821,
              "Latitude": 51.14405
            }
          },
          {
            "StopPointRef": "40004410031A",
            "CommonName": "Yew Tree Lodge",
            "LocalityName": "Tandridge",
            "Location": {
              "Longitude": -0.023851,
              "Latitude": 51.153619
            }
          }
        ]
      }
    ],
    "RouteSections": [
      {
        "RouteSection": [
          {
            "RouteLink": [
              {
                "From": {
                  "StopPointRef": "4400EG0269"
                },
                "To": {
                  "StopPointRef": "4400EG0270"
                },
                "Direction": "inbound",
                "Track": {
                  "Mapping": {
                    "Location": [
                      {
                        "Longitude": 0.000617,
                        "Latitude": 51.123537
                      },
                      {
                        "Longitude": 0.000502,
                        "Latitude": 51.123546
                      },
                      {
                        "Longitude": 0.000431,
                        "Latitude": 51.123555
                      },
                      {
                        "Longitude": -0.00004,
                        "Latitude": 51.123636
                      },
                      {
                        "Longitude": -0.000098,
                        "Latitude": 51.123627
                      },
                      {
                        "Longitude": -0.000155,
                        "Latitude": 51.123636
                      },
                      {
                        "Longitude": -0.000183,
                        "Latitude": 51.123654
                      },
                      {
                        "Longitude": -0.000397,
                        "Latitude": 51.123681
                      },
                      {
                        "Longitude": -0.000612,
                        "Latitude": 51.123699
                      },
                      {
                        "Longitude": -0.000669,
                        "Latitude": 51.123708
                      },
                      {
                        "Longitude": -0.000797,
                        "Latitude": 51.123718
                      },
                      {
                        "Longitude": -0.000855,
                        "Latitude": 51.123718
                      },
                      {
                        "Longitude": -0.001926,
                        "Latitude": 51.123826
                      },
                      {
                        "Longitude": -0.002397,
                        "Latitude": 51.123872
                      },
                      {
                        "Longitude": -0.003497,
                        "Latitude": 51.124007
                      },
                      {
                        "Longitude": -0.003668,
                        "Latitude": 51.124008
                      },
                      {
                        "Longitude": -0.003968,
                        "Latitude": 51.124008
                      },
                      {
                        "Longitude": -0.004168,
                        "Latitude": 51.123999
                      }
                    ]
                  }
                },
                "id": "i646_1_1"
              },
              {
                "From": {
                  "StopPointRef": "4400EG0270"
                },
                "To": {
                  "StopPointRef": "4400EG0273"
                },
                "Direction": "inbound",
                "Track": {
                  "Mapping": {
                    "Location": [
                      {
                        "Longitude": -0.004168,
                        "Latitude": 51.123999
                      },
                      {
                        "Longitude": -0.004211,
                        "Latitude": 51.123999
                      },
                      {
                        "Longitude": -0.004426,
                        "Latitude": 51.123981
                      },
                      {
                        "Longitude": -0.004797,
                        "Latitude": 51.123928
                      },
                      {
                        "Longitude": -0.005469,
                        "Latitude": 51.123856
                      },
                      {
                        "Longitude": -0.005554,
                        "Latitude": 51.123847
                      },
                      {
                        "Longitude": -0.005626,
                        "Latitude": 51.123847
                      },
                      {
                        "Longitude": -0.005897,
                        "Latitude": 51.123866
                      },
                      {
                        "Longitude": -0.006797,
                        "Latitude": 51.123902
                      },
                      {
                        "Longitude": -0.006897,
                        "Latitude": 51.123929
                      },
                      {
                        "Longitude": -0.007983,
                        "Latitude": 51.124056
                      }
                    ]
                  }
                },
                "id": "i646_1_2"
              },
              {
                "From": {
                  "StopPointRef": "4400EG0273"
                },
                "To": {
                  "StopPointRef": "4400EG0360"
                },
                "Direction": "inbound",
                "Track": {
                  "Mapping": {
                    "Location": [
                      {
                        "Longitude": -0.007983,
                        "Latitude": 51.124056
                      },
                      {
                        "Longitude": -0.008097,
                        "Latitude": 51.124065
                      },
                      {
                        "Longitude": -0.008183,
                        "Latitude": 51.124056
                      },
                      {
                        "Longitude": -0.00824,
                        "Latitude": 51.124128
                      },
                      {
                        "Longitude": -0.008297,
                        "Latitude": 51.124236
                      },
                      {
                        "Longitude": -0.008581,
                        "Latitude": 51.124839
                      },
                      {
                        "Longitude": -0.008823,
                        "Latitude": 51.12527
                      }
                    ]
                  }
                },
                "id": "i646_1_3"
              },
              {
                "From": {
                  "StopPointRef": "4400EG0360"
                },
                "To": {
                  "StopPointRef": "4400EG0323"
                },
                "Direction": "inbound",
                "Track": {
                  "Mapping": {
                    "Location": [
                      {
                        "Longitude": -0.008823,
                        "Latitude": 51.12527
                      },
                      {
                        "Longitude": -0.009051,
                        "Latitude": 51.125657
                      },
                      {
                        "Longitude": -0.009122,
                        "Latitude": 51.125738
                      },
                      {
                        "Longitude": -0.009222,
                        "Latitude": 51.125846
                      },
                      {
                        "Longitude": -0.009308,
                        "Latitude": 51.1259
                      },
                      {
                        "Longitude": -0.009322,
                        "Latitude": 51.125909
                      },
                      {
                        "Longitude": -0.009536,
                        "Latitude": 51.126062
                      },
                      {
                        "Longitude": -0.009607,
                        "Latitude": 51.126089
                      },
                      {
                        "Longitude": -0.009979,
                        "Latitude": 51.126296
                      },
                      {
                        "Longitude": -0.010864,
                        "Latitude": 51.126602
                      },
                      {
                        "Longitude": -0.011007,
                        "Latitude": 51.126665
                      },
                      {
                        "Longitude": -0.011264,
                        "Latitude": 51.126549
                      },
                      {
                        "Longitude": -0.011635,
                        "Latitude": 51.126504
                      },
                      {
                        "Longitude": -0.012121,
                        "Latitude": 51.126442
                      },
                      {
                        "Longitude": -0.012393,
                        "Latitude": 51.126406
                      },
                      {
                        "Longitude": -0.012979,
                        "Latitude": 51.126361
                      },
                      {
                        "Longitude": -0.013265,
                        "Latitude": 51.126343
                      }
                    ]
                  }
                },
                "id": "i646_1_4"
              },
              {
                "From": {
                  "StopPointRef": "4400EG0323"
                },
                "To": {
                  "StopPointRef": "4400EG0295"
                },
                "Direction": "inbound",
                "Track": {
                  "Mapping": {
                    "Location": [
                      {
                        "Longitude": -0.013265,
                        "Latitude": 51.126343
                      },
                      {
                        "Longitude": -0.013407,
                        "Latitude": 51.126335
                      },
                      {
                        "Longitude": -0.013679,
                        "Latitude": 51.126326
                      },
                      {
                        "Longitude": -0.014893,
                        "Latitude": 51.126273
                      },
                      {
                        "Longitude": -0.015865,
                        "Latitude": 51.12621
                      },
                      {
                        "Longitude": -0.016036,
                        "Latitude": 51.126193
                      },
                      {
                        "Longitude": -0.016051,
                        "Latitude": 51.126148
                      },
                      {
                        "Longitude": -0.016108,
                        "Latitude": 51.126112
                      },
                      {
                        "Longitude": -0.016151,
                        "Latitude": 51.126103
                      },
                      {
                        "Longitude": -0.016222,
                        "Latitude": 51.126103
                      },
                      {
                        "Longitude": -0.016265,
                        "Latitude": 51.126121
                      },
                      {
                        "Longitude": -0.016308,
                        "Latitude": 51.126148
                      },
                      {
                        "Longitude": -0.016308,
                        "Latitude": 51.126193
                      },
                      {
                        "Longitude": -0.016294,
                        "Latitude": 51.126238
                      },
                      {
                        "Longitude": -0.016251,
                        "Latitude": 51.126265
                      },
                      {
                        "Longitude": -0.016208,
                        "Latitude": 51.126274
                      },
                      {
                        "Longitude": -0.016193,
                        "Latitude": 51.126382
                      },
                      {
                        "Longitude": -0.016193,
                        "Latitude": 51.126417
                      },
                      {
                        "Longitude": -0.016207,
                        "Latitude": 51.126435
                      },
                      {
                        "Longitude": -0.01625,
                        "Latitude": 51.126453
                      },
                      {
                        "Longitude": -0.016279,
                        "Latitude": 51.126462
                      },
                      {
                        "Longitude": -0.016322,
                        "Latitude": 51.126463
                      },
                      {
                        "Longitude": -0.016422,
                        "Latitude": 51.126472
                      },
                      {
                        "Longitude": -0.01645,
                        "Latitude": 51.126481
                      },
                      {
                        "Longitude": -0.016479,
                        "Latitude": 51.126472
                      },
                      {
                        "Longitude": -0.016565,
                        "Latitude": 51.126454
                      },
                      {
                        "Longitude": -0.01665,
                        "Latitude": 51.126454
                      },
                      {
                        "Longitude": -0.01675,
                        "Latitude": 51.126454
                      },
                      {
                        "Longitude": -0.016836,
                        "Latitude": 51.126472
                      },
                      {
                        "Longitude": -0.016907,
                        "Latitude": 51.126499
                      },
                      {
                        "Longitude": -0.016979,
                        "Latitude": 51.126535
                      },
                      {
                        "Longitude": -0.017036,
                        "Latitude": 51.12658
                      },
                      {
                        "Longitude": -0.017079,
                        "Latitude": 51.126625
                      }
                    ]
                  }
                },
                "id": "i646_1_5"
              },
              {
                "From": {
                  "StopPointRef": "4400EG0295"
                },
                "To": {
                  "StopPointRef": "4400EG0431"
                },
                "Direction": "inbound",
                "Track": {
                  "Mapping": {
                    "Location": [
                      {
                        "Longitude": -0.017079,
                        "Latitude": 51.126625
                      },
                      {
                        "Longitude": -0.017079,
                        "Latitude": 51.126634
                      },
                      {
                        "Longitude": -0.017107,
                        "Latitude": 51.126688
                      },
                      {
                        "Longitude": -0.017121,
                        "Latitude": 51.126742
                      },
                      {
                        "Longitude": -0.017107,
                        "Latitude": 51.126796
                      },
                      {
                        "Longitude": -0.017078,
                        "Latitude": 51.12685
                      },
                      {
                        "Longitude": -0.017035,
                        "Latitude": 51.126904
                      },
                      {
                        "Longitude": -0.016978,
                        "Latitude": 51.126948
                      },
                      {
                        "Longitude": -0.016964,
                        "Latitude": 51.126957
                      },
                      {
                        "Longitude": -0.016935,
                        "Latitude": 51.127173
                      },
                      {
                        "Longitude": -0.016663,
                        "Latitude": 51.127623
                      },
                      {
                        "Longitude": -0.016333,
                        "Latitude": 51.128144
                      },
                      {
                        "Longitude": -0.015975,
                        "Latitude": 51.128692
                      },
                      {
                        "Longitude": -0.015903,
                        "Latitude": 51.128809
                      },
                      {
                        "Longitude": -0.015846,
                        "Latitude": 51.128854
                      },
                      {
                        "Longitude": -0.015746,
                        "Latitude": 51.12889
                      },
                      {
                        "Longitude": -0.015632,
                        "Latitude": 51.128952
                      },
                      {
                        "Longitude": -0.01556,
                        "Latitude": 51.129015
                      },
                      {
                        "Longitude": -0.015546,
                        "Latitude": 51.129078
                      },
                      {
                        "Longitude": -0.015545,
                        "Latitude": 51.129141
                      },
                      {
                        "Longitude": -0.01556,
                        "Latitude": 51.12924
                      },
                      {
                        "Longitude": -0.016002,
                        "Latitude": 51.129447
                      },
                      {
                        "Longitude": -0.016331,
                        "Latitude": 51.1296
                      },
                      {
                        "Longitude": -0.016673,
                        "Latitude": 51.129762
                      }
                    ]
                  }
                },
                "id": "i646_1_6"
              },
              {
                "From": {
                  "StopPointRef": "4400EG0431"
                },
                "To": {
                  "StopPointRef": "4400EG0320"
                },
                "Direction": "inbound",
                "Track": {
                  "Mapping": {
                    "Location": [
                      {
                        "Longitude": -0.016673,
                        "Latitude": 51.129762
                      },
                      {
                        "Longitude": -0.01693,
                        "Latitude": 51.129879
                      },
                      {
                        "Longitude": -0.017915,
                        "Latitude": 51.130356
                      },
                      {
                        "Longitude": -0.017972,
                        "Latitude": 51.130384
                      },
                      {
                        "Longitude": -0.018115,
                        "Latitude": 51.130482
                      },
                      {
                        "Longitude": -0.018415,
                        "Latitude": 51.130671
                      },
                      {
                        "Longitude": -0.018472,
                        "Latitude": 51.130743
                      },
                      {
                        "Longitude": -0.018529,
                        "Latitude": 51.130824
                      },
                      {
                        "Longitude": -0.018572,
                        "Latitude": 51.130896
                      },
                      {
                        "Longitude": -0.018586,
                        "Latitude": 51.130896
                      },
                      {
                        "Longitude": -0.0186,
                        "Latitude": 51.130896
                      },
                      {
                        "Longitude": -0.018629,
                        "Latitude": 51.130905
                      },
                      {
                        "Longitude": -0.018643,
                        "Latitude": 51.130905
                      },
                      {
                        "Longitude": -0.018657,
                        "Latitude": 51.130923
                      },
                      {
                        "Longitude": -0.018657,
                        "Latitude": 51.130941
                      },
                      {
                        "Longitude": -0.018657,
                        "Latitude": 51.13095
                      },
                      {
                        "Longitude": -0.018657,
                        "Latitude": 51.130959
                      },
                      {
                        "Longitude": -0.018643,
                        "Latitude": 51.130968
                      },
                      {
                        "Longitude": -0.018629,
                        "Latitude": 51.130977
                      },
                      {
                        "Longitude": -0.018614,
                        "Latitude": 51.130986
                      },
                      {
                        "Longitude": -0.0186,
                        "Latitude": 51.130986
                      },
                      {
                        "Longitude": -0.018586,
                        "Latitude": 51.130986
                      },
                      {
                        "Longitude": -0.018571,
                        "Latitude": 51.130986
                      },
                      {
                        "Longitude": -0.018557,
                        "Latitude": 51.130977
                      },
                      {
                        "Longitude": -0.018543,
                        "Latitude": 51.130977
                      },
                      {
                        "Longitude": -0.018529,
                        "Latitude": 51.130968
                      },
                      {
                        "Longitude": -0.018514,
                        "Latitude": 51.13095
                      },
                      {
                        "Longitude": -0.018486,
                        "Latitude": 51.130968
                      },
                      {
                        "Longitude": -0.018428,
                        "Latitude": 51.131013
                      },
                      {
                        "Longitude": -0.018342,
                        "Latitude": 51.131148
                      },
                      {
                        "Longitude": -0.018314,
                        "Latitude": 51.131211
                      },
                      {
                        "Longitude": -0.018142,
                        "Latitude": 51.131507
                      }
                    ]
                  }
                },
                "id": "i646_1_7"
              },
              {
                "From": {
                  "StopPointRef": "4400EG0320"
                },
                "To": {
                  "StopPointRef": "4400EG0319"
                },
                "Direction": "inbound",
                "Track": {
                  "Mapping": {
                    "Location": [
                      {
                        "Longitude": -0.018142,
                        "Latitude": 51.131507
                      },
                      {
                        "Longitude": -0.01807,
                        "Latitude": 51.131633
                      },
                      {
                        "Longitude": -0.017955,
                        "Latitude": 51.13184
                      },
                      {
                        "Longitude": -0.017927,
                        "Latitude": 51.131894
                      },
                      {
                        "Longitude": -0.017654,
                        "Latitude": 51.132424
                      },
                      {
                        "Longitude": -0.017595,
                        "Latitude": 51.133638
                      },
                      {
                        "Longitude": -0.017595,
                        "Latitude": 51.133764
                      }
                    ]
                  }
                },
                "id": "i646_1_8"
              },
              {
                "From": {
                  "StopPointRef": "4400EG0319"
                },
                "To": {
                  "StopPointRef": "4400EG0314"
                },
                "Direction": "inbound",
                "Track": {
                  "Mapping": {
                    "Location": [
                      {
                        "Longitude": -0.017595,
                        "Latitude": 51.133764
                      },
                      {
                        "Longitude": -0.017623,
                        "Latitude": 51.134312
                      },
                      {
                        "Longitude": -0.017621,
                        "Latitude": 51.135103
                      },
                      {
                        "Longitude": -0.017692,
                        "Latitude": 51.135706
                      },
                      {
                        "Longitude": -0.017919,
                        "Latitude": 51.136182
                      },
                      {
                        "Longitude": -0.018304,
                        "Latitude": 51.136722
                      },
                      {
                        "Longitude": -0.018547,
                        "Latitude": 51.137082
                      }
                    ]
                  }
                },
                "id": "i646_1_9"
              },
              {
                "From": {
                  "StopPointRef": "4400EG0314"
                },
                "To": {
                  "StopPointRef": "4400EG0317"
                },
                "Direction": "inbound",
                "Track": {
                  "Mapping": {
                    "Location": [
                      {
                        "Longitude": -0.018547,
                        "Latitude": 51.137082
                      },
                      {
                        "Longitude": -0.018903,
                        "Latitude": 51.137594
                      },
                      {
                        "Longitude": -0.019231,
                        "Latitude": 51.138017
                      },
                      {
                        "Longitude": -0.019359,
                        "Latitude": 51.138206
                      },
                      {
                        "Longitude": -0.01973,
                        "Latitude": 51.138755
                      },
                      {
                        "Longitude": -0.019844,
                        "Latitude": 51.138953
                      },
                      {
                        "Longitude": -0.020001,
                        "Latitude": 51.139312
                      },
                      {
                        "Longitude": -0.020014,
                        "Latitude": 51.139681
                      }
                    ]
                  }
                },
                "id": "i646_1_10"
              },
              {
                "From": {
                  "StopPointRef": "4400EG0317"
                },
                "To": {
                  "StopPointRef": "40004410029B"
                },
                "Direction": "inbound",
                "Track": {
                  "Mapping": {
                    "Location": [
                      {
                        "Longitude": -0.020014,
                        "Latitude": 51.139681
                      },
                      {
                        "Longitude": -0.020028,
                        "Latitude": 51.139834
                      },
                      {
                        "Longitude": -0.020028,
                        "Latitude": 51.139915
                      },
                      {
                        "Longitude": -0.020028,
                        "Latitude": 51.139996
                      },
                      {
                        "Longitude": -0.020042,
                        "Latitude": 51.140068
                      },
                      {
                        "Longitude": -0.020042,
                        "Latitude": 51.140149
                      },
                      {
                        "Longitude": -0.020099,
                        "Latitude": 51.140373
                      },
                      {
                        "Longitude": -0.02017,
                        "Latitude": 51.140472
                      },
                      {
                        "Longitude": -0.020284,
                        "Latitude": 51.140679
                      },
                      {
                        "Longitude": -0.020312,
                        "Latitude": 51.140958
                      },
                      {
                        "Longitude": -0.020284,
                        "Latitude": 51.141012
                      },
                      {
                        "Longitude": -0.020011,
                        "Latitude": 51.141857
                      },
                      {
                        "Longitude": -0.019939,
                        "Latitude": 51.141983
                      },
                      {
                        "Longitude": -0.019867,
                        "Latitude": 51.142144
                      },
                      {
                        "Longitude": -0.019839,
                        "Latitude": 51.14218
                      },
                      {
                        "Longitude": -0.019466,
                        "Latitude": 51.14271
                      },
                      {
                        "Longitude": -0.019208,
                        "Latitude": 51.143232
                      },
                      {
                        "Longitude": -0.018849,
                        "Latitude": 51.144148
                      }
                    ]
                  }
                },
                "id": "i646_1_11"
              },
              {
                "From": {
                  "StopPointRef": "40004410029B"
                },
                "To": {
                  "StopPointRef": "40004410030B"
                },
                "Direction": "inbound",
                "Track": {
                  "Mapping": {
                    "Location": [
                      {
                        "Longitude": -0.018849,
                        "Latitude": 51.144148
                      },
                      {
                        "Longitude": -0.01872,
                        "Latitude": 51.144472
                      },
                      {
                        "Longitude": -0.018691,
                        "Latitude": 51.144562
                      },
                      {
                        "Longitude": -0.018634,
                        "Latitude": 51.144787
                      },
                      {
                        "Longitude": -0.018676,
                        "Latitude": 51.145191
                      },
                      {
                        "Longitude": -0.018861,
                        "Latitude": 51.145659
                      },
                      {
                        "Longitude": -0.019046,
                        "Latitude": 51.145902
                      },
                      {
                        "Longitude": -0.020317,
                        "Latitude": 51.146676
                      },
                      {
                        "Longitude": -0.020674,
                        "Latitude": 51.146892
                      },
                      {
                        "Longitude": -0.02213,
                        "Latitude": 51.14799
                      },
                      {
                        "Longitude": -0.022515,
                        "Latitude": 51.148322
                      },
                      {
                        "Longitude": -0.022544,
                        "Latitude": 51.148358
                      },
                      {
                        "Longitude": -0.023029,
                        "Latitude": 51.14888
                      },
                      {
                        "Longitude": -0.023072,
                        "Latitude": 51.148934
                      },
                      {
                        "Longitude": -0.023243,
                        "Latitude": 51.149204
                      },
                      {
                        "Longitude": -0.023414,
                        "Latitude": 51.14951
                      },
                      {
                        "Longitude": -0.023685,
                        "Latitude": 51.15004
                      },
                      {
                        "Longitude": -0.023756,
                        "Latitude": 51.150463
                      }
                    ]
                  }
                },
                "id": "i646_1_12"
              },
              {
                "From": {
                  "StopPointRef": "40004410030B"
                },
                "To": {
                  "StopPointRef": "40004410031B"
                },
                "Direction": "inbound",
                "Track": {
                  "Mapping": {
                    "Location": [
                      {
                        "Longitude": -0.023756,
                        "Latitude": 51.150463
                      },
                      {
                        "Longitude": -0.023812,
                        "Latitude": 51.150697
                      },
                      {
                        "Longitude": -0.023897,
                        "Latitude": 51.151335
                      },
                      {
                        "Longitude": -0.023924,
                        "Latitude": 51.152513
                      },
                      {
                        "Longitude": -0.02388,
                        "Latitude": 51.153304
                      },
                      {
                        "Longitude": -0.023865,
                        "Latitude": 51.153628
                      }
                    ]
                  }
                },
                "id": "i646_1_13"
              },
              {
                "From": {
                  "StopPointRef": "40004410031B"
                },
                "To": {
                  "StopPointRef": "40004410032B"
                },
                "Direction": "inbound",
                "Track": {
                  "Mapping": {
                    "Location": [
                      {
                        "Longitude": -0.023865,
                        "Latitude": 51.153628
                      },
                      {
                        "Longitude": -0.023836,
                        "Latitude": 51.154014
                      },
                      {
                        "Longitude": -0.023404,
                        "Latitude": 51.155713
                      },
                      {
                        "Longitude": -0.023246,
                        "Latitude": 51.156288
                      },
                      {
                        "Longitude": -0.023131,
                        "Latitude": 51.156693
                      }
                    ]
                  }
                },
                "id": "i646_1_14"
              },
              {
                "From": {
                  "StopPointRef": "40004410032B"
                },
                "To": {
                  "StopPointRef": "40004410033B"
                },
                "Direction": "inbound",
                "Track": {
                  "Mapping": {
                    "Location": [
                      {
                        "Longitude": -0.023131,
                        "Latitude": 51.156693
                      },
                      {
                        "Longitude": -0.022958,
                        "Latitude": 51.157313
                      },
                      {
                        "Longitude": -0.022613,
                        "Latitude": 51.158581
                      },
                      {
                        "Longitude": -0.022556,
                        "Latitude": 51.158769
                      }
                    ]
                  }
                },
                "id": "i646_1_15"
              },
              {
                "From": {
                  "StopPointRef": "40004410033B"
                },
                "To": {
                  "StopPointRef": "40004410034B"
                },
                "Direction": "inbound",
                "Track": {
                  "Mapping": {
                    "Location": [
                      {
                        "Longitude": -0.022556,
                        "Latitude": 51.158769
                      },
                      {
                        "Longitude": -0.022512,
                        "Latitude": 51.158949
                      },
                      {
                        "Longitude": -0.022239,
                        "Latitude": 51.159866
                      },
                      {
                        "Longitude": -0.021966,
                        "Latitude": 51.160855
                      },
                      {
                        "Longitude": -0.021923,
                        "Latitude": 51.161035
                      }
                    ]
                  }
                },
                "id": "i646_1_16"
              },
              {
                "From": {
                  "StopPointRef": "40004410034B"
                },
                "To": {
                  "StopPointRef": "40004410036B"
                },
                "Direction": "inbound",
                "Track": {
                  "Mapping": {
                    "Location": [
                      {
                        "Longitude": -0.021923,
                        "Latitude": 51.161035
                      },
                      {
                        "Longitude": -0.021837,
                        "Latitude": 51.161295
                      },
                      {
                        "Longitude": -0.021808,
                        "Latitude": 51.161412
                      },
                      {
                        "Longitude": -0.021635,
                        "Latitude": 51.162041
                      },
                      {
                        "Longitude": -0.021621,
                        "Latitude": 51.162077
                      },
                      {
                        "Longitude": -0.021535,
                        "Latitude": 51.162374
                      },
                      {
                        "Longitude": -0.021405,
                        "Latitude": 51.162688
                      },
                      {
                        "Longitude": -0.021019,
                        "Latitude": 51.163156
                      },
                      {
                        "Longitude": -0.020589,
                        "Latitude": 51.163524
                      },
                      {
                        "Longitude": -0.019744,
                        "Latitude": 51.164351
                      },
                      {
                        "Longitude": -0.019443,
                        "Latitude": 51.164701
                      },
                      {
                        "Longitude": -0.017781,
                        "Latitude": 51.166948
                      }
                    ]
                  }
                },
                "id": "i646_1_17"
              },
              {
                "From": {
                  "StopPointRef": "40004410036B"
                },
                "To": {
                  "StopPointRef": "40004406965B"
                },
                "Direction": "inbound",
                "Track": {
                  "Mapping": {
                    "Location": [
                      {
                        "Longitude": -0.017781,
                        "Latitude": 51.166948
                      },
                      {
                        "Longitude": -0.017351,
                        "Latitude": 51.167532
                      },
                      {
                        "Longitude": -0.01725,
                        "Latitude": 51.167702
                      },
                      {
                        "Longitude": -0.017107,
                        "Latitude": 51.167783
                      },
                      {
                        "Longitude": -0.017092,
                        "Latitude": 51.167927
                      },
                      {
                        "Longitude": -0.017077,
                        "Latitude": 51.168511
                      },
                      {
                        "Longitude": -0.017233,
                        "Latitude": 51.169195
                      },
                      {
                        "Longitude": -0.017204,
                        "Latitude": 51.16968
                      },
                      {
                        "Longitude": -0.01716,
                        "Latitude": 51.169986
                      },
                      {
                        "Longitude": -0.017203,
                        "Latitude": 51.170301
                      },
                      {
                        "Longitude": -0.017602,
                        "Latitude": 51.17111
                      },
                      {
                        "Longitude": -0.01773,
                        "Latitude": 51.171479
                      },
                      {
                        "Longitude": -0.0179,
                        "Latitude": 51.17227
                      },
                      {
                        "Longitude": -0.017957,
                        "Latitude": 51.172441
                      },
                      {
                        "Longitude": -0.018057,
                        "Latitude": 51.172756
                      },
                      {
                        "Longitude": -0.018071,
                        "Latitude": 51.172926
                      },
                      {
                        "Longitude": -0.018056,
                        "Latitude": 51.173205
                      },
                      {
                        "Longitude": -0.018155,
                        "Latitude": 51.173475
                      }
                    ]
                  }
                },
                "id": "i646_1_18"
              },
              {
                "From": {
                  "StopPointRef": "40004406965B"
                },
                "To": {
                  "StopPointRef": "40004410051A"
                },
                "Direction": "inbound",
                "Track": {
                  "Mapping": {
                    "Location": [
                      {
                        "Longitude": -0.018155,
                        "Latitude": 51.173475
                      },
                      {
                        "Longitude": -0.018198,
                        "Latitude": 51.17361
                      },
                      {
                        "Longitude": -0.01834,
                        "Latitude": 51.174149
                      },
                      {
                        "Longitude": -0.018354,
                        "Latitude": 51.174203
                      },
                      {
                        "Longitude": -0.018369,
                        "Latitude": 51.174203
                      },
                      {
                        "Longitude": -0.018397,
                        "Latitude": 51.174212
                      },
                      {
                        "Longitude": -0.018412,
                        "Latitude": 51.174221
                      },
                      {
                        "Longitude": -0.018426,
                        "Latitude": 51.174239
                      },
                      {
                        "Longitude": -0.018426,
                        "Latitude": 51.174248
                      },
                      {
                        "Longitude": -0.018426,
                        "Latitude": 51.174266
                      },
                      {
                        "Longitude": -0.018411,
                        "Latitude": 51.174284
                      },
                      {
                        "Longitude": -0.018383,
                        "Latitude": 51.174293
                      },
                      {
                        "Longitude": -0.018354,
                        "Latitude": 51.174293
                      },
                      {
                        "Longitude": -0.01834,
                        "Latitude": 51.174284
                      },
                      {
                        "Longitude": -0.018326,
                        "Latitude": 51.174284
                      },
                      {
                        "Longitude": -0.018311,
                        "Latitude": 51.174266
                      },
                      {
                        "Longitude": -0.01824,
                        "Latitude": 51.174284
                      },
                      {
                        "Longitude": -0.01771,
                        "Latitude": 51.174419
                      },
                      {
                        "Longitude": -0.017224,
                        "Latitude": 51.174436
                      }
                    ]
                  }
                },
                "id": "i646_1_19"
              },
              {
                "From": {
                  "StopPointRef": "40004410051A"
                },
                "To": {
                  "StopPointRef": "40004410216B"
                },
                "Direction": "inbound",
                "Track": {
                  "Mapping": {
                    "Location": [
                      {
                        "Longitude": -0.017224,
                        "Latitude": 51.174436
                      },
                      {
                        "Longitude": -0.01691,
                        "Latitude": 51.174445
                      },
                      {
                        "Longitude": -0.016466,
                        "Latitude": 51.174418
                      },
                      {
                        "Longitude": -0.015966,
                        "Latitude": 51.174408
                      },
                      {
                        "Longitude": -0.015722,
                        "Latitude": 51.174408
                      },
                      {
                        "Longitude": -0.015551,
                        "Latitude": 51.174381
                      },
                      {
                        "Longitude": -0.014993,
                        "Latitude": 51.174336
                      },
                      {
                        "Longitude": -0.014521,
                        "Latitude": 51.174326
                      },
                      {
                        "Longitude": -0.014221,
                        "Latitude": 51.174362
                      },
                      {
                        "Longitude": -0.013677,
                        "Latitude": 51.174488
                      },
                      {
                        "Longitude": -0.013933,
                        "Latitude": 51.175432
                      },
                      {
                        "Longitude": -0.013961,
                        "Latitude": 51.175567
                      },
                      {
                        "Longitude": -0.013947,
                        "Latitude": 51.175684
                      },
                      {
                        "Longitude": -0.013932,
                        "Latitude": 51.17572
                      }
                    ]
                  }
                },
                "id": "i646_1_20"
              },
              {
                "From": {
                  "StopPointRef": "40004410216B"
                },
                "To": {
                  "StopPointRef": "40004410052B"
                },
                "Direction": "inbound",
                "Track": {
                  "Mapping": {
                    "Location": [
                      {
                        "Longitude": -0.013932,
                        "Latitude": 51.17572
                      },
                      {
                        "Longitude": -0.013889,
                        "Latitude": 51.175818
                      },
                      {
                        "Longitude": -0.013775,
                        "Latitude": 51.175953
                      },
                      {
                        "Longitude": -0.013732,
                        "Latitude": 51.176052
                      },
                      {
                        "Longitude": -0.013703,
                        "Latitude": 51.176178
                      },
                      {
                        "Longitude": -0.013745,
                        "Latitude": 51.176636
                      },
                      {
                        "Longitude": -0.013887,
                        "Latitude": 51.177014
                      },
                      {
                        "Longitude": -0.013901,
                        "Latitude": 51.177077
                      },
                      {
                        "Longitude": -0.013901,
                        "Latitude": 51.177131
                      },
                      {
                        "Longitude": -0.013887,
                        "Latitude": 51.177167
                      },
                      {
                        "Longitude": -0.013844,
                        "Latitude": 51.17723
                      },
                      {
                        "Longitude": -0.0137,
                        "Latitude": 51.177535
                      },
                      {
                        "Longitude": -0.0137,
                        "Latitude": 51.177832
                      },
                      {
                        "Longitude": -0.013799,
                        "Latitude": 51.178192
                      },
                      {
                        "Longitude": -0.013799,
                        "Latitude": 51.178219
                      },
                      {
                        "Longitude": -0.01377,
                        "Latitude": 51.178354
                      },
                      {
                        "Longitude": -0.013612,
                        "Latitude": 51.178713
                      },
                      {
                        "Longitude": -0.013612,
                        "Latitude": 51.178794
                      },
                      {
                        "Longitude": -0.013854,
                        "Latitude": 51.179451
                      },
                      {
                        "Longitude": -0.013897,
                        "Latitude": 51.179612
                      },
                      {
                        "Longitude": -0.013867,
                        "Latitude": 51.179945
                      },
                      {
                        "Longitude": -0.013824,
                        "Latitude": 51.180044
                      }
                    ]
                  }
                },
                "id": "i646_1_21"
              },
              {
                "From": {
                  "StopPointRef": "40004410052B"
                },
                "To": {
                  "StopPointRef": "40004410053B"
                },
                "Direction": "inbound",
                "Track": {
                  "Mapping": {
                    "Location": [
                      {
                        "Longitude": -0.013824,
                        "Latitude": 51.180044
                      },
                      {
                        "Longitude": -0.01371,
                        "Latitude": 51.18026
                      },
                      {
                        "Longitude": -0.013165,
                        "Latitude": 51.181032
                      },
                      {
                        "Longitude": -0.012806,
                        "Latitude": 51.181473
                      },
                      {
                        "Longitude": -0.012749,
                        "Latitude": 51.181545
                      }
                    ]
                  }
                },
                "id": "i646_1_22"
              },
              {
                "From": {
                  "StopPointRef": "40004410053B"
                },
                "To": {
                  "StopPointRef": "40004410289A"
                },
                "Direction": "inbound",
                "Track": {
                  "Mapping": {
                    "Location": [
                      {
                        "Longitude": -0.012749,
                        "Latitude": 51.181545
                      },
                      {
                        "Longitude": -0.012204,
                        "Latitude": 51.182326
                      },
                      {
                        "Longitude": -0.011989,
                        "Latitude": 51.182407
                      },
                      {
                        "Longitude": -0.011875,
                        "Latitude": 51.18229
                      },
                      {
                        "Longitude": -0.011632,
                        "Latitude": 51.182128
                      },
                      {
                        "Longitude": -0.010789,
                        "Latitude": 51.181642
                      },
                      {
                        "Longitude": -0.010189,
                        "Latitude": 51.181336
                      },
                      {
                        "Longitude": -0.009575,
                        "Latitude": 51.18085
                      },
                      {
                        "Longitude": -0.009104,
                        "Latitude": 51.180283
                      },
                      {
                        "Longitude": -0.008704,
                        "Latitude": 51.17968
                      },
                      {
                        "Longitude": -0.008647,
                        "Latitude": 51.179501
                      }
                    ]
                  }
                },
                "id": "i646_1_23"
              },
              {
                "From": {
                  "StopPointRef": "40004410289A"
                },
                "To": {
                  "StopPointRef": "40004410049B"
                },
                "Direction": "inbound",
                "Track": {
                  "Mapping": {
                    "Location": [
                      {
                        "Longitude": -0.008647,
                        "Latitude": 51.179501
                      },
                      {
                        "Longitude": -0.008634,
                        "Latitude": 51.179285
                      },
                      {
                        "Longitude": -0.008691,
                        "Latitude": 51.179087
                      },
                      {
                        "Longitude": -0.008792,
                        "Latitude": 51.178835
                      },
                      {
                        "Longitude": -0.008922,
                        "Latitude": 51.178278
                      },
                      {
                        "Longitude": -0.008922,
                        "Latitude": 51.177892
                      },
                      {
                        "Longitude": -0.008923,
                        "Latitude": 51.17773
                      },
                      {
                        "Longitude": -0.008823,
                        "Latitude": 51.177316
                      }
                    ]
                  }
                },
                "id": "i646_1_24"
              },
              {
                "From": {
                  "StopPointRef": "40004410049B"
                },
                "To": {
                  "StopPointRef": "40004410047A"
                },
                "Direction": "inbound",
                "Track": {
                  "Mapping": {
                    "Location": [
                      {
                        "Longitude": -0.008823,
                        "Latitude": 51.177316
                      },
                      {
                        "Longitude": -0.008752,
                        "Latitude": 51.177046
                      },
                      {
                        "Longitude": -0.00861,
                        "Latitude": 51.176615
                      },
                      {
                        "Longitude": -0.008582,
                        "Latitude": 51.176345
                      },
                      {
                        "Longitude": -0.008511,
                        "Latitude": 51.17621
                      },
                      {
                        "Longitude": -0.008468,
                        "Latitude": 51.17612
                      },
                      {
                        "Longitude": -0.008383,
                        "Latitude": 51.175949
                      },
                      {
                        "Longitude": -0.00814,
                        "Latitude": 51.175688
                      },
                      {
                        "Longitude": -0.007626,
                        "Latitude": 51.175283
                      },
                      {
                        "Longitude": -0.007569,
                        "Latitude": 51.174915
                      },
                      {
                        "Longitude": -0.007598,
                        "Latitude": 51.174816
                      },
                      {
                        "Longitude": -0.007627,
                        "Latitude": 51.174762
                      },
                      {
                        "Longitude": -0.00767,
                        "Latitude": 51.174645
                      },
                      {
                        "Longitude": -0.007713,
                        "Latitude": 51.174519
                      },
                      {
                        "Longitude": -0.007713,
                        "Latitude": 51.174492
                      },
                      {
                        "Longitude": -0.007901,
                        "Latitude": 51.173764
                      },
                      {
                        "Longitude": -0.007972,
                        "Latitude": 51.173593
                      },
                      {
                        "Longitude": -0.00803,
                        "Latitude": 51.173495
                      },
                      {
                        "Longitude": -0.008187,
                        "Latitude": 51.173324
                      },
                      {
                        "Longitude": -0.008631,
                        "Latitude": 51.173001
                      },
                      {
                        "Longitude": -0.008389,
                        "Latitude": 51.172758
                      },
                      {
                        "Longitude": -0.00816,
                        "Latitude": 51.172578
                      },
                      {
                        "Longitude": -0.007331,
                        "Latitude": 51.172208
                      },
                      {
                        "Longitude": -0.006989,
                        "Latitude": 51.172001
                      },
                      {
                        "Longitude": -0.00616,
                        "Latitude": 51.171479
                      },
                      {
                        "Longitude": -0.00576,
                        "Latitude": 51.171308
                      },
                      {
                        "Longitude": -0.005174,
                        "Latitude": 51.171155
                      },
                      {
                        "Longitude": -0.004274,
                        "Latitude": 51.170803
                      },
                      {
                        "Longitude": -0.003516,
                        "Latitude": 51.170713
                      }
                    ]
                  }
                },
                "id": "i646_1_25"
              },
              {
                "From": {
                  "StopPointRef": "40004410047A"
                },
                "To": {
                  "StopPointRef": "40004410046C"
                },
                "Direction": "inbound",
                "Track": {
                  "Mapping": {
                    "Location": [
                      {
                        "Longitude": -0.003516,
                        "Latitude": 51.170713
                      },
                      {
                        "Longitude": -0.00273,
                        "Latitude": 51.170613
                      },
                      {
                        "Longitude": -0.001586,
                        "Latitude": 51.170415
                      },
                      {
                        "Longitude": -0.000585,
                        "Latitude": 51.170342
                      },
                      {
                        "Longitude": -0.000214,
                        "Latitude": 51.170261
                      }
                    ]
                  }
                },
                "id": "i646_1_26"
              },
              {
                "From": {
                  "StopPointRef": "40004410046C"
                },
                "To": {
                  "StopPointRef": "40004410042D"
                },
                "Direction": "inbound",
                "Track": {
                  "Mapping": {
                    "Location": [
                      {
                        "Longitude": -0.000214,
                        "Latitude": 51.170261
                      },
                      {
                        "Longitude": -0.000028,
                        "Latitude": 51.170216
                      },
                      {
                        "Longitude": 0.000558,
                        "Latitude": 51.169999
                      },
                      {
                        "Longitude": 0.000872,
                        "Latitude": 51.169819
                      },
                      {
                        "Longitude": 0.000972,
                        "Latitude": 51.169729
                      },
                      {
                        "Longitude": 0.001129,
                        "Latitude": 51.169522
                      },
                      {
                        "Longitude": 0.001429,
                        "Latitude": 51.169109
                      },
                      {
                        "Longitude": 0.002014,
                        "Latitude": 51.16865
                      },
                      {
                        "Longitude": 0.002328,
                        "Latitude": 51.168469
                      },
                      {
                        "Longitude": 0.0025,
                        "Latitude": 51.16837
                      },
                      {
                        "Longitude": 0.002985,
                        "Latitude": 51.168136
                      },
                      {
                        "Longitude": 0.002985,
                        "Latitude": 51.168109
                      },
                      {
                        "Longitude": 0.002971,
                        "Latitude": 51.168082
                      },
                      {
                        "Longitude": 0.002999,
                        "Latitude": 51.168055
                      },
                      {
                        "Longitude": 0.003099,
                        "Latitude": 51.167974
                      },
                      {
                        "Longitude": 0.003285,
                        "Latitude": 51.16783
                      },
                      {
                        "Longitude": 0.003328,
                        "Latitude": 51.167794
                      },
                      {
                        "Longitude": 0.003685,
                        "Latitude": 51.167533
                      },
                      {
                        "Longitude": 0.004912,
                        "Latitude": 51.166597
                      },
                      {
                        "Longitude": 0.005112,
                        "Latitude": 51.166417
                      },
                      {
                        "Longitude": 0.005226,
                        "Latitude": 51.166273
                      },
                      {
                        "Longitude": 0.005426,
                        "Latitude": 51.166012
                      },
                      {
                        "Longitude": 0.00554,
                        "Latitude": 51.165868
                      },
                      {
                        "Longitude": 0.005568,
                        "Latitude": 51.165832
                      },
                      {
                        "Longitude": 0.005668,
                        "Latitude": 51.165715
                      },
                      {
                        "Longitude": 0.006196,
                        "Latitude": 51.165077
                      }
                    ]
                  }
                },
                "id": "i646_1_27"
              },
              {
                "From": {
                  "StopPointRef": "40004410042D"
                },
                "To": {
                  "StopPointRef": "40004410043A"
                },
                "Direction": "inbound",
                "Track": {
                  "Mapping": {
                    "Location": [
                      {
                        "Longitude": 0.006196,
                        "Latitude": 51.165077
                      },
                      {
                        "Longitude": 0.006324,
                        "Latitude": 51.164924
                      },
                      {
                        "Longitude": 0.006638,
                        "Latitude": 51.164528
                      },
                      {
                        "Longitude": 0.007024,
                        "Latitude": 51.164357
                      },
                      {
                        "Longitude": 0.007167,
                        "Latitude": 51.16433
                      },
                      {
                        "Longitude": 0.007512,
                        "Latitude": 51.165507
                      },
                      {
                        "Longitude": 0.007713,
                        "Latitude": 51.165839
                      },
                      {
                        "Longitude": 0.008,
                        "Latitude": 51.166109
                      },
                      {
                        "Longitude": 0.008129,
                        "Latitude": 51.166244
                      },
                      {
                        "Longitude": 0.008587,
                        "Latitude": 51.166558
                      },
                      {
                        "Longitude": 0.008988,
                        "Latitude": 51.166818
                      }
                    ]
                  }
                },
                "id": "i646_1_28"
              },
              {
                "From": {
                  "StopPointRef": "40004410043A"
                },
                "To": {
                  "StopPointRef": "40004410812A"
                },
                "Direction": "inbound",
                "Track": {
                  "Mapping": {
                    "Location": [
                      {
                        "Longitude": 0.008988,
                        "Latitude": 51.166818
                      },
                      {
                        "Longitude": 0.009289,
                        "Latitude": 51.167007
                      },
                      {
                        "Longitude": 0.009461,
                        "Latitude": 51.167142
                      },
                      {
                        "Longitude": 0.00959,
                        "Latitude": 51.167249
                      },
                      {
                        "Longitude": 0.009647,
                        "Latitude": 51.167276
                      },
                      {
                        "Longitude": 0.009747,
                        "Latitude": 51.16733
                      },
                      {
                        "Longitude": 0.010149,
                        "Latitude": 51.167824
                      },
                      {
                        "Longitude": 0.010608,
                        "Latitude": 51.168408
                      },
                      {
                        "Longitude": 0.010737,
                        "Latitude": 51.168543
                      },
                      {
                        "Longitude": 0.011123,
                        "Latitude": 51.168749
                      },
                      {
                        "Longitude": 0.011653,
                        "Latitude": 51.168929
                      },
                      {
                        "Longitude": 0.013199,
                        "Latitude": 51.169583
                      },
                      {
                        "Longitude": 0.014101,
                        "Latitude": 51.170122
                      },
                      {
                        "Longitude": 0.014302,
                        "Latitude": 51.170311
                      },
                      {
                        "Longitude": 0.014646,
                        "Latitude": 51.170769
                      },
                      {
                        "Longitude": 0.014847,
                        "Latitude": 51.170832
                      },
                      {
                        "Longitude": 0.01569,
                        "Latitude": 51.170822
                      },
                      {
                        "Longitude": 0.016634,
                        "Latitude": 51.170857
                      },
                      {
                        "Longitude": 0.017092,
                        "Latitude": 51.170946
                      },
                      {
                        "Longitude": 0.017593,
                        "Latitude": 51.171197
                      },
                      {
                        "Longitude": 0.017994,
                        "Latitude": 51.171332
                      },
                      {
                        "Longitude": 0.018624,
                        "Latitude": 51.171439
                      },
                      {
                        "Longitude": 0.01931,
                        "Latitude": 51.171483
                      },
                      {
                        "Longitude": 0.020382,
                        "Latitude": 51.171374
                      }
                    ]
                  }
                },
                "id": "i646_1_29"
              },
              {
                "From": {
                  "StopPointRef": "40004410812A"
                },
                "To": {
                  "StopPointRef": "40004410045A"
                },
                "Direction": "inbound",
                "Track": {
                  "Mapping": {
                    "Location": [
                      {
                        "Longitude": 0.020382,
                        "Latitude": 51.171374
                      },
                      {
                        "Longitude": 0.021083,
                        "Latitude": 51.171302
                      },
                      {
                        "Longitude": 0.022612,
                        "Latitude": 51.170941
                      },
                      {
                        "Longitude": 0.02297,
                        "Latitude": 51.170877
                      },
                      {
                        "Longitude": 0.024428,
                        "Latitude": 51.170777
                      },
                      {
                        "Longitude": 0.025401,
                        "Latitude": 51.170983
                      },
                      {
                        "Longitude": 0.02593,
                        "Latitude": 51.171
                      },
                      {
                        "Longitude": 0.027731,
                        "Latitude": 51.170684
                      },
                      {
                        "Longitude": 0.028232,
                        "Latitude": 51.170674
                      },
                      {
                        "Longitude": 0.029033,
                        "Latitude": 51.170781
                      },
                      {
                        "Longitude": 0.029376,
                        "Latitude": 51.170853
                      },
                      {
                        "Longitude": 0.029491,
                        "Latitude": 51.170924
                      },
                      {
                        "Longitude": 0.029837,
                        "Latitude": 51.171751
                      },