{
  "?xml": {
    "version": "1.0",
    "encoding": "UTF-8"
  },
  "TransXChange": {
    "ServicedOrganisations": {
      "ServicedOrganisation": {
        "OrganisationCode": "Sch",
        "Name": "AnySchool",
        "WorkingDays": {
          "DateRange": [
            {
              "StartDate": "2025-03-03",
              "EndDate": "2025-03-07"
            },
            {
              "StartDate": "2025-03-10",
              "EndDate": "2025-03-14"
            },
            {
              "StartDate": "2025-03-17",
              "EndDate": "2025-03-21"
            },
            {
              "StartDate": "2025-03-24",
              "EndDate": "2025-03-28"
            },
            {
              "StartDate": "2025-03-31",
              "EndDate": "2025-04-04"
            },
            {
              "StartDate": "2025-04-22",
              "EndDate": "2025-04-25"
            },
            {
              "StartDate": "2025-04-28",
              "EndDate": "2025-05-02"
            },
            {
              "StartDate": "2025-05-06",
              "EndDate": "2025-05-09"
            },
            {
              "StartDate": "2025-05-12",
              "EndDate": "2025-05-16"
            },
            {
              "StartDate": "2025-05-19",
              "EndDate": "2025-05-23"
            }
          ]
        }
      }
    },
    "StopPoints": [
      {
        "AnnotatedStopPointRef": [
          {
            "StopPointRef": "40004409136B",
            "CommonName": "Abinger Drive",
            "Location": {
              "Longitude": -0.180907,
              "Latitude": 51.226812
            }
          },
          {
            "StopPointRef": "40004409011B",
            "CommonName": "Air Balloon",
            "Location": {
              "Longitude": -0.16934,
              "Latitude": 51.173947
            }
          },
          {
            "StopPointRef": "40004409011A",
            "CommonName": "Air Balloon",
            "Location": {
              "Longitude": -0.169512,
              "Latitude": 51.17409
            }
          },
          {
            "StopPointRef": "40004409109B",
            "CommonName": "Alexander Road",
            "Location": {
              "Longitude": -0.202806,
              "Latitude": 51.223072
            }
          },
          {
            "StopPointRef": "40004409109A",
            "CommonName": "Alexander Road",
            "Location": {
              "Longitude": -0.203135,
              "Latitude": 51.222937
            }
          },
          {
            "StopPointRef": "40004409005A",
            "CommonName": "Avenue Gardens",
            "Location": {
              "Longitude": -0.155962,
              "Latitude": 51.169081
            }
          },
          {
            "StopPointRef": "4400CY0549",
            "CommonName": "Balcombe Road, Crematorium",
            "Location": {
              "Longitude": -0.146974,
              "Latitude": 51.136172
            }
          },
          {
            "StopPointRef": "40004409204B",
            "CommonName": "Batts Hill",
            "Location": {
              "Longitude": -0.181955,
              "Latitude": 51.243893
            }
          },
          {
            "StopPointRef": "40004409813B",
            "CommonName": "Meadvale, Blackthorn Road",
            "LocalityName": "Reigate and Banstead",
            "Location": {
              "Longitude": -0.192463,
              "Latitude": 51.227468
            }
          },
          {
            "StopPointRef": "40004409813G",
            "CommonName": "Meadvale, Blackthorn Road",
            "LocalityName": "Reigate and Banstead",
            "Location": {
              "Longitude": -0.194855,
              "Latitude": 51.227574
            }
          },
          {
            "StopPointRef": "40004412064B",
            "CommonName": "Blunden Way",
            "LocalityName": "Reigate and Banstead",
            "Location": {
              "Longitude": -0.185721,
              "Latitude": 51.184005
            }
          },
          {
            "StopPointRef": "40004412064A",
            "CommonName": "Blunden Way",
            "LocalityName": "Reigate and Banstead",
            "Location": {
              "Longitude": -0.185493,
              "Latitude": 51.184472
            }
          },
          {
            "StopPointRef": "40004410010A",
            "CommonName": "Bonwicke Cottages",
            "Location": {
              "Longitude": -0.110681,
              "Latitude": 51.148849
            }
          },
          {
            "StopPointRef": "4400EG0268",
            "CommonName": "Copthorne Church, Borers Arms Rd",
            "Location": {
              "Longitude": -0.116566,
              "Latitude": 51.140415
            }
          },
          {
            "StopPointRef": "40004410018B",
            "CommonName": "Smallfield, Broadbridge Lane",
            "Location": {
              "Longitude": -0.124132,
              "Latitude": 51.174308
            }
          },
          {
            "StopPointRef": "40004409164A",
            "CommonName": "Brook Road",
            "Location": {
              "Longitude": -0.170897,
              "Latitude": 51.234856
            }
          },
          {
            "StopPointRef": "4400CY0588",
            "CommonName": "Shipley Bridge, Burstow Nurseries",
            "Location": {
              "Longitude": -0.139612,
              "Latitude": 51.149327
            }
          },
          {
            "StopPointRef": "40004410011B",
            "CommonName": "Burstow, Keepers Corner",
            "Location": {
              "Longitude": -0.110982,
              "Latitude": 51.153533
            }
          },
          {
            "StopPointRef": "40004409038A",
            "CommonName": "Chart Lane Hall",
            "LocalityName": "Reigate and Banstead",
            "Location": {
              "Longitude": -0.196831,
              "Latitude": 51.234045
            }
          },
          {
            "StopPointRef": "40004409131B",
            "CommonName": "Chartfield Road",
            "LocalityName": "Reigate and Banstead",
            "Location": {
              "Longitude": -0.193806,
              "Latitude": 51.23243
            }
          },
          {
            "StopPointRef": "40004409812H",
            "CommonName": "Cheyne Walk",
            "LocalityName": "Reigate and Banstead",
            "Location": {
              "Longitude": -0.169743,
              "Latitude": 51.166322
            }
          },
          {
            "StopPointRef": "40004409359A",
            "CommonName": "Church Road",
            "Location": {
              "Longitude": -0.174338,
              "Latitude": 51.228435
            }
          },
          {
            "StopPointRef": "4400CY0433",
            "CommonName": "City Place",
            "Location": {
              "Longitude": -0.162377,
              "Latitude": 51.145172
            }
          },
          {
            "StopPointRef": "40004409116B",
            "CommonName": "Colebrooke Road",
            "Location": {
              "Longitude": -0.179008,
              "Latitude": 51.245855
            }
          },
          {
            "StopPointRef": "40004410009A",
            "CommonName": "Copthorne, Cherry Tree",
            "Location": {
              "Longitude": -0.11248,
              "Latitude": 51.143697
            }
          },
          {
            "StopPointRef": "40004409813A",
            "CommonName": "Meadvale, Copse Road",
            "LocalityName": "Reigate and Banstead",
            "Location": {
              "Longitude": -0.189128,
              "Latitude": 51.228001
            }
          },
          {
            "StopPointRef": "40004409813H",
            "CommonName": "Meadvale, Copse Road",
            "LocalityName": "Reigate and Banstead",
            "Location": {
              "Longitude": -0.188756,
              "Latitude": 51.228082
            }
          },
          {
            "StopPointRef": "40004409288B",
            "CommonName": "Horley, Delta Drive",
            "LocalityName": "Reigate and Banstead",
            "Location": {
              "Longitude": -0.167556,
              "Latitude": 51.166962
            }
          },
          {
            "StopPointRef": "40004409152B",
            "CommonName": "East Surrey Hospital",
            "Location": {
              "Longitude": -0.16463,
              "Latitude": 51.218857
            }
          },
          {
            "StopPointRef": "40004409137B",
            "CommonName": "Fountain Road",
            "Location": {
              "Longitude": -0.17726,
              "Latitude": 51.228864
            }
          },
          {
            "StopPointRef": "40004409355A",
            "CommonName": "The Frenches",
            "Location": {
              "Longitude": -0.165401,
              "Latitude": 51.246277
            }
          },
          {
            "StopPointRef": "4400CY0399",
            "CommonName": "Gatwick Road Central",
            "Location": {
              "Longitude": -0.167575,
              "Latitude": 51.133167
            }
          },
          {
            "StopPointRef": "4400CY0343",
            "CommonName": "Gatwick, South Terminal",
            "Location": {
              "Longitude": -0.161709,
              "Latitude": 51.157633
            }
          },
          {
            "StopPointRef": "4400CY0427",
            "CommonName": "Gatwick Road South",
            "Location": {
              "Longitude": -0.169999,
              "Latitude": 51.129587
            }
          },
          {
            "StopPointRef": "4400CY0398",
            "CommonName": "Gatwick Road, North",
            "Location": {
              "Longitude": -0.164639,
              "Latitude": 51.137664
            }
          },
          {
            "StopPointRef": "40004409012B",
            "CommonName": "The Glebe",
            "Location": {
              "Longitude": -0.172191,
              "Latitude": 51.176561
            }
          },
          {
            "StopPointRef": "40004409132A",
            "CommonName": "High Trees Road",
            "LocalityName": "Reigate and Banstead",
            "Location": {
              "Longitude": -0.190481,
              "Latitude": 51.231057
            }
          },
          {
            "StopPointRef": "40004409929A",
            "CommonName": "Hitchings Way",
            "LocalityName": "Reigate and Banstead",
            "Location": {
              "Longitude": -0.203056,
              "Latitude": 51.21988
            }
          },
          {
            "StopPointRef": "40004409929B",
            "CommonName": "Hitchings Way",
            "LocalityName": "Reigate and Banstead",
            "Location": {
              "Longitude": -0.203085,
              "Latitude": 51.219907
            }
          },
          {
            "StopPointRef": "40004409813F",
            "CommonName": "Holly Road",
            "LocalityName": "Reigate and Banstead",
            "Location": {
              "Longitude": -0.197273,
              "Latitude": 51.226808
            }
          },
          {
            "StopPointRef": "40004409813C",
            "CommonName": "Holly Road",
            "LocalityName": "Reigate and Banstead",
            "Location": {
              "Longitude": -0.197201,
              "Latitude": 51.226799
            }
          },
          {
            "StopPointRef": "40004409013D",
            "CommonName": "Horley, Vicarage Lane",
            "Location": {
              "Longitude": -0.17434,
              "Latitude": 51.178888
            }
          },
          {
            "StopPointRef": "40004409361A",
            "CommonName": "Horley, Station Interchange",
            "Location": {
              "Longitude": -0.161438,
              "Latitude": 51.16862
            }
          },
          {
            "StopPointRef": "40004409013A",
            "CommonName": "Horley, Vicarage Lane/Lee Street",
            "Location": {
              "Longitude": -0.174311,
              "Latitude": 51.178744
            }
          },
          {
            "StopPointRef": "40004409361B",
            "CommonName": "Horley, Station Interchange",
            "LocalityName": "Reigate and Banstead",
            "Location": {
              "Longitude": -0.161424,
              "Latitude": 51.168584
            }
          },
          {
            "StopPointRef": "40004409010B",
            "CommonName": "Horley, Lidl",
            "Location": {
              "Longitude": -0.165119,
              "Latitude": 51.17225
            }
          },
          {
            "StopPointRef": "40004409320B",
            "CommonName": "Horley, Town Centre",
            "Location": {
              "Longitude": -0.161927,
              "Latitude": 51.170382
            }
          },
          {
            "StopPointRef": "40004409004B",
            "CommonName": "Horley, Kings Head",
            "Location": {
              "Longitude": -0.158498,
              "Latitude": 51.173234
            }
          },
          {
            "StopPointRef": "40004409007A",
            "CommonName": "Horley, Station",
            "Location": {
              "Longitude": -0.16131,
              "Latitude": 51.168881
            }
          },
          {
            "StopPointRef": "40004409320A",
            "CommonName": "Horley, Town Centre",
            "Location": {
              "Longitude": -0.162814,
              "Latitude": 51.171056
            }
          },
          {
            "StopPointRef": "40004409010A",
            "CommonName": "Horley, Lidl",
            "Location": {
              "Longitude": -0.165863,
              "Latitude": 51.172447
            }
          },
          {
            "StopPointRef": "40004409813D",
            "CommonName": "Woodhatch, Hornbeam Road",
            "LocalityName": "Reigate and Banstead",
            "Location": {
              "Longitude": -0.197985,
              "Latitude": 51.224811
            }
          },
          {
            "StopPointRef": "40004409003B",
            "CommonName": "Jennings Way",
            "Location": {
              "Longitude": -0.146557,
              "Latitude": 51.17386
            }
          },
          {
            "StopPointRef": "40004409926B",
            "CommonName": "Kinnersley Walk",
            "LocalityName": "Reigate and Banstead",
            "Location": {
              "Longitude": -0.203735,
              "Latitude": 51.216454
            }
          },
          {
            "StopPointRef": "40004409926A",
            "CommonName": "Kinnersley Walk",
            "LocalityName": "Reigate and Banstead",
            "Location": {
              "Longitude": -0.203678,
              "Latitude": 51.216445
            }
          },
          {
            "StopPointRef": "40004409356B",
            "CommonName": "Ladbroke Road",
            "Location": {
              "Longitude": -0.164166,
              "Latitude": 51.244129
            }
          },
          {
            "StopPointRef": "40004409228B",
            "CommonName": "Langshott Manor",
            "Location": {
              "Longitude": -0.140064,
              "Latitude": 51.174186
            }
          },
          {
            "StopPointRef": "40004412046B",
            "CommonName": "Langwood Drive",
            "Location": {
              "Longitude": -0.145742,
              "Latitude": 51.173833
            }
          },
          {
            "StopPointRef": "40004406925A",
            "CommonName": "Lorian Drive",
            "LocalityName": "Reigate and Banstead",
            "Location": {
              "Longitude": -0.191708,
              "Latitude": 51.243085
            }
          },
          {
            "StopPointRef": "40004412052B",
            "CommonName": "Meath Gardens",
            "LocalityName": "Reigate and Banstead",
            "Location": {
              "Longitude": -0.176991,
              "Latitude": 51.181853
            }
          },
          {
            "StopPointRef": "40004412052A",
            "CommonName": "Meath Gardens",
            "Location": {
              "Longitude": -0.177005,
              "Latitude": 51.1817
            }
          },
          {
            "StopPointRef": "40004409906B",
            "CommonName": "Oldfield Road",
            "LocalityName": "Reigate and Banstead",
            "Location": {
              "Longitude": -0.17332,
              "Latitude": 51.167408
            }
          },
          {
            "StopPointRef": "40004409118A",
            "CommonName": "Park Road",
            "Location": {
              "Longitude": -0.174211,
              "Latitude": 51.246955
            }
          },
          {
            "StopPointRef": "40004410013B",
            "CommonName": "Park Road",
            "Location": {
              "Longitude": -0.113459,
              "Latitude": 51.162667
            }
          },
          {
            "StopPointRef": "40004409002B",
            "CommonName": "Peeks Brook Lane",
            "Location": {
              "Longitude": -0.133014,
              "Latitude": 51.174979
            }
          },
          {
            "StopPointRef": "4400EG0259",
            "CommonName": "Copthorne, Prince Albert",
            "Location": {
              "Longitude": -0.123282,
              "Latitude": 51.139299
            }
          },
          {
            "StopPointRef": "40004410017B",
            "CommonName": "Raleigh Drive",
            "Location": {
              "Longitude": -0.12027,
              "Latitude": 51.173823
            }
          },
          {
            "StopPointRef": "40004410012B",
            "CommonName": "Redeham Hall",
            "Location": {
              "Longitude": -0.113643,
              "Latitude": 51.158693
            }
          },
          {
            "StopPointRef": "40004410014B",
            "CommonName": "Redehall School",
            "Location": {
              "Longitude": -0.11499,
              "Latitude": 51.16638
            }
          },
          {
            "StopPointRef": "40004409222C",
            "CommonName": "Redhill Bus Station",
            "Location": {
              "Longitude": -0.16671,
              "Latitude": 51.240783
            }
          },
          {
            "StopPointRef": "40004409222A",
            "CommonName": "Redhill Bus Station",
            "Location": {
              "Longitude": -0.166738,
              "Latitude": 51.240532
            }
          },
          {
            "StopPointRef": "40004409222D",
            "CommonName": "Redhill Bus Station",
            "Location": {
              "Longitude": -0.166538,
              "Latitude": 51.240819
            }
          },
          {
            "StopPointRef": "40004409119B",
            "CommonName": "Regent Crescent",
            "LocalityName": "Reigate and Banstead",
            "Location": {
              "Longitude": -0.170699,
              "Latitude": 51.244916
            }
          },
          {
            "StopPointRef": "40004409234A",
            "CommonName": "Reigate College",
            "LocalityName": "Reigate and Banstead",
            "Location": {
              "Longitude": -0.20405,
              "Latitude": 51.240944
            }
          },
          {
            "StopPointRef": "40004409102A",
            "CommonName": "Reigate, Bancroft Road",
            "Location": {
              "Longitude": -0.204398,
              "Latitude": 51.236673
            }
          },
          {
            "StopPointRef": "40004409254B",
            "CommonName": "Doversgreen, Castle Drive",
            "LocalityName": "Reigate and Banstead",
            "Location": {
              "Longitude": -0.205084,
              "Latitude": 51.217711
            }
          },
          {
            "StopPointRef": "40004409254A",
            "CommonName": "Doversgreen, Castle Drive",
            "LocalityName": "Reigate and Banstead",
            "Location": {
              "Longitude": -0.20381,
              "Latitude": 51.21782
            }
          },
          {
            "StopPointRef": "40004412034A",
            "CommonName": "Sandcross Church",
            "LocalityName": "Reigate and Banstead",
            "Location": {
              "Longitude": -0.205937,
              "Latitude": 51.221451
            }
          },
          {
            "StopPointRef": "40004412034B",
            "CommonName": "Sandcross Church",
            "LocalityName": "Reigate and Banstead",
            "Location": {
              "Longitude": -0.205794,
              "Latitude": 51.221469
            }
          },
          {
            "StopPointRef": "40004410318A",
            "CommonName": "Shipley, Bridge Inn",
            "Location": {
              "Longitude": -0.134994,
              "Latitude": 51.148214
            }
          },
          {
            "StopPointRef": "40004406990A",
            "CommonName": "Sidlow Bridge",
            "LocalityName": "Reigate and Banstead",
            "Location": {
              "Longitude": -0.199853,
              "Latitude": 51.208869
            }
          },
          {
            "StopPointRef": "40004406990B",
            "CommonName": "Sidlow Bridge",
            "LocalityName": "Reigate and Banstead",
            "Location": {
              "Longitude": -0.199423,
              "Latitude": 51.208537
            }
          },
          {
            "StopPointRef": "40004410016B",
            "CommonName": "Smallfield, Burstow Primary School",
            "Location": {
              "Longitude": -0.117538,
              "Latitude": 51.173212
            }
          },
          {
            "StopPointRef": "40004409342A",
            "CommonName": "St Bede's School",
            "Location": {
              "Longitude": -0.174718,
              "Latitude": 51.249921
            }
          },
          {
            "StopPointRef": "40004412063B",
            "CommonName": "Tanner Crescent",
            "LocalityName": "Reigate and Banstead",
            "Location": {
              "Longitude": -0.184624,
              "Latitude": 51.186145
            }
          },
          {
            "StopPointRef": "40004412063A",
            "CommonName": "Tanner Crescent",
            "LocalityName": "Reigate and Banstead",
            "Location": {
              "Longitude": -0.184866,
              "Latitude": 51.185776
            }
          },
          {
            "StopPointRef": "40004409358A",
            "CommonName": "The Cutting",
            "Location": {
              "Longitude": -0.173868,
              "Latitude": 51.230305
            }
          },
          {
            "StopPointRef": "40004409812A",
            "CommonName": "The Drive",
            "LocalityName": "Reigate and Banstead",
            "Location": {
              "Longitude": -0.161835,
              "Latitude": 51.166525
            }
          },
          {
            "StopPointRef": "40004409012A",
            "CommonName": "The Glebe",
            "LocalityName": "Reigate and Banstead",
            "Location": {
              "Longitude": -0.17219,
              "Latitude": 51.176255
            }
          },
          {
            "StopPointRef": "40004409123A",
            "CommonName": "The Old Bus Garage",
            "Location": {
              "Longitude": -0.202359,
              "Latitude": 51.234193
            }
          },
          {
            "StopPointRef": "40004409133A",
            "CommonName": "The Old Oak",
            "LocalityName": "Reigate and Banstead",
            "Location": {
              "Longitude": -0.18718,
              "Latitude": 51.22731
            }
          },
          {
            "StopPointRef": "40004409812B",
            "CommonName": "The Ridgeway",
            "LocalityName": "Reigate and Banstead",
            "Location": {
              "Longitude": -0.162533,
              "Latitude": 51.164394
            }
          },
          {
            "StopPointRef": "40004409235A",
            "CommonName": "The Roe Deer",
            "LocalityName": "Reigate and Banstead",
            "Location": {
              "Longitude": -0.195944,
              "Latitude": 51.24123
            }
          },
          {
            "StopPointRef": "40004409151A",
            "CommonName": "Three Arch Road",
            "Location": {
              "Longitude": -0.170612,
              "Latitude": 51.217981
            }
          },
          {
            "StopPointRef": "40004409151B",
            "CommonName": "Three Arch Road",
            "Location": {
              "Longitude": -0.170311,
              "Latitude": 51.217774
            }
          },
          {
            "StopPointRef": "40004409117B",
            "CommonName": "Timperley Gardens",
            "Location": {
              "Longitude": -0.17626,
              "Latitude": 51.246855
            }
          },
          {
            "StopPointRef": "40004409812G",
            "CommonName": "Upfield",
            "LocalityName": "Reigate and Banstead",
            "Location": {
              "Longitude": -0.165825,
              "Latitude": 51.166487
            }
          },
          {
            "StopPointRef": "4400EG0260",
            "CommonName": "Village Hall",
            "Location": {
              "Longitude": -0.120939,
              "Latitude": 51.139614
            }
          },
          {
            "StopPointRef": "40004406993B",
            "CommonName": "Westvale Park, Westvale Road",
            "LocalityName": "Reigate and Banstead",
            "Location": {
              "Longitude": -0.186874,
              "Latitude": 51.188571
            }
          },
          {
            "StopPointRef": "40004409124A",
            "CommonName": "West Road",
            "Location": {
              "Longitude": -0.197476,
              "Latitude": 51.234333
            }
          },
          {
            "StopPointRef": "40004406993A",
            "CommonName": "Westvale Park, Westvale Road",
            "LocalityName": "Reigate and Banstead",
            "Location": {
              "Longitude": -0.186603,
              "Latitude": 51.188535
            }
          },
          {
            "StopPointRef": "40004410015B",
            "CommonName": "Woodside Cottages",
            "Location": {
              "Longitude": -0.115348,
              "Latitude": 51.168987
            }
          },
          {
            "StopPointRef": "40004409111C",
            "CommonName": "Woodhatch, Hornbeam Road",
            "LocalityName": "Reigate and Banstead",
            "Location": {
              "Longitude": -0.198656,
              "Latitude": 51.224271
            }
          },
          {
            "StopPointRef": "40004409111D",
            "CommonName": "Woodhatch, Meadow Way",
            "Location": {
              "Longitude": -0.200344,
              "Latitude": 51.22364
            }
          },
          {
            "StopPointRef": "40004409812K",
            "CommonName": "Woodroyd Avenue",
            "LocalityName": "Reigate and Banstead",
            "Location": {
              "Longitude": -0.175394,
              "Latitude": 51.168162
            }
          },
          {
            "StopPointRef": "40004409115B",
            "CommonName": "Wray Common",
            "Location": {
              "Longitude": -0.187315,
              "Latitude": 51.245327
            }
          }
        ]
      }
    ],
    "RouteSections": [
      {
        "RouteSection": [
          {
            "RouteLink": [
              {
                "From": {
                  "StopPointRef": "40004409222C"
                },
                "To": {
                  "StopPointRef": "40004409356B"
                },
                "Direction": "outbound",
                "Track": {
                  "Mapping": {
                    "Location": [
                      {
                        "Longitude": -0.166739,
                        "Latitude": 51.240783
                      },
                      {
                        "Longitude": -0.166767,
                        "Latitude": 51.240406
                      },
                      {
                        "Longitude": -0.166695,
                        "Latitude": 51.240406
                      },
                      {
                        "Longitude": -0.166609,
                        "Latitude": 51.240406
                      },
                      {
                        "Longitude": -0.166366,
                        "Latitude": 51.240595
                      },
                      {
                        "Longitude": -0.166223,
                        "Latitude": 51.240811
                      },
                      {
                        "Longitude": -0.16618,
                        "Latitude": 51.240865
                      },
                      {
                        "Longitude": -0.166123,
                        "Latitude": 51.240954
                      },
                      {
                        "Longitude": -0.166066,
                        "Latitude": 51.241143
                      },
                      {
                        "Longitude": -0.166052,
                        "Latitude": 51.241224
                      },
                      {
                        "Longitude": -0.166038,
                        "Latitude": 51.241377
                      },
                      {
                        "Longitude": -0.166081,
                        "Latitude": 51.241548
                      },
                      {
                        "Longitude": -0.166167,
                        "Latitude": 51.241728
                      },
                      {
                        "Longitude": -0.166053,
                        "Latitude": 51.241791
                      },
                      {
                        "Longitude": -0.165781,
                        "Latitude": 51.241917
                      },
                      {
                        "Longitude": -0.165681,
                        "Latitude": 51.242105
                      },
                      {
                        "Longitude": -0.165495,
                        "Latitude": 51.242285
                      },
                      {
                        "Longitude": -0.164622,
                        "Latitude": 51.242744
                      },
                      {
                        "Longitude": -0.164507,
                        "Latitude": 51.242807
                      },
                      {
                        "Longitude": -0.164408,
                        "Latitude": 51.243005
                      },
                      {
                        "Longitude": -0.164251,
                        "Latitude": 51.24377
                      },
                      {
                        "Longitude": -0.164123,
                        "Latitude": 51.24412
                      }
                    ]
                  }
                },
                "id": "o422_1"
              },
              {
                "From": {
                  "StopPointRef": "40004409356B"
                },
                "To": {
                  "StopPointRef": "40004409355A"
                },
                "Direction": "outbound",
                "Track": {
                  "Mapping": {
                    "Location": [
                      {
                        "Longitude": -0.164123,
                        "Latitude": 51.24412
                      },
                      {
                        "Longitude": -0.164094,
                        "Latitude": 51.244192
                      },
                      {
                        "Longitude": -0.163708,
                        "Latitude": 51.24493
                      },
                      {
                        "Longitude": -0.163652,
                        "Latitude": 51.245172
                      },
                      {
                        "Longitude": -0.163652,
                        "Latitude": 51.245388
                      },
                      {
                        "Longitude": -0.163738,
                        "Latitude": 51.24564
                      },
                      {
                        "Longitude": -0.163867,
                        "Latitude": 51.245874
                      },
                      {
                        "Longitude": -0.163968,
                        "Latitude": 51.24599
                      },
                      {
                        "Longitude": -0.164068,
                        "Latitude": 51.246125
                      },
                      {
                        "Longitude": -0.164355,
                        "Latitude": 51.246251
                      },
                      {
                        "Longitude": -0.164556,
                        "Latitude": 51.246341
                      },
                      {
                        "Longitude": -0.164642,
                        "Latitude": 51.246332
                      },
                      {
                        "Longitude": -0.164699,
                        "Latitude": 51.246368
                      },
                      {
                        "Longitude": -0.165028,
                        "Latitude": 51.246322
                      },
                      {
                        "Longitude": -0.165401,
                        "Latitude": 51.246322
                      }
                    ]
                  }
                },
                "id": "o422_2"
              },
              {
                "From": {
                  "StopPointRef": "40004409355A"
                },
                "To": {
                  "StopPointRef": "40004409119B"
                },
                "Direction": "outbound",
                "Track": {
                  "Mapping": {
                    "Location": [
                      {
                        "Longitude": -0.165401,
                        "Latitude": 51.246322
                      },
                      {
                        "Longitude": -0.166103,
                        "Latitude": 51.246331
                      },
                      {
                        "Longitude": -0.166604,
                        "Latitude": 51.24633
                      },
                      {
                        "Longitude": -0.166661,
                        "Latitude": 51.24633
                      },
                      {
                        "Longitude": -0.166704,
                        "Latitude": 51.24633
                      },
                      {
                        "Longitude": -0.166762,
                        "Latitude": 51.246339
                      },
                      {
                        "Longitude": -0.167091,
                        "Latitude": 51.246348
                      },
                      {
                        "Longitude": -0.167521,
                        "Latitude": 51.246267
                      },
                      {
                        "Longitude": -0.168194,
                        "Latitude": 51.245988
                      },
                      {
                        "Longitude": -0.169425,
                        "Latitude": 51.245475
                      },
                      {
                        "Longitude": -0.169553,
                        "Latitude": 51.24543
                      },
                      {
                        "Longitude": -0.170255,
                        "Latitude": 51.245159
                      },
                      {
                        "Longitude": -0.170713,
                        "Latitude": 51.244934
                      }
                    ]
                  }
                },
                "id": "o422_3"
              },
              {
                "From": {
                  "StopPointRef": "40004409119B"
                },
                "To": {
                  "StopPointRef": "40004409118A"
                },
                "Direction": "outbound",
                "Track": {
                  "Mapping": {
                    "Location": [
                      {
                        "Longitude": -0.170713,
                        "Latitude": 51.244934
                      },
                      {
                        "Longitude": -0.170799,
                        "Latitude": 51.244889
                      },
                      {
                        "Longitude": -0.171142,
                        "Latitude": 51.244718
                      },
                      {
                        "Longitude": -0.172231,
                        "Latitude": 51.244502
                      },
                      {
                        "Longitude": -0.172274,
                        "Latitude": 51.244637
                      },
                      {
                        "Longitude": -0.172288,
                        "Latitude": 51.244664
                      },
                      {
                        "Longitude": -0.172303,
                        "Latitude": 51.244718
                      },
                      {
                        "Longitude": -0.172475,
                        "Latitude": 51.245158
                      },
                      {
                        "Longitude": -0.172633,
                        "Latitude": 51.245482
                      },
                      {
                        "Longitude": -0.172777,
                        "Latitude": 51.245679
                      },
                      {
                        "Longitude": -0.173035,
                        "Latitude": 51.245949
                      },
                      {
                        "Longitude": -0.173494,
                        "Latitude": 51.246443
                      },
                      {
                        "Longitude": -0.174169,
                        "Latitude": 51.246973
                      },
                      {
                        "Longitude": -0.174183,
                        "Latitude": 51.246982
                      }
                    ]
                  }
                },
                "id": "o422_4"
              },
              {
                "From": {
                  "StopPointRef": "40004409118A"
                },
                "To": {
                  "StopPointRef": "40004409117B"
                },
                "Direction": "outbound",
                "Track": {
                  "Mapping": {
                    "Location": [
                      {
                        "Longitude": -0.174183,
                        "Latitude": 51.246982
                      },
                      {
                        "Longitude": -0.174498,
                        "Latitude": 51.247153
                      },
                      {
                        "Longitude": -0.175529,
                        "Latitude": 51.246612
                      },
                      {
                        "Longitude": -0.175686,
                        "Latitude": 51.246603
                      },
                      {
                        "Longitude": -0.175844,
                        "Latitude": 51.246594
                      },
                      {
                        "Longitude": -0.176317,
                        "Latitude": 51.246801
                      }
                    ]
                  }
                },
                "id": "o422_5"
              },
              {
                "From": {
                  "StopPointRef": "40004409117B"
                },
                "To": {
                  "StopPointRef": "40004409116B"
                },
                "Direction": "outbound",
                "Track": {
                  "Mapping": {
                    "Location": [
                      {
                        "Longitude": -0.176317,
                        "Latitude": 51.246801
                      },
                      {
                        "Longitude": -0.176561,
                        "Latitude": 51.246899
                      },
                      {
                        "Longitude": -0.176819,
                        "Latitude": 51.24698
                      },
                      {
                        "Longitude": -0.177449,
                        "Latitude": 51.247034
                      },
                      {
                        "Longitude": -0.178122,
                        "Latitude": 51.247141
                      },
                      {
                        "Longitude": -0.178452,
                        "Latitude": 51.247195
                      },
                      {
                        "Longitude": -0.179025,
                        "Latitude": 51.24723
                      },
                      {
                        "Longitude": -0.179283,
                        "Latitude": 51.247203
                      },
                      {
                        "Longitude": -0.179254,
                        "Latitude": 51.247005
                      },
                      {
                        "Longitude": -0.179196,
                        "Latitude": 51.246646
                      },
                      {
                        "Longitude": -0.179066,
                        "Latitude": 51.245855
                      }
                    ]
                  }
                },
                "id": "o422_6"
              },
              {
                "From": {
                  "StopPointRef": "40004409116B"
                },
                "To": {
                  "StopPointRef": "40004409204B"
                },
                "Direction": "outbound",
                "Track": {
                  "Mapping": {
                    "Location": [
                      {
                        "Longitude": -0.179066,
                        "Latitude": 51.245855
                      },
                      {
                        "Longitude": -0.179037,
                        "Latitude": 51.245639
                      },
                      {
                        "Longitude": -0.178892,
                        "Latitude": 51.244785
                      },
                      {
                        "Longitude": -0.178863,
                        "Latitude": 51.244569
                      },
                      {
                        "Longitude": -0.178819,
                        "Latitude": 51.244336
                      },
                      {
                        "Longitude": -0.179178,
                        "Latitude": 51.244416
                      },
                      {
                        "Longitude": -0.179249,
                        "Latitude": 51.244425
                      },
                      {
                        "Longitude": -0.179421,
                        "Latitude": 51.244461
                      },
                      {
                        "Longitude": -0.179479,
                        "Latitude": 51.244497
                      },
                      {
                        "Longitude": -0.179923,
                        "Latitude": 51.244497
                      },
                      {
                        "Longitude": -0.180395,
                        "Latitude": 51.244361
                      },
                      {
                        "Longitude": -0.180552,
                        "Latitude": 51.244307
                      },
                      {
                        "Longitude": -0.180724,
                        "Latitude": 51.244235
                      },
                      {
                        "Longitude": -0.180939,
                        "Latitude": 51.244118
                      },
                      {
                        "Longitude": -0.18111,
                        "Latitude": 51.243929
                      },
                      {
                        "Longitude": -0.181196,
                        "Latitude": 51.243893
                      },
                      {
                        "Longitude": -0.18134,
                        "Latitude": 51.243884
                      },
                      {
                        "Longitude": -0.181526,
                        "Latitude": 51.243866
                      },
                      {
                        "Longitude": -0.181913,
                        "Latitude": 51.243911
                      },
                      {
                        "Longitude": -0.181941,
                        "Latitude": 51.24392
                      }
                    ]
                  }
                },
                "id": "o422_7"
              },
              {
                "From": {
                  "StopPointRef": "40004409204B"
                },
                "To": {
                  "StopPointRef": "40004409115B"
                },
                "Direction": "outbound",
                "Track": {
                  "Mapping": {
                    "Location": [
                      {
                        "Longitude": -0.181941,
                        "Latitude": 51.24392
                      },
                      {
                        "Longitude": -0.184048,
                        "Latitude": 51.244359
                      },
                      {
                        "Longitude": -0.185323,
                        "Latitude": 51.244628
                      },
                      {
                        "Longitude": -0.185796,
                        "Latitude": 51.24478
                      },
                      {
                        "Longitude": -0.186728,
                        "Latitude": 51.245427
                      },
                      {
                        "Longitude": -0.186972,
                        "Latitude": 51.245588
                      },
                      {
                        "Longitude": -0.187358,
                        "Latitude": 51.245363
                      }
                    ]
                  }
                },
                "id": "o422_8"
              },
              {
                "From": {
                  "StopPointRef": "40004409115B"
                },
                "To": {
                  "StopPointRef": "40004406925A"
                },
                "Direction": "outbound",
                "Track": {
                  "Mapping": {
                    "Location": [
                      {
                        "Longitude": -0.187358,
                        "Latitude": 51.245363
                      },
                      {
                        "Longitude": -0.187974,
                        "Latitude": 51.245003
                      },
                      {
                        "Longitude": -0.188804,
                        "Latitude": 51.24458
                      },
                      {
                        "Longitude": -0.189176,
                        "Latitude": 51.244382
                      },
                      {
                        "Longitude": -0.189419,
                        "Latitude": 51.244256
                      },
                      {
                        "Longitude": -0.190921,
                        "Latitude": 51.243481
                      },
                      {
                        "Longitude": -0.191508,
                        "Latitude": 51.24322
                      },
                      {
                        "Longitude": -0.191737,
                        "Latitude": 51.243112
                      }
                    ]
                  }
                },
                "id": "o422_9"
              },
              {
                "From": {
                  "StopPointRef": "40004406925A"
                },
                "To": {
                  "StopPointRef": "40004409235A"
                },
                "Direction": "outbound",
                "Track": {
                  "Mapping": {
                    "Location": [
                      {
                        "Longitude": -0.191737,
                        "Latitude": 51.243112
                      },
                      {
                        "Longitude": -0.192639,
                        "Latitude": 51.242716
                      },
                      {
                        "Longitude": -0.194256,
                        "Latitude": 51.242139
                      },
                      {
                        "Longitude": -0.194828,
                        "Latitude": 51.241905
                      },
                      {
                        "Longitude": -0.195043,
                        "Latitude": 51.241824
                      },
                      {
                        "Longitude": -0.195815,
                        "Latitude": 51.241409
                      },
                      {
                        "Longitude": -0.195987,
                        "Latitude": 51.241248
                      }
                    ]
                  }
                },
                "id": "o422_10"
              },
              {
                "From": {
                  "StopPointRef": "40004409235A"
                },
                "To": {
                  "StopPointRef": "40004409234A"
                },
                "Direction": "outbound",
                "Track": {
                  "Mapping": {
                    "Location": [
                      {
                        "Longitude": -0.195987,
                        "Latitude": 51.241248
                      },
                      {
                        "Longitude": -0.196302,
                        "Latitude": 51.240978
                      },
                      {
                        "Longitude": -0.19673,
                        "Latitude": 51.240555
                      },
                      {
                        "Longitude": -0.19683,
                        "Latitude": 51.240456
                      },
                      {
                        "Longitude": -0.197216,
                        "Latitude": 51.240078
                      },
                      {
                        "Longitude": -0.198004,
                        "Latitude": 51.240167
                      },
                      {
                        "Longitude": -0.198262,
                        "Latitude": 51.240194
                      },
                      {
                        "Longitude": -0.198735,
                        "Latitude": 51.240328
                      },
                      {
                        "Longitude": -0.199208,
                        "Latitude": 51.240454
                      },
                      {
                        "Longitude": -0.20001,
                        "Latitude": 51.240579
                      },
                      {
                        "Longitude": -0.200798,
                        "Latitude": 51.24065
                      },
                      {
                        "Longitude": -0.201371,
                        "Latitude": 51.240649
                      },
                      {
                        "Longitude": -0.202288,
                        "Latitude": 51.240658
                      },
                      {
                        "Longitude": -0.202875,
                        "Latitude": 51.24072
                      },
                      {
                        "Longitude": -0.204036,
                        "Latitude": 51.24098
                      }
                    ]
                  }
                },
                "id": "o422_11"
              },
              {
                "From": {
                  "StopPointRef": "40004409234A"
                },
                "To": {
                  "StopPointRef": "40004409102A"
                },
                "Direction": "outbound",
                "Track": {
                  "Mapping": {
                    "Location": [
                      {
                        "Longitude": -0.204036,
                        "Latitude": 51.24098
                      },
                      {
                        "Longitude": -0.204351,
                        "Latitude": 51.241051
                      },
                      {
                        "Longitude": -0.204409,
                        "Latitude": 51.241069
                      },
                      {
                        "Longitude": -0.20448,
                        "Latitude": 51.241078
                      },
                      {
                        "Longitude": -0.205369,
                        "Latitude": 51.241284
                      },
                      {
                        "Longitude": -0.205582,
                        "Latitude": 51.240691
                      },
                      {
                        "Longitude": -0.205611,
                        "Latitude": 51.240646
                      },
                      {
                        "Longitude": -0.20561,
                        "Latitude": 51.240376
                      },
                      {
                        "Longitude": -0.205581,
                        "Latitude": 51.240259
                      },
                      {
                        "Longitude": -0.205452,
                        "Latitude": 51.24016
                      },
                      {
                        "Longitude": -0.205366,
                        "Latitude": 51.240124
                      },
                      {
                        "Longitude": -0.205266,
                        "Latitude": 51.240088
                      },
                      {
                        "Longitude": -0.204893,
                        "Latitude": 51.239936
                      },
                      {
                        "Longitude": -0.204835,
                        "Latitude": 51.239882
                      },
                      {
                        "Longitude": -0.204749,
                        "Latitude": 51.239783
                      },
                      {
                        "Longitude": -0.204706,
                        "Latitude": 51.239684
                      },
                      {
                        "Longitude": -0.20469,
                        "Latitude": 51.239082
                      },
                      {
                        "Longitude": -0.204676,
                        "Latitude": 51.239064
                      },
                      {
                        "Longitude": -0.204561,
                        "Latitude": 51.238884
                      },
                      {
                        "Longitude": -0.204289,
                        "Latitude": 51.238759
                      },
                      {
                        "Longitude": -0.202928,
                        "Latitude": 51.238625
                      },
                      {
                        "Longitude": -0.202598,
                        "Latitude": 51.238616
                      },
                      {
                        "Longitude": -0.202397,
                        "Latitude": 51.238491
                      },
                      {
                        "Longitude": -0.202354,
                        "Latitude": 51.238392
                      },
                      {
                        "Longitude": -0.202469,
                        "Latitude": 51.238302
                      },
                      {
                        "Longitude": -0.202569,
                        "Latitude": 51.238221
                      },
                      {
                        "Longitude": -0.202783,
                        "Latitude": 51.238113
                      },
                      {
                        "Longitude": -0.202926,
                        "Latitude": 51.238095
                      },
                      {
                        "Longitude": -0.203284,
                        "Latitude": 51.238031
                      },
                      {
                        "Longitude": -0.203312,
                        "Latitude": 51.237816
                      },
                      {
                        "Longitude": -0.203327,
                        "Latitude": 51.237771
                      },
                      {
                        "Longitude": -0.203412,
                        "Latitude": 51.237591
                      },
                      {
                        "Longitude": -0.203441,
                        "Latitude": 51.237528
                      },
                      {
                        "Longitude": -0.20354,
                        "Latitude": 51.237285
                      },
                      {
                        "Longitude": -0.203554,
                        "Latitude": 51.237222
                      },
                      {
                        "Longitude": -0.203539,
                        "Latitude": 51.236916
                      },
                      {
                        "Longitude": -0.203568,
                        "Latitude": 51.236835
                      },
                      {
                        "Longitude": -0.203682,
                        "Latitude": 51.23679
                      },
                      {
                        "Longitude": -0.204198,
                        "Latitude": 51.236745
                      },
                      {
                        "Longitude": -0.204413,
                        "Latitude": 51.236718
                      }
                    ]
                  }
                },
                "id": "o422_12"
              },
              {
                "From": {
                  "StopPointRef": "40004409102A"
                },
                "To": {
                  "StopPointRef": "40004409123A"
                },
                "Direction": "outbound",
                "Track": {
                  "Mapping": {
                    "Location": [
                      {
                        "Longitude": -0.204413,
                        "Latitude": 51.236718
                      },
                      {
                        "Longitude": -0.204942,
                        "Latitude": 51.236663
                      },
                      {
                        "Longitude": -0.205286,
                        "Latitude": 51.236717
                      },
                      {
                        "Longitude": -0.205157,
                        "Latitude": 51.236429
                      },
                      {
                        "Longitude": -0.205099,
                        "Latitude": 51.236322
                      },
                      {
                        "Longitude": -0.204998,
                        "Latitude": 51.236133
                      },
                      {
                        "Longitude": -0.204668,
                        "Latitude": 51.235567
                      },
                      {
                        "Longitude": -0.204567,
                        "Latitude": 51.235405
                      },
                      {
                        "Longitude": -0.203662,
                        "Latitude": 51.234003
                      },
                      {
                        "Longitude": -0.202788,
                        "Latitude": 51.234103
                      },
                      {
                        "Longitude": -0.202344,
                        "Latitude": 51.234139
                      }
                    ]
                  }
                },
                "id": "o422_13"
              },
              {
                "From": {
                  "StopPointRef": "40004409123A"
                },
                "To": {
                  "StopPointRef": "40004409124A"
                },
                "Direction": "outbound",
                "Track": {
                  "Mapping": {
                    "Location": [
                      {
                        "Longitude": -0.202344,
                        "Latitude": 51.234139
                      },
                      {
                        "Longitude": -0.20223,
                        "Latitude": 51.234149
                      },
                      {
                        "Longitude": -0.201886,
                        "Latitude": 51.234149
                      },
                      {
                        "Longitude": -0.201055,
                        "Latitude": 51.23406
                      },
                      {
                        "Longitude": -0.199981,
                        "Latitude": 51.234034
                      },
                      {
                        "Longitude": -0.199666,
                        "Latitude": 51.234052
                      },
                      {
                        "Longitude": -0.198965,
                        "Latitude": 51.234115
                      },
                      {
                        "Longitude": -0.197819,
                        "Latitude": 51.234233
                      },
                      {
                        "Longitude": -0.197461,
                        "Latitude": 51.234279
                      }
                    ]
                  }
                },
                "id": "o422_14"
              },
              {
                "From": {
                  "StopPointRef": "40004409124A"
                },
                "To": {
                  "StopPointRef": "40004409038A"
                },
                "Direction": "outbound",
                "Track": {
                  "Mapping": {
                    "Location": [
                      {
                        "Longitude": -0.197461,
                        "Latitude": 51.234279
                      },
                      {
                        "Longitude": -0.197232,
                        "Latitude": 51.234306
                      },
                      {
                        "Longitude": -0.196888,
                        "Latitude": 51.234018
                      }
                    ]
                  }
                },
                "id": "o422_15"
              },
              {
                "From": {
                  "StopPointRef": "40004409038A"
                },
                "To": {
                  "StopPointRef": "40004409131B"
                },
                "Direction": "outbound",
                "Track": {
                  "Mapping": {
                    "Location": [
                      {
                        "Longitude": -0.196888,
                        "Latitude": 51.234018
                      },
                      {
                        "Longitude": -0.196845,
                        "Latitude": 51.233991
                      },
                      {
                        "Longitude": -0.19663,
                        "Latitude": 51.233767
                      },
                      {
                        "Longitude": -0.196328,
                        "Latitude": 51.233434
                      },
                      {
                        "Longitude": -0.196256,
                        "Latitude": 51.233345
                      },
                      {
                        "Longitude": -0.19584,
                        "Latitude": 51.232931
                      },
                      {
                        "Longitude": -0.195137,
                        "Latitude": 51.232393
                      },
                      {
                        "Longitude": -0.19475,
                        "Latitude": 51.232186
                      },
                      {
                        "Longitude": -0.194564,
                        "Latitude": 51.23215
                      },
                      {
                        "Longitude": -0.193791,
                        "Latitude": 51.232403
                      }
                    ]
                  }
                },
                "id": "o422_16"
              },
              {
                "From": {
                  "StopPointRef": "40004409131B"
                },
                "To": {
                  "StopPointRef": "40004409132A"
                },
                "Direction": "outbound",
                "Track": {
                  "Mapping": {
                    "Location": [
                      {
                        "Longitude": -0.193791,
                        "Latitude": 51.232403
                      },
                      {
                        "Longitude": -0.193433,
                        "Latitude": 51.23252
                      },
                      {
                        "Longitude": -0.193262,
                        "Latitude": 51.232529
                      },
                      {
                        "Longitude": -0.193147,
                        "Latitude": 51.23252
                      },
                      {
                        "Longitude": -0.192903,
                        "Latitude": 51.232385
                      },
                      {
                        "Longitude": -0.192,
                        "Latitude": 51.231892
                      },
                      {
                        "Longitude": -0.191039,
                        "Latitude": 51.231281
                      },
                      {
                        "Longitude": -0.190667,
                        "Latitude": 51.231102
                      },
                      {
                        "Longitude": -0.190509,
                        "Latitude": 51.231039
                      }
                    ]
                  }
                },
                "id": "o422_17"
              },
              {
                "From": {
                  "StopPointRef": "40004409132A"
                },
                "To": {
                  "StopPointRef": "40004409813A"
                },
                "Direction": "outbound",
                "Track": {
                  "Mapping": {
                    "Location": [
                      {
                        "Longitude": -0.190509,
                        "Latitude": 51.231039
                      },
                      {
                        "Longitude": -0.190337,
                        "Latitude": 51.230967
                      },
                      {
                        "Longitude": -0.190222,
                        "Latitude": 51.230895
                      },
                      {
                        "Longitude": -0.189606,
                        "Latitude": 51.230473
                      },
                      {
                        "Longitude": -0.189563,
                        "Latitude": 51.230446
                      },
                      {
                        "Longitude": -0.189419,
                        "Latitude": 51.230347
                      },
                      {
                        "Longitude": -0.18909,
                        "Latitude": 51.230096
                      },
                      {
                        "Longitude": -0.188846,
                        "Latitude": 51.229916
                      },
                      {
                        "Longitude": -0.188301,
                        "Latitude": 51.229368
                      },
                      {
                        "Longitude": -0.188013,
                        "Latitude": 51.229009
                      },
                      {
                        "Longitude": -0.187554,
                        "Latitude": 51.228236
                      },
                      {
                        "Longitude": -0.188398,
                        "Latitude": 51.228119
                      },
                      {
                        "Longitude": -0.189042,
                        "Latitude": 51.228028
                      },
                      {
                        "Longitude": -0.189128,
                        "Latitude": 51.228019
                      }
                    ]
                  }
                },
                "id": "o422_18"
              },
              {
                "From": {
                  "StopPointRef": "40004409813A"
                },
                "To": {
                  "StopPointRef": "40004409813B"
                },
                "Direction": "outbound",
                "Track": {
                  "Mapping": {
                    "Location": [
                      {
                        "Longitude": -0.189128,
                        "Latitude": 51.228019
                      },
                      {
                        "Longitude": -0.1894,
                        "Latitude": 51.228001
                      },
                      {
                        "Longitude": -0.190002,
                        "Latitude": 51.227965
                      },
                      {
                        "Longitude": -0.190446,
                        "Latitude": 51.227937
                      },
                      {
                        "Longitude": -0.190517,
                        "Latitude": 51.22791
                      },
                      {
                        "Longitude": -0.190789,
                        "Latitude": 51.227847
                      },
                      {
                        "Longitude": -0.191633,
                        "Latitude": 51.227613
                      },
                      {
                        "Longitude": -0.191891,
                        "Latitude": 51.227549
                      },
                      {
                        "Longitude": -0.192449,
                        "Latitude": 51.227486
                      }
                    ]
                  }
                },
                "id": "o422_19"
              },
              {
                "From": {
                  "StopPointRef": "40004409813B"
                },
                "To": {
                  "StopPointRef": "40004409813C"
                },
                "Direction": "outbound",
                "Track": {
                  "Mapping": {
                    "Location": [
                      {
                        "Longitude": -0.192449,
                        "Latitude": 51.227486
                      },
                      {
                        "Longitude": -0.194726,
                        "Latitude": 51.227565
                      },
                      {
                        "Longitude": -0.194869,
                        "Latitude": 51.227565
                      },
                      {
                        "Longitude": -0.195012,
                        "Latitude": 51.227565
                      },
                      {
                        "Longitude": -0.196115,
                        "Latitude": 51.227564
                      },
                      {
                        "Longitude": -0.197318,
                        "Latitude": 51.227527
                      },
                      {
                        "Longitude": -0.197216,
                        "Latitude": 51.226898
                      },
                      {
                        "Longitude": -0.197216,
                        "Latitude": 51.226799
                      }
                    ]
                  }
                },
                "id": "o422_20"
              },
              {
                "From": {
                  "StopPointRef": "40004409813C"
                },
                "To": {
                  "StopPointRef": "40004409813D"
                },
                "Direction": "outbound",
                "Track": {
                  "Mapping": {
                    "Location": [
                      {
                        "Longitude": -0.197216,
                        "Latitude": 51.226799
                      },
                      {
                        "Longitude": -0.1972,
                        "Latitude": 51.226008
                      },
                      {
                        "Longitude": -0.197615,
                        "Latitude": 51.226016
                      },
                      {
                        "Longitude": -0.197687,
                        "Latitude": 51.225989
                      },
                      {
                        "Longitude": -0.197714,
                        "Latitude": 51.225648
                      },
                      {
                        "Longitude": -0.197828,
                        "Latitude": 51.225423
                      },
                      {
                        "Longitude": -0.197971,
                        "Latitude": 51.225162
                      },
                      {
                        "Longitude": -0.198028,
                        "Latitude": 51.224811
                      }
                    ]
                  }
                },
                "id": "o422_21"
              },
              {
                "From": {
                  "StopPointRef": "40004409813D"
                },
                "To": {
                  "StopPointRef": "40004409111D"
                },
                "Direction": "outbound",
                "Track": {
                  "Mapping": {
                    "Location": [
                      {
                        "Longitude": -0.198028,
                        "Latitude": 51.224811
                      },
                      {
                        "Longitude": -0.198042,
                        "Latitude": 51.224748
                      },
                      {
                        "Longitude": -0.198185,
                        "Latitude": 51.224577
                      },
                      {
                        "Longitude": -0.198484,
                        "Latitude": 51.224244
                      },
                      {
                        "Longitude": -0.198714,
                        "Latitude": 51.224262
                      },
                      {
                        "Longitude": -0.199243,
                        "Latitude": 51.224208
                      },
                      {
                        "Longitude": -0.199301,
                        "Latitude": 51.224208
                      },
                      {
                        "Longitude": -0.199257,
                        "Latitude": 51.22401
                      },
                      {
                        "Longitude": -0.199801,
                        "Latitude": 51.223848
                      },
                      {
                        "Longitude": -0.200273,
                        "Latitude": 51.223703
                      },
                      {
                        "Longitude": -0.200373,
                        "Latitude": 51.223676
                      }
                    ]
                  }
                },
                "id": "o422_22"
              },
              {
                "From": {
                  "StopPointRef": "40004409111D"
                },
                "To": {
                  "StopPointRef": "40004409109A"
                },
                "Direction": "outbound",
                "Track": {
                  "Mapping": {
                    "Location": [
                      {
                        "Longitude": -0.200373,
                        "Latitude": 51.223676
                      },
                      {
                        "Longitude": -0.200516,
                        "Latitude": 51.223631
                      },
                      {
                        "Longitude": -0.200717,
                        "Latitude": 51.223577
                      },
                      {
                        "Longitude": -0.200802,
                        "Latitude": 51.223541
                      },
                      {
                        "Longitude": -0.200874,
                        "Latitude": 51.223523
                      },
                      {
                        "Longitude": -0.201504,
                        "Latitude": 51.22337
                      },
                      {
                        "Longitude": -0.203006,
                        "Latitude": 51.223
                      },
                      {
                        "Longitude": -0.203149,
                        "Latitude": 51.222964
                      }
                    ]
                  }
                },
                "id": "o422_23"
              },
              {
                "From": {
                  "StopPointRef": "40004409109A"
                },
                "To": {
                  "StopPointRef": "40004412034B"
                },
                "Direction": "outbound",
                "Track": {
                  "Mapping": {
                    "Location": [
                      {
                        "Longitude": -0.203149,
                        "Latitude": 51.222964
                      },
                      {
                        "Longitude": -0.203721,
                        "Latitude": 51.222801
                      },
                      {
                        "Longitude": -0.204222,
                        "Latitude": 51.222639
                      },
                      {
                        "Longitude": -0.205052,
                        "Latitude": 51.222431
                      },
                      {
                        "Longitude": -0.206769,
                        "Latitude": 51.222088
                      },
                      {
                        "Longitude": -0.206697,
                        "Latitude": 51.22189
                      },
                      {
                        "Longitude": -0.205837,
                        "Latitude": 51.221433
                      }
                    ]
                  }
                },
                "id": "o422_24"
              },
              {
                "From": {
                  "StopPointRef": "40004412034B"
                },
                "To": {
                  "StopPointRef": "40004409929A"
                },
                "Direction": "outbound",
                "Track": {
                  "Mapping": {
                    "Location": [
                      {
                        "Longitude": -0.205837,
                        "Latitude": 51.221433
                      },
                      {
                        "Longitude": -0.205765,
                        "Latitude": 51.221397
                      },
                      {
                        "Longitude": -0.204963,
                        "Latitude": 51.221092
                      },
                      {
                        "Longitude": -0.204131,
                        "Latitude": 51.220598
                      },
                      {
                        "Longitude": -0.203802,
                        "Latitude": 51.220437
                      },
                      {
                        "Longitude": -0.203343,
                        "Latitude": 51.220275
                      },
                      {
                        "Longitude": -0.202871,
                        "Latitude": 51.220231
                      },
                      {
                        "Longitude": -0.202928,
                        "Latitude": 51.220069
                      },
                      {
                        "Longitude": -0.20307,
                        "Latitude": 51.21988
                      }
                    ]
                  }
                },
                "id": "o422_25"
              },
              {
                "From": {
                  "StopPointRef": "40004409929A"
                },
                "To": {
                  "StopPointRef": "40004409254B"
                },
                "Direction": "outbound",
                "Track": {
                  "Mapping": {
                    "Location": [
                      {
                        "Longitude": -0.20307,
                        "Latitude": 51.21988
                      },
                      {
                        "Longitude": -0.203727,
                        "Latitude": 51.219025
                      },
                      {
                        "Longitude": -0.203941,
                        "Latitude": 51.218836
                      },
                      {
                        "Longitude": -0.204384,
                        "Latitude": 51.21862
                      },
                      {
                        "Longitude": -0.205686,
                        "Latitude": 51.218124
                      },
                      {
                        "Longitude": -0.205542,
                        "Latitude": 51.217828
                      },
                      {
                        "Longitude": -0.205399,
                        "Latitude": 51.217729
                      },
                      {
                        "Longitude": -0.205084,
                        "Latitude": 51.217702
                      }
                    ]
                  }
                },
                "id": "o422_26"
              },
              {
                "From": {
                  "StopPointRef": "40004409254B"
                },
                "To": {
                  "StopPointRef": "40004409926A"
                },
                "Direction": "outbound",
                "Track": {
                  "Mapping": {
                    "Location": [
                      {
                        "Longitude": -0.205084,
                        "Latitude": 51.217702
                      },
                      {
                        "Longitude": -0.204626,
                        "Latitude": 51.217658
                      },
                      {
                        "Longitude": -0.204311,
                        "Latitude": 51.217676
                      },
                      {
                        "Longitude": -0.203595,
                        "Latitude": 51.21792
                      },
                      {
                        "Longitude": -0.203165,
                        "Latitude": 51.217461
                      },
                      {
                        "Longitude": -0.20315,
                        "Latitude": 51.217398
                      },
                      {
                        "Longitude": -0.203279,
                        "Latitude": 51.217129
                      },
                      {
                        "Longitude": -0.203336,
                        "Latitude": 51.217048
                      },
                      {
                        "Longitude": -0.203422,
                        "Latitude": 51.217021
                      },
                      {
                        "Longitude": -0.203779,
                        "Latitude": 51.216894
                      },
                      {
                        "Longitude": -0.203879,
                        "Latitude": 51.216777
                      },
                      {
                        "Longitude": -0.203707,
                        "Latitude": 51.216436
                      }
                    ]
                  }
                },
                "id": "o422_27"
              },
              {
                "From": {
                  "StopPointRef": "40004409926A"
                },
                "To": {
                  "StopPointRef": "40004406990B"
                },
                "Direction": "outbound",
                "Track": {
                  "Mapping": {
                    "Location": [
                      {
                        "Longitude": -0.203707,
                        "Latitude": 51.216436
                      },
                      {
                        "Longitude": -0.203678,
                        "Latitude": 51.216382
                      },
                      {
                        "Longitude": -0.203549,
                        "Latitude": 51.216292
                      },
                      {
                        "Longitude": -0.203406,
                        "Latitude": 51.216265
                      },
                      {
                        "Longitude": -0.202203,
                        "Latitude": 51.216446
                      },
                      {
                        "Longitude": -0.201817,
                        "Latitude": 51.216429
                      },
                      {
                        "Longitude": -0.202144,
                        "Latitude": 51.215448
                      },
                      {
                        "Longitude": -0.202114,
                        "Latitude": 51.215107
                      },
                      {
                        "Longitude": -0.202086,
                        "Latitude": 51.214999
                      },
                      {
                        "Longitude": -0.201898,
                        "Latitude": 51.21419
                      },
                      {
                        "Longitude": -0.201264,
                        "Latitude": 51.212608
                      },
                      {
                        "Longitude": -0.201076,
                        "Latitude": 51.2117
                      },
                      {
                        "Longitude": -0.200988,
                        "Latitude": 51.210819
                      },
                      {
                        "Longitude": -0.200988,
                        "Latitude": 51.210667
                      },
                      {
                        "Longitude": -0.200887,
                        "Latitude": 51.210442
                      },
                      {
                        "Longitude": -0.200815,
                        "Latitude": 51.210325
                      },
                      {
                        "Longitude": -0.200385,
                        "Latitude": 51.209732
                      },
                      {
                        "Longitude": -0.199839,
                        "Latitude": 51.208995
                      },
                      {
                        "Longitude": -0.199724,
                        "Latitude": 51.208816
                      },
                      {
                        "Longitude": -0.199695,
                        "Latitude": 51.20878
                      },
                      {
                        "Longitude": -0.199537,
                        "Latitude": 51.208519
                      }
                    ]
                  }
                },
                "id": "o422_28"
              },
              {
                "From": {
                  "StopPointRef": "40004406990B"
                },
                "To": {
                  "StopPointRef": "40004406993A"
                },
                "Direction": "outbound",
                "Track": {
                  "Mapping": {
                    "Location": [
                      {
                        "Longitude": -0.199537,
                        "Latitude": 51.208519
                      },
                      {
                        "Longitude": -0.199436,
                        "Latitude": 51.20807
                      },
                      {
                        "Longitude": -0.199393,
                        "Latitude": 51.207863
                      },
                      {
                        "Longitude": -0.199249,
                        "Latitude": 51.207539
                      },
                      {
                        "Longitude": -0.198401,
                        "Latitude": 51.205967
                      },
                      {
                        "Longitude": -0.197711,
                        "Latitude": 51.204664
                      },
                      {
                        "Longitude": -0.197654,
                        "Latitude": 51.204547
                      },
                      {
                        "Longitude": -0.197624,
                        "Latitude": 51.204133
                      },
                      {
                        "Longitude": -0.197652,
                        "Latitude": 51.203936
                      },
                      {
                        "Longitude": -0.198433,
                        "Latitude": 51.201022
                      },
                      {
                        "Longitude": -0.198418,
                        "Latitude": 51.200617
                      },
                      {
                        "Longitude": -0.198331,
                        "Latitude": 51.200114
                      },
                      {
                        "Longitude": -0.198302,
                        "Latitude": 51.199934
                      },
                      {
                        "Longitude": -0.198013,
                        "Latitude": 51.198532
                      },
                      {
                        "Longitude": -0.197057,
                        "Latitude": 51.193255
                      },
                      {
                        "Longitude": -0.196955,
                        "Latitude": 51.192707
                      },
                      {
                        "Longitude": -0.196738,
                        "Latitude": 51.191395
                      },
                      {
                        "Longitude": -0.196564,
                        "Latitude": 51.190361
                      },
                      {
                        "Longitude": -0.196549,
                        "Latitude": 51.190316
                      },
                      {
                        "Longitude": -0.196448,
                        "Latitude": 51.189678
                      },
                      {
                        "Longitude": -0.196405,
                        "Latitude": 51.189678
                      },
                      {
                        "Longitude": -0.196348,
                        "Latitude": 51.189696
                      },
                      {
                        "Longitude": -0.196291,
                        "Latitude": 51.189696
                      },
                      {
                        "Longitude": -0.196233,
                        "Latitude": 51.189696
                      },
                      {
                        "Longitude": -0.196205,
                        "Latitude": 51.189678
                      },
                      {
                        "Longitude": -0.196147,
                        "Latitude": 51.18966
                      },
                      {
                        "Longitude": -0.19609,
                        "Latitude": 51.189642
                      },
                      {
                        "Longitude": -0.196061,
                        "Latitude": 51.189624
                      },
                      {
                        "Longitude": -0.196033,
                        "Latitude": 51.189588
                      },
                      {
                        "Longitude": -0.196004,
                        "Latitude": 51.189552
                      },
                      {
                        "Longitude": -0.196004,
                        "Latitude": 51.189516
                      },
                      {
                        "Longitude": -0.196004,
                        "Latitude": 51.189489
                      },
                      {
                        "Longitude": -0.195889,
                        "Latitude": 51.189471
                      },
                      {
                        "Longitude": -0.195346,
                        "Latitude": 51.1894
                      },
                      {
                        "Longitude": -0.192613,
                        "Latitude": 51.189232
                      },
                      {
                        "Longitude": -0.191382,
                        "Latitude": 51.189268
                      },
                      {
                        "Longitude": -0.189866,
                        "Latitude": 51.189405
                      },
                      {
                        "Longitude": -0.189523,
                        "Latitude": 51.189441
                      },
                      {
                        "Longitude": -0.18938,
                        "Latitude": 51.189414
                      },
                      {
                        "Longitude": -0.18905,
                        "Latitude": 51.189306
                      },
                      {
                        "Longitude": -0.188807,
                        "Latitude": 51.18928
                      },
                      {
                        "Longitude": -0.188177,
                        "Latitude": 51.189163
                      },
                      {
                        "Longitude": -0.187591,
                        "Latitude": 51.188975
                      },
                      {
                        "Longitude": -0.187089,
                        "Latitude": 51.188705
                      },
                      {
                        "Longitude": -0.186975,
                        "Latitude": 51.188625
                      },
                      {
                        "Longitude": -0.186631,
                        "Latitude": 51.18849
                      }
                    ]
                  }
                },
                "id": "o422_29"
              },
              {
                "From": {
                  "StopPointRef": "40004406993A"
                },
                "To": {
                  "StopPointRef": "40004412063B"
                },
                "Direction": "outbound",
                "Track": {
                  "Mapping": {
                    "Location": [
                      {
                        "Longitude": -0.186631,
                        "Latitude": 51.18849
                      },
                      {
                        "Longitude": -0.186559,
                        "Latitude": 51.188463
                      },
                      {
                        "Longitude": -0.185872,
                        "Latitude": 51.188104
                      },
                      {
                        "Longitude": -0.185242,
                        "Latitude": 51.187619
                      },
                      {
                        "Longitude": -0.185012,
                        "Latitude": 51.187376
                      },
                      {
                        "Longitude": -0.184382,
                        "Latitude": 51.18717
                      },
                      {
                        "Longitude": -0.184211,
                        "Latitude": 51.187125
                      },
                      {
                        "Longitude": -0.184667,
                        "Latitude": 51.186154
                      }
                    ]
                  }
                },
                "id": "o422_30"
              },
              {
                "From": {
                  "StopPointRef": "40004412063B"
                },
                "To": {
                  "StopPointRef": "40004412064B"
                },
                "Direction": "outbound",
                "Track": {
                  "Mapping": {
                    "Location": [
                      {
                        "Longitude": -0.184667,
                        "Latitude": 51.186154
                      },
                      {
                        "Longitude": -0.185251,
                        "Latitude": 51.184922
                      },
                      {
                        "Longitude": -0.185464,
                        "Latitude": 51.184382
                      },
                      {
                        "Longitude": -0.18575,
                        "Latitude": 51.184013
                      }
                    ]
                  }
                },
                "id": "o422_31"
              },
              {
                "From": {
                  "StopPointRef": "40004412064B"
                },
                "To": {
                  "StopPointRef": "40004412052B"
                },
                "Direction": "outbound",
                "Track": {
                  "Mapping": {
                    "Location": [
                      {
                        "Longitude": -0.18575,
                        "Latitude": 51.184013
                      },
                      {
                        "Longitude": -0.18585,
                        "Latitude": 51.18387
                      },
                      {
                        "Longitude": -0.185776,
                        "Latitude": 51.182962
                      },
                      {
                        "Longitude": -0.185132,
                        "Latitude": 51.182504
                      },
                      {
                        "Longitude": -0.185073,
                        "Latitude": 51.181991
                      },
                      {
                        "Longitude": -0.185116,
                        "Latitude": 51.181973
                      },
                      {
                        "Longitude": -0.185116,
                        "Latitude": 51.181901
                      },
                      {
                        "Longitude": -0.185087,
                        "Latitude": 51.181847
                      },
                      {
                        "Longitude": -0.18503,
                        "Latitude": 51.181802
                      },
                      {
                        "Longitude": -0.184987,
                        "Latitude": 51.181757
                      },
                      {
                        "Longitude": -0.184973,
                        "Latitude": 51.181748
                      },
                      {
                        "Longitude": -0.18493,
                        "Latitude": 51.181731
                      },