{
  "?xml": {
    "version": "1.0",
    "encoding": "UTF-8"
  },
  "TransXChange": {
    "ServicedOrganisations": {
      "ServicedOrganisation": {
        "OrganisationCode": "Sch",
        "Name": "AnySchool",
        "WorkingDays": {
          "DateRange": [
            {
              "StartDate": "2025-03-03",
              "EndDate": "2025-03-07"
            },
            {
              "StartDate": "2025-03-10",
              "EndDate": "2025-03-14"
            },
            {
              "StartDate": "2025-03-17",
              "EndDate": "2025-03-21"
            },
            {
              "StartDate": "2025-03-24",
              "EndDate": "2025-03-28"
            },
            {
              "StartDate": "2025-03-31",
              "EndDate": "2025-04-04"
            },
            {
              "StartDate": "2025-04-22",
              "EndDate": "2025-04-25"
            },
            {
              "StartDate": "2025-04-28",
              "EndDate": "2025-05-02"
            },
            {
              "StartDate": "2025-05-06",
              "EndDate": "2025-05-09"
            },
            {
              "StartDate": "2025-05-12",
              "EndDate": "2025-05-16"
            },
            {
              "StartDate": "2025-05-19",
              "EndDate": "2025-05-23"
            }
          ]
        }
      }
    },
    "StopPoints": [
      {
        "AnnotatedStopPointRef": [
          {
            "StopPointRef": "4400CY0294",
            "CommonName": "Crawley Bus Station",
            "Location": {
              "Longitude": -0.186612,
              "Latitude": 51.112979
            }
          },
          {
            "StopPointRef": "4400CY0239",
            "CommonName": "Haslett Avenue East",
            "Location": {
              "Longitude": -0.176916,
              "Latitude": 51.114236
            }
          },
          {
            "StopPointRef": "4400CY0241",
            "CommonName": "Squareabout",
            "Location": {
              "Longitude": -0.171032,
              "Latitude": 51.114429
            }
          },
          {
            "StopPointRef": "4400CY0205",
            "CommonName": "Three Bridges Station",
            "Location": {
              "Longitude": -0.162296,
              "Latitude": 51.118363
            }
          },
          {
            "StopPointRef": "4400CY0523",
            "CommonName": "Worth Park Avenue",
            "Location": {
              "Longitude": -0.15567,
              "Latitude": 51.120371
            }
          },
          {
            "StopPointRef": "4400CY0550",
            "CommonName": "Ridley's Corner",
            "Location": {
              "Longitude": -0.149402,
              "Latitude": 51.123008
            }
          },
          {
            "StopPointRef": "4400CY0183",
            "CommonName": "Blackheath",
            "LocalityName": "Crawley",
            "Location": {
              "Longitude": -0.145003,
              "Latitude": 51.124143
            }
          },
          {
            "StopPointRef": "4400EG0219",
            "CommonName": "Garden Centre",
            "Location": {
              "Longitude": -0.137064,
              "Latitude": 51.128084
            }
          },
          {
            "StopPointRef": "4400EG0222",
            "CommonName": "Petrol Station",
            "Location": {
              "Longitude": -0.132322,
              "Latitude": 51.130756
            }
          },
          {
            "StopPointRef": "4400EG0224",
            "CommonName": "Copthorne Hotel",
            "Location": {
              "Longitude": -0.122865,
              "Latitude": 51.133887
            }
          },
          {
            "StopPointRef": "4400EG0227",
            "CommonName": "Newtown",
            "Location": {
              "Longitude": -0.114778,
              "Latitude": 51.13512
            }
          },
          {
            "StopPointRef": "4400EG0229",
            "CommonName": "Abergavenny Gardens",
            "Location": {
              "Longitude": -0.101474,
              "Latitude": 51.137045
            }
          },
          {
            "StopPointRef": "4400EG0231",
            "CommonName": "Cottage Place",
            "Location": {
              "Longitude": -0.097144,
              "Latitude": 51.136551
            }
          },
          {
            "StopPointRef": "4400EG0233",
            "CommonName": "Copthorne, Dukes Head",
            "Location": {
              "Longitude": -0.092714,
              "Latitude": 51.136029
            }
          },
          {
            "StopPointRef": "4400EG0235",
            "CommonName": "Mascotte",
            "Location": {
              "Longitude": -0.091043,
              "Latitude": 51.129583
            }
          },
          {
            "StopPointRef": "4400EG0447",
            "CommonName": "Sandy Lane",
            "Location": {
              "Longitude": -0.089458,
              "Latitude": 51.126239
            }
          },
          {
            "StopPointRef": "4400EG0247",
            "CommonName": "Forge Garage",
            "Location": {
              "Longitude": -0.083986,
              "Latitude": 51.125177
            }
          },
          {
            "StopPointRef": "4400EG0245",
            "CommonName": "Crawley Down, War Memorial",
            "Location": {
              "Longitude": -0.079186,
              "Latitude": 51.124952
            }
          },
          {
            "StopPointRef": "4400EG0354",
            "CommonName": "Sunnymead",
            "Location": {
              "Longitude": -0.078587,
              "Latitude": 51.122461
            }
          },
          {
            "StopPointRef": "4400EG0688",
            "CommonName": "Royal Oak",
            "Location": {
              "Longitude": -0.077173,
              "Latitude": 51.120375
            }
          },
          {
            "StopPointRef": "4400EG0253",
            "CommonName": "Grange Road",
            "Location": {
              "Longitude": -0.083859,
              "Latitude": 51.118416
            }
          },
          {
            "StopPointRef": "4400EG0344",
            "CommonName": "Stonecroft Post Box",
            "Location": {
              "Longitude": -0.089288,
              "Latitude": 51.111962
            }
          },
          {
            "StopPointRef": "4400EG0342",
            "CommonName": "Medway",
            "Location": {
              "Longitude": -0.086861,
              "Latitude": 51.10761
            }
          },
          {
            "StopPointRef": "4400EG0341",
            "CommonName": "Turners Hill, Crown",
            "Location": {
              "Longitude": -0.084977,
              "Latitude": 51.103762
            }
          },
          {
            "StopPointRef": "4400EG0385",
            "CommonName": "Withypitts Pond",
            "Location": {
              "Longitude": -0.085363,
              "Latitude": 51.102099
            }
          },
          {
            "StopPointRef": "4400EG0351",
            "CommonName": "Tarana",
            "Location": {
              "Longitude": -0.082752,
              "Latitude": 51.097163
            }
          },
          {
            "StopPointRef": "4400EG0161",
            "CommonName": "Kew Wakehurst, Car Park",
            "Location": {
              "Longitude": -0.085514,
              "Latitude": 51.068412
            }
          },
          {
            "StopPointRef": "4400EG0164",
            "CommonName": "Gardeners Arms",
            "Location": {
              "Longitude": -0.085788,
              "Latitude": 51.059592
            }
          },
          {
            "StopPointRef": "4400EG0461",
            "CommonName": "Hett Close",
            "Location": {
              "Longitude": -0.079271,
              "Latitude": 51.051329
            }
          },
          {
            "StopPointRef": "4400EG0148",
            "CommonName": "Ardingly, Hapstead Hall",
            "Location": {
              "Longitude": -0.07776,
              "Latitude": 51.048326
            }
          },
          {
            "StopPointRef": "4400EG0009",
            "CommonName": "Buxshalls",
            "Location": {
              "Longitude": -0.069543,
              "Latitude": 51.027548
            }
          },
          {
            "StopPointRef": "4400EG0423",
            "CommonName": "Hollyrood",
            "Location": {
              "Longitude": -0.071841,
              "Latitude": 51.02361
            }
          },
          {
            "StopPointRef": "4400EG0007",
            "CommonName": "Lindfield High Street",
            "Location": {
              "Longitude": -0.08131,
              "Latitude": 51.012374
            }
          },
          {
            "StopPointRef": "4400EG0142",
            "CommonName": "Lindfield Common",
            "Location": {
              "Longitude": -0.084189,
              "Latitude": 51.010486
            }
          },
          {
            "StopPointRef": "4400EG0042",
            "CommonName": "Hickmans Lane",
            "Location": {
              "Longitude": -0.08865,
              "Latitude": 51.011296
            }
          },
          {
            "StopPointRef": "4400EG0041",
            "CommonName": "West Common Drive",
            "Location": {
              "Longitude": -0.09093,
              "Latitude": 51.010109
            }
          },
          {
            "StopPointRef": "4400EG0039",
            "CommonName": "Summerhill Lane",
            "Location": {
              "Longitude": -0.094365,
              "Latitude": 51.008087
            }
          },
          {
            "StopPointRef": "4400EG0051",
            "CommonName": "Haywards Heath, Perrymount Rd",
            "Location": {
              "Longitude": -0.103356,
              "Latitude": 51.005371
            }
          },
          {
            "StopPointRef": "4400EG0083",
            "CommonName": "Jireh Court",
            "Location": {
              "Longitude": -0.103969,
              "Latitude": 51.002638
            }
          },
          {
            "StopPointRef": "4400EG0038",
            "CommonName": "The Broadway",
            "Location": {
              "Longitude": -0.106419,
              "Latitude": 50.999518
            }
          },
          {
            "StopPointRef": "4400EG0089",
            "CommonName": "Haywards Heath, South Road",
            "Location": {
              "Longitude": -0.102515,
              "Latitude": 50.996992
            }
          },
          {
            "StopPointRef": "4400EG0451",
            "CommonName": "The Priory",
            "Location": {
              "Longitude": -0.099124,
              "Latitude": 50.994952
            }
          },
          {
            "StopPointRef": "4400EG0092",
            "CommonName": "Franklynn Road",
            "Location": {
              "Longitude": -0.093696,
              "Latitude": 50.992695
            }
          },
          {
            "StopPointRef": "4400EG0014",
            "CommonName": "Haywards Heath, Prin Roy Hosp",
            "Location": {
              "Longitude": -0.090975,
              "Latitude": 50.992335
            }
          },
          {
            "StopPointRef": "4400EG0013",
            "CommonName": "Haywards Heath, Prin Roy Hosp",
            "Location": {
              "Longitude": -0.091189,
              "Latitude": 50.992183
            }
          },
          {
            "StopPointRef": "4400EG0455",
            "CommonName": "Colwell Gardens",
            "Location": {
              "Longitude": -0.096388,
              "Latitude": 50.99069
            }
          },
          {
            "StopPointRef": "4400EG0685",
            "CommonName": "Rocky Lane",
            "Location": {
              "Longitude": -0.100932,
              "Latitude": 50.988344
            }
          },
          {
            "StopPointRef": "4400EG0017",
            "CommonName": "Fox Hill",
            "Location": {
              "Longitude": -0.100989,
              "Latitude": 50.987013
            }
          },
          {
            "StopPointRef": "4400EG0015",
            "CommonName": "Fox and Hounds",
            "Location": {
              "Longitude": -0.096773,
              "Latitude": 50.981556
            }
          },
          {
            "StopPointRef": "1400LE84337",
            "CommonName": "Wivelsfield, Ote Hall Chapel",
            "Location": {
              "Longitude": -0.090551,
              "Latitude": 50.968781
            }
          },
          {
            "StopPointRef": "1400LE10209",
            "CommonName": "Bethel Baptist Church",
            "Location": {
              "Longitude": -0.093684,
              "Latitude": 50.962568
            }
          },
          {
            "StopPointRef": "1400LE84327",
            "CommonName": "St George's Park",
            "Location": {
              "Longitude": -0.099037,
              "Latitude": 50.95872
            }
          },
          {
            "StopPointRef": "4400MS0122",
            "CommonName": "Janes Lane",
            "Location": {
              "Longitude": -0.109373,
              "Latitude": 50.96379
            }
          },
          {
            "StopPointRef": "4400MS0086",
            "CommonName": "Worlds End",
            "Location": {
              "Longitude": -0.118414,
              "Latitude": 50.965362
            }
          },
          {
            "StopPointRef": "4400MS0131",
            "CommonName": "Junction Close",
            "Location": {
              "Longitude": -0.120604,
              "Latitude": 50.962036
            }
          },
          {
            "StopPointRef": "4400MS0126",
            "CommonName": "St Andrew's Church",
            "Location": {
              "Longitude": -0.121856,
              "Latitude": 50.96021
            }
          },
          {
            "StopPointRef": "4400MS0127",
            "CommonName": "Mayfield Court",
            "Location": {
              "Longitude": -0.124203,
              "Latitude": 50.956784
            }
          },
          {
            "StopPointRef": "4400MS0129",
            "CommonName": "Oakwood Road",
            "Location": {
              "Longitude": -0.125198,
              "Latitude": 50.95406
            }
          },
          {
            "StopPointRef": "4400MS0066",
            "CommonName": "Burgess Hill, Rail Station",
            "Location": {
              "Longitude": -0.128116,
              "Latitude": 50.954239
            }
          },
          {
            "StopPointRef": "4400MS0172",
            "CommonName": "Burgess Hill, Church Road",
            "Location": {
              "Longitude": -0.130707,
              "Latitude": 50.955668
            }
          },
          {
            "StopPointRef": "4400MS0045",
            "CommonName": "Civic Way",
            "Location": {
              "Longitude": -0.133597,
              "Latitude": 50.955352
            }
          },
          {
            "StopPointRef": "4400MS0046",
            "CommonName": "Queen Elizabeth Ave",
            "Location": {
              "Longitude": -0.135275,
              "Latitude": 50.954237
            }
          },
          {
            "StopPointRef": "4400MS0048",
            "CommonName": "Station Road",
            "Location": {
              "Longitude": -0.138989,
              "Latitude": 50.952788
            }
          },
          {
            "StopPointRef": "4400MS0050",
            "CommonName": "London Road",
            "Location": {
              "Longitude": -0.140365,
              "Latitude": 50.947843
            }
          },
          {
            "StopPointRef": "4400MS0186",
            "CommonName": "Friars Oak PH",
            "Location": {
              "Longitude": -0.14745,
              "Latitude": 50.93261
            }
          },
          {
            "StopPointRef": "4400MS0183",
            "CommonName": "London Road",
            "Location": {
              "Longitude": -0.148825,
              "Latitude": 50.928582
            }
          },
          {
            "StopPointRef": "4400MS0181",
            "CommonName": "Hassocks, Stone Pound",
            "Location": {
              "Longitude": -0.153016,
              "Latitude": 50.923636
            }
          },
          {
            "StopPointRef": "4400MS0416",
            "CommonName": "Nurseries",
            "Location": {
              "Longitude": -0.153312,
              "Latitude": 50.921496
            }
          },
          {
            "StopPointRef": "4400MS0239",
            "CommonName": "Jack & Jill",
            "Location": {
              "Longitude": -0.154098,
              "Latitude": 50.913206
            }
          },
          {
            "StopPointRef": "4400MS0237",
            "CommonName": "Mill Lane",
            "Location": {
              "Longitude": -0.157303,
              "Latitude": 50.906102
            }
          },
          {
            "StopPointRef": "4400MS0236",
            "CommonName": "Rockrose",
            "Location": {
              "Longitude": -0.158679,
              "Latitude": 50.904052
            }
          },
          {
            "StopPointRef": "4400MS0229",
            "CommonName": "Pyecombe, Garage",
            "Location": {
              "Longitude": -0.16272,
              "Latitude": 50.89567
            }
          },
          {
            "StopPointRef": 149000006052,
            "CommonName": "Patcham Place",
            "Location": {
              "Longitude": -0.152405,
              "Latitude": 50.864974
            }
          },
          {
            "StopPointRef": 149000006051,
            "CommonName": "Brangwyn Crescent",
            "Location": {
              "Longitude": -0.151905,
              "Latitude": 50.862673
            }
          },
          {
            "StopPointRef": 149000006050,
            "CommonName": "Ridgeside Avenue",
            "Location": {
              "Longitude": -0.151944,
              "Latitude": 50.859697
            }
          },
          {
            "StopPointRef": 149000006048,
            "CommonName": "The Deneway",
            "Location": {
              "Longitude": -0.154311,
              "Latitude": 50.855578
            }
          },
          {
            "StopPointRef": 149000006046,
            "CommonName": "Tongdean Lane",
            "Location": {
              "Longitude": -0.153995,
              "Latitude": 50.852297
            }
          },
          {
            "StopPointRef": 149000006044,
            "CommonName": "Cedars Gardens",
            "Location": {
              "Longitude": -0.152756,
              "Latitude": 50.850023
            }
          },
          {
            "StopPointRef": 149000006042,
            "CommonName": "Varndean Road",
            "Location": {
              "Longitude": -0.152641,
              "Latitude": 50.84845
            }
          },
          {
            "StopPointRef": 149000006041,
            "CommonName": "Preston Road, Harrington Road",
            "Location": {
              "Longitude": -0.151388,
              "Latitude": 50.845852
            }
          },
          {
            "StopPointRef": 149000006039,
            "CommonName": "Preston Drove",
            "Location": {
              "Longitude": -0.151028,
              "Latitude": 50.841843
            }
          },
          {
            "StopPointRef": 149000006038,
            "CommonName": "Nestor Court",
            "Location": {
              "Longitude": -0.148668,
              "Latitude": 50.839228
            }
          },
          {
            "StopPointRef": 149000006037,
            "CommonName": "Lovers Walk",
            "Location": {
              "Longitude": -0.146679,
              "Latitude": 50.838186
            }
          },
          {
            "StopPointRef": 149000006033,
            "CommonName": "Stanford Avenue",
            "Location": {
              "Longitude": -0.142334,
              "Latitude": 50.836965
            }
          },
          {
            "StopPointRef": 149000006034,
            "CommonName": "Springfield Road",
            "Location": {
              "Longitude": -0.140346,
              "Latitude": 50.837118
            }
          },
          {
            "StopPointRef": 149000006035,
            "CommonName": "Preston Circus",
            "Location": {
              "Longitude": -0.138327,
              "Latitude": 50.833154
            }
          },
          {
            "StopPointRef": 149000006031,
            "CommonName": "Baker Street",
            "Location": {
              "Longitude": -0.136735,
              "Latitude": 50.83186
            }
          },
          {
            "StopPointRef": 149000006029,
            "CommonName": "London Road Shops",
            "Location": {
              "Longitude": -0.135882,
              "Latitude": 50.830269
            }
          },
          {
            "StopPointRef": 149000006937,
            "CommonName": "St Peters Church",
            "LocalityName": "Brighton and Hove",
            "Location": {
              "Longitude": -0.13527,
              "Latitude": 50.827483
            }
          },
          {
            "StopPointRef": 149000006920,
            "CommonName": "Brighton, North Road",
            "LocalityName": "Brighton and Hove",
            "Location": {
              "Longitude": -0.135822,
              "Latitude": 50.825675
            }
          },
          {
            "StopPointRef": 149000007835,
            "CommonName": "Old Steine",
            "Location": {
              "Longitude": -0.136498,
              "Latitude": 50.820326
            }
          },
          {
            "StopPointRef": 149000007821,
            "CommonName": "Sea Life Centre",
            "Location": {
              "Longitude": -0.135462,
              "Latitude": 50.81994
            }
          },
          {
            "StopPointRef": 149000007003,
            "CommonName": "New Steine",
            "Location": {
              "Longitude": -0.131871,
              "Latitude": 50.819338
            }
          },
          {
            "StopPointRef": 149000007004,
            "CommonName": "Bedford Street South",
            "Location": {
              "Longitude": -0.126449,
              "Latitude": 50.818351
            }
          },
          {
            "StopPointRef": 149000007005,
            "CommonName": "Burlington Street",
            "Location": {
              "Longitude": -0.124164,
              "Latitude": 50.817965
            }
          },
          {
            "StopPointRef": 149000007006,
            "CommonName": "Paston Place",
            "Location": {
              "Longitude": -0.118458,
              "Latitude": 50.816887
            }
          },
          {
            "StopPointRef": 149000006009,
            "CommonName": "Eaton Place",
            "Location": {
              "Longitude": -0.116826,
              "Latitude": 50.816807
            }
          },
          {
            "StopPointRef": 149000007998,
            "CommonName": "Royal Sussex County Hospital",
            "Location": {
              "Longitude": -0.116827,
              "Latitude": 50.818686
            }
          },
          {
            "StopPointRef": "4400EG0228",
            "CommonName": "Abergavenny Gardens",
            "Location": {
              "Longitude": -0.103446,
              "Latitude": 51.137045
            }
          },
          {
            "StopPointRef": "4400EG0398",
            "CommonName": "Alderwood Cottages",
            "Location": {
              "Longitude": -0.084733,
              "Latitude": 51.057165
            }
          },
          {
            "StopPointRef": "4400EG0165",
            "CommonName": "Ardingly, Hapstead Hall",
            "Location": {
              "Longitude": -0.078445,
              "Latitude": 51.048902
            }
          },
          {
            "StopPointRef": "1400LE10210",
            "CommonName": "Bethel Baptist Church",
            "Location": {
              "Longitude": -0.093969,
              "Latitude": 50.962416
            }
          },
          {
            "StopPointRef": 149000007051,
            "CommonName": "Brangwyn Crescent",
            "Location": {
              "Longitude": -0.152004,
              "Latitude": 50.862349
            }
          },
          {
            "StopPointRef": 149000006992,
            "CommonName": "Brighton Churchill Square",
            "Location": {
              "Longitude": -0.145969,
              "Latitude": 50.823963
            }
          },
          {
            "StopPointRef": "4400MS0067",
            "CommonName": "Burgess Hill, Rail Station",
            "Location": {
              "Longitude": -0.127603,
              "Latitude": 50.954194
            }
          },
          {
            "StopPointRef": "4400EG0008",
            "CommonName": "Buxshalls",
            "Location": {
              "Longitude": -0.069643,
              "Latitude": 51.027611
            }
          },
          {
            "StopPointRef": 149000007044,
            "CommonName": "Cedars Gardens",
            "Location": {
              "Longitude": -0.153169,
              "Latitude": 50.851039
            }
          },
          {
            "StopPointRef": "1400LE84335",
            "CommonName": "Wivelsfield, Ote Hall Chapel",
            "Location": {
              "Longitude": -0.091149,
              "Latitude": 50.968214
            }
          },
          {
            "StopPointRef": 149000006423,
            "CommonName": "College Place",
            "Location": {
              "Longitude": -0.121298,
              "Latitude": 50.819944
            }
          },
          {
            "StopPointRef": "4400EG0223",
            "CommonName": "Copthorne Hotel",
            "Location": {
              "Longitude": -0.123879,
              "Latitude": 51.133653
            }
          },
          {
            "StopPointRef": "4400EG0232",
            "CommonName": "Copthorne, Dukes Head",
            "Location": {
              "Longitude": -0.094329,
              "Latitude": 51.136092
            }
          },
          {
            "StopPointRef": "4400EG0230",
            "CommonName": "Cottage Place",
            "Location": {
              "Longitude": -0.097916,
              "Latitude": 51.136506
            }
          },
          {
            "StopPointRef": "4400CY0295",
            "CommonName": "Crawley Bus Station",
            "Location": {
              "Longitude": -0.186683,
              "Latitude": 51.112952
            }
          },
          {
            "StopPointRef": "4400EG0246",
            "CommonName": "Crawley Down, War Memorial",
            "Location": {
              "Longitude": -0.079357,
              "Latitude": 51.124799
            }
          },
          {
            "StopPointRef": "4400EG0689",
            "CommonName": "Royal Oak",
            "Location": {
              "Longitude": -0.077259,
              "Latitude": 51.120294
            }
          },
          {
            "StopPointRef": 149000006417,
            "CommonName": "Devonshire Place",
            "Location": {
              "Longitude": -0.130667,
              "Latitude": 50.821955
            }
          },
          {
            "StopPointRef": "4400EG0448",
            "CommonName": "Forge Garage",
            "Location": {
              "Longitude": -0.083972,
              "Latitude": 51.125078
            }
          },
          {
            "StopPointRef": "4400EG0695",
            "CommonName": "Fox and Hounds",
            "Location": {
              "Longitude": -0.096104,
              "Latitude": 50.98054
            }
          },
          {
            "StopPointRef": "4400EG0093",
            "CommonName": "Franklynn Road",
            "Location": {
              "Longitude": -0.094209,
              "Latitude": 50.992776
            }
          },
          {
            "StopPointRef": "4400MS0185",
            "CommonName": "Friars Oak PH",
            "Location": {
              "Longitude": -0.147136,
              "Latitude": 50.93146
            }
          },
          {
            "StopPointRef": 149000006410,
            "CommonName": "Gala Bingo Hall",
            "Location": {
              "Longitude": -0.123853,
              "Latitude": 50.820698
            }
          },
          {
            "StopPointRef": "4400EG0163",
            "CommonName": "Gardeners Arms",
            "Location": {
              "Longitude": -0.086016,
              "Latitude": 51.059889
            }
          },
          {
            "StopPointRef": "4400EG0252",
            "CommonName": "Grange Road",
            "Location": {
              "Longitude": -0.084059,
              "Latitude": 51.118551
            }
          },
          {
            "StopPointRef": 149000007041,
            "CommonName": "Preston Road, Harrington Road",
            "Location": {
              "Longitude": -0.151502,
              "Latitude": 50.84587
            }
          },
          {
            "StopPointRef": "4400CY0240",
            "CommonName": "Haslett Avenue East",
            "Location": {
              "Longitude": -0.175959,
              "Latitude": 51.114201
            }
          },
          {
            "StopPointRef": "4400MS0182",
            "CommonName": "Hassocks, Stone Pound",
            "Location": {
              "Longitude": -0.152819,
              "Latitude": 50.925137
            }
          },
          {
            "StopPointRef": "4400EG0090",
            "CommonName": "Haywards Heath, South Road",
            "Location": {
              "Longitude": -0.102002,
              "Latitude": 50.996516
            }
          },
          {
            "StopPointRef": "4400EG0050",
            "CommonName": "Haywards Heath, Perrymount Rd",
            "Location": {
              "Longitude": -0.103584,
              "Latitude": 51.005452
            }
          },
          {
            "StopPointRef": "4400EG0460",
            "CommonName": "Hett Close",
            "Location": {
              "Longitude": -0.079528,
              "Latitude": 51.051527
            }
          },
          {
            "StopPointRef": "4400EG0043",
            "CommonName": "Hickmans Lane",
            "Location": {
              "Longitude": -0.088607,
              "Latitude": 51.011422
            }
          },
          {
            "StopPointRef": "4400EG0424",
            "CommonName": "Hollyrood",
            "Location": {
              "Longitude": -0.072126,
              "Latitude": 51.023512
            }
          },
          {
            "StopPointRef": "4400MS0240",
            "CommonName": "Jack & Jill",
            "Location": {
              "Longitude": -0.154326,
              "Latitude": 50.91317
            }
          },
          {
            "StopPointRef": "4400MS0123",
            "CommonName": "Janes Lane",
            "Location": {
              "Longitude": -0.108803,
              "Latitude": 50.963916
            }
          },
          {
            "StopPointRef": "4400EG0084",
            "CommonName": "Jireh Court",
            "Location": {
              "Longitude": -0.104311,
              "Latitude": 51.002396
            }
          },
          {
            "StopPointRef": "4400MS0124",
            "CommonName": "Junction Close",
            "Location": {
              "Longitude": -0.12042,
              "Latitude": 50.962386
            }
          },
          {
            "StopPointRef": 149000006418,
            "CommonName": "Law Courts",
            "Location": {
              "Longitude": -0.13501,
              "Latitude": 50.822619
            }
          },
          {
            "StopPointRef": "4400EG0006",
            "CommonName": "Lindfield High Street",
            "Location": {
              "Longitude": -0.081495,
              "Latitude": 51.012509
            }
          },
          {
            "StopPointRef": "4400EG0143",
            "CommonName": "Lindfield Common",
            "Location": {
              "Longitude": -0.084688,
              "Latitude": 51.010936
            }
          },
          {
            "StopPointRef": 149000007926,
            "CommonName": "London Road Shops",
            "Location": {
              "Longitude": -0.136337,
              "Latitude": 50.831024
            }
          },
          {
            "StopPointRef": "4400MS0184",
            "CommonName": "London Road",
            "Location": {
              "Longitude": -0.147532,
              "Latitude": 50.929877
            }
          },
          {
            "StopPointRef": "4400MS0051",
            "CommonName": "London Road",
            "Location": {
              "Longitude": -0.140635,
              "Latitude": 50.947915
            }
          },
          {
            "StopPointRef": "4400EG0359",
            "CommonName": "Mascotte",
            "Location": {
              "Longitude": -0.091043,
              "Latitude": 51.129233
            }
          },
          {
            "StopPointRef": "4400MS0128",
            "CommonName": "Mayfield Court",
            "Location": {
              "Longitude": -0.124687,
              "Latitude": 50.957045
            }
          },
          {
            "StopPointRef": "4400EG0343",
            "CommonName": "Medway",
            "Location": {
              "Longitude": -0.08729,
              "Latitude": 51.107646
            }
          },
          {
            "StopPointRef": 149000007037,
            "CommonName": "Nestor Court",
            "Location": {
              "Longitude": -0.148256,
              "Latitude": 50.839021
            }
          },
          {
            "StopPointRef": "4400EG0225",
            "CommonName": "Newtown",
            "Location": {
              "Longitude": -0.116078,
              "Latitude": 51.134553
            }
          },
          {
            "StopPointRef": "4400MS0417",
            "CommonName": "Nurseries",
            "Location": {
              "Longitude": -0.153511,
              "Latitude": 50.921505
            }
          },
          {
            "StopPointRef": "4400MS0130",
            "CommonName": "Oakwood Road",
            "Location": {
              "Longitude": -0.125924,
              "Latitude": 50.953835
            }
          },
          {
            "StopPointRef": "4400HR1019",
            "CommonName": "Oathall Community College",
            "Location": {
              "Longitude": -0.090489,
              "Latitude": 51.007664
            }
          },
          {
            "StopPointRef": 149000007813,
            "CommonName": "Old Steine",
            "Location": {
              "Longitude": -0.13728,
              "Latitude": 50.821674
            }
          },
          {
            "StopPointRef": 149000006416,
            "CommonName": "Park Street",
            "Location": {
              "Longitude": -0.126905,
              "Latitude": 50.821309
            }
          },
          {
            "StopPointRef": 149000007052,
            "CommonName": "Patcham Place",
            "Location": {
              "Longitude": -0.15286,
              "Latitude": 50.865261
            }
          },
          {
            "StopPointRef": "4400EG0221",
            "CommonName": "Petrol Station",
            "Location": {
              "Longitude": -0.132993,
              "Latitude": 51.130468
            }
          },
          {
            "StopPointRef": 149000007039,
            "CommonName": "Preston Drove",
            "Location": {
              "Longitude": -0.15157,
              "Latitude": 50.843937
            }
          },
          {
            "StopPointRef": 149000007032,
            "CommonName": "Preston Circus",
            "Location": {
              "Longitude": -0.139846,
              "Latitude": 50.834089
            }
          },
          {
            "StopPointRef": "4400MS0234",
            "CommonName": "Pyecombe, Garage",
            "Location": {
              "Longitude": -0.162551,
              "Latitude": 50.896866
            }
          },
          {
            "StopPointRef": "4400MS0047",
            "CommonName": "Queen Elizabeth Ave",
            "Location": {
              "Longitude": -0.13603,
              "Latitude": 50.954381
            }
          },
          {
            "StopPointRef": "4400MS0423",
            "CommonName": "Queens Crescent",
            "Location": {
              "Longitude": -0.129482,
              "Latitude": 50.954481
            }
          },
          {
            "StopPointRef": 149000007050,
            "CommonName": "Ridgeside Avenue",
            "Location": {
              "Longitude": -0.152129,
              "Latitude": 50.859697
            }
          },
          {
            "StopPointRef": "4400CY0182",
            "CommonName": "Ridley's Corner",
            "Location": {
              "Longitude": -0.148916,
              "Latitude": 51.12291
            }
          },
          {
            "StopPointRef": "4400MS0235",
            "CommonName": "Rockrose",
            "Location": {
              "Longitude": -0.158907,
              "Latitude": 50.904097
            }
          },
          {
            "StopPointRef": "4400EG0686",
            "CommonName": "Fox Hill",
            "Location": {
              "Longitude": -0.101132,
              "Latitude": 50.987157
            }
          },
          {
            "StopPointRef": 149000007038,
            "CommonName": "Rookery Close",
            "Location": {
              "Longitude": -0.150843,
              "Latitude": 50.841159
            }
          },
          {
            "StopPointRef": 149000006424,
            "CommonName": "Royal Sussex County Hospital",
            "Location": {
              "Longitude": -0.117849,
              "Latitude": 50.818982
            }
          },
          {
            "StopPointRef": "4400EG0236",
            "CommonName": "Sandy Lane",
            "Location": {
              "Longitude": -0.089558,
              "Latitude": 51.126194
            }
          },
          {
            "StopPointRef": 149000007034,
            "CommonName": "Springfield Road",
            "LocalityName": "Brighton and Hove",
            "Location": {
              "Longitude": -0.142858,
              "Latitude": 50.836012
            }
          },
          {
            "StopPointRef": "4400CY0242",
            "CommonName": "Squareabout",
            "Location": {
              "Longitude": -0.170159,
              "Latitude": 51.113611
            }
          },
          {
            "StopPointRef": "4400MS0125",
            "CommonName": "St Andrew's Church",
            "Location": {
              "Longitude": -0.122269,
              "Latitude": 50.960759
            }
          },
          {
            "StopPointRef": 149000007036,
            "CommonName": "Stanford Avenue",
            "LocalityName": "Brighton and Hove",
            "Location": {
              "Longitude": -0.146097,
              "Latitude": 50.837826
            }
          },
          {
            "StopPointRef": "4400MS0049",
            "CommonName": "Station Road",
            "Location": {
              "Longitude": -0.139231,
              "Latitude": 50.952761
            }
          },
          {
            "StopPointRef": "1400LE84319",
            "CommonName": "St George's Park",
            "Location": {
              "Longitude": -0.099392,
              "Latitude": 50.959395
            }
          },
          {
            "StopPointRef": "4400EG0345",
            "CommonName": "Stonecroft Post Box",
            "Location": {
              "Longitude": -0.089474,
              "Latitude": 51.111962
            }
          },
          {
            "StopPointRef": 149000007936,
            "CommonName": "St Peters Church",
            "LocalityName": "Brighton and Hove",
            "Location": {
              "Longitude": -0.135569,
              "Latitude": 50.828471
            }
          },
          {
            "StopPointRef": "4400EG0040",
            "CommonName": "Summerhill Lane",
            "Location": {
              "Longitude": -0.094407,
              "Latitude": 51.008204
            }
          },
          {
            "StopPointRef": "4400EG0353",
            "CommonName": "Sunnymead",
            "Location": {
              "Longitude": -0.078772,
              "Latitude": 51.122497
            }
          },
          {
            "StopPointRef": "4400EG0681",
            "CommonName": "Tarana",
            "Location": {
              "Longitude": -0.08288,
              "Latitude": 51.097001
            }
          },
          {
            "StopPointRef": "4400EG0085",
            "CommonName": "The Broadway",
            "Location": {
              "Longitude": -0.105764,
              "Latitude": 51.000894
            }
          },
          {
            "StopPointRef": 149000007048,
            "CommonName": "The Deneway",
            "Location": {
              "Longitude": -0.154411,
              "Latitude": 50.855812
            }
          },
          {
            "StopPointRef": "4400EG0450",
            "CommonName": "The Priory",
            "Location": {
              "Longitude": -0.099095,
              "Latitude": 50.994817
            }
          },
          {
            "StopPointRef": "4400CY0203",
            "CommonName": "Three Bridges Station",
            "Location": {
              "Longitude": -0.162524,
              "Latitude": 51.117976
            }
          },
          {
            "StopPointRef": 149000007046,
            "CommonName": "Tongdean Lane",
            "Location": {
              "Longitude": -0.155246,
              "Latitude": 50.853609
            }
          },
          {
            "StopPointRef": 149000007042,
            "CommonName": "Varndean Road",
            "Location": {
              "Longitude": -0.152712,
              "Latitude": 50.848414
            }
          },
          {
            "StopPointRef": "4400EG0086",
            "CommonName": "Victoria Recreation Ground",
            "Location": {
              "Longitude": -0.104025,
              "Latitude": 50.997748
            }
          },
          {
            "StopPointRef": "4400EG0160",
            "CommonName": "Kew Wakehurst, Entrance",
            "Location": {
              "Longitude": -0.084416,
              "Latitude": 51.068295
            }
          },
          {
            "StopPointRef": "4400EG0016",
            "CommonName": "Weald Rise",
            "Location": {
              "Longitude": -0.098867,
              "Latitude": 50.983741
            }
          },
          {
            "StopPointRef": "4400EG0358",
            "CommonName": "West Common",
            "Location": {
              "Longitude": -0.091628,
              "Latitude": 51.009804
            }
          },
          {
            "StopPointRef": "4400EG0386",
            "CommonName": "Withypitts Pond",
            "Location": {
              "Longitude": -0.085992,
              "Latitude": 51.100696
            }
          },
          {
            "StopPointRef": "4400MS0090",
            "CommonName": "Worlds End, Janes Lane",
            "Location": {
              "Longitude": -0.117161,
              "Latitude": 50.965641
            }
          },
          {
            "StopPointRef": "4400CY0522",
            "CommonName": "Worth Park Avenue",
            "Location": {
              "Longitude": -0.155727,
              "Latitude": 51.1202
            }
          },
          {
            "StopPointRef": "4400EG0449",
            "CommonName": "Garden Centre",
            "Location": {
              "Longitude": -0.137977,
              "Latitude": 51.127257
            }
          },
          {
            "StopPointRef": 149000007031,
            "CommonName": "York Hill",
            "Location": {
              "Longitude": -0.137943,
              "Latitude": 50.832642
            }
          }
        ]
      }
    ],
    "RouteSections": [
      {
        "RouteSection": [
          {
            "RouteLink": [
              {
                "From": {
                  "StopPointRef": "4400CY0294"
                },
                "To": {
                  "StopPointRef": "4400CY0239"
                },
                "Direction": "inbound",
                "Track": {
                  "Mapping": {
                    "Location": [
                      {
                        "Longitude": -0.186612,
                        "Latitude": 51.112979
                      },
                      {
                        "Longitude": -0.186526,
                        "Latitude": 51.112656
                      },
                      {
                        "Longitude": -0.186483,
                        "Latitude": 51.112656
                      },
                      {
                        "Longitude": -0.186254,
                        "Latitude": 51.112638
                      },
                      {
                        "Longitude": -0.18574,
                        "Latitude": 51.112593
                      },
                      {
                        "Longitude": -0.185326,
                        "Latitude": 51.112594
                      },
                      {
                        "Longitude": -0.184997,
                        "Latitude": 51.11263
                      },
                      {
                        "Longitude": -0.184683,
                        "Latitude": 51.112729
                      },
                      {
                        "Longitude": -0.184412,
                        "Latitude": 51.112891
                      },
                      {
                        "Longitude": -0.184441,
                        "Latitude": 51.112909
                      },
                      {
                        "Longitude": -0.184455,
                        "Latitude": 51.112927
                      },
                      {
                        "Longitude": -0.18447,
                        "Latitude": 51.112936
                      },
                      {
                        "Longitude": -0.18447,
                        "Latitude": 51.112954
                      },
                      {
                        "Longitude": -0.18447,
                        "Latitude": 51.112963
                      },
                      {
                        "Longitude": -0.184441,
                        "Latitude": 51.112999
                      },
                      {
                        "Longitude": -0.184427,
                        "Latitude": 51.113008
                      },
                      {
                        "Longitude": -0.184413,
                        "Latitude": 51.113008
                      },
                      {
                        "Longitude": -0.184398,
                        "Latitude": 51.113017
                      },
                      {
                        "Longitude": -0.184384,
                        "Latitude": 51.113026
                      },
                      {
                        "Longitude": -0.184355,
                        "Latitude": 51.113026
                      },
                      {
                        "Longitude": -0.184341,
                        "Latitude": 51.113026
                      },
                      {
                        "Longitude": -0.184327,
                        "Latitude": 51.113026
                      },
                      {
                        "Longitude": -0.184313,
                        "Latitude": 51.113026
                      },
                      {
                        "Longitude": -0.18427,
                        "Latitude": 51.113008
                      },
                      {
                        "Longitude": -0.184255,
                        "Latitude": 51.113008
                      },
                      {
                        "Longitude": -0.183956,
                        "Latitude": 51.113062
                      },
                      {
                        "Longitude": -0.183484,
                        "Latitude": 51.113072
                      },
                      {
                        "Longitude": -0.183456,
                        "Latitude": 51.113072
                      },
                      {
                        "Longitude": -0.183427,
                        "Latitude": 51.113081
                      },
                      {
                        "Longitude": -0.18337,
                        "Latitude": 51.113099
                      },
                      {
                        "Longitude": -0.183242,
                        "Latitude": 51.113135
                      },
                      {
                        "Longitude": -0.183127,
                        "Latitude": 51.113144
                      },
                      {
                        "Longitude": -0.183142,
                        "Latitude": 51.113315
                      },
                      {
                        "Longitude": -0.183157,
                        "Latitude": 51.113782
                      },
                      {
                        "Longitude": -0.183143,
                        "Latitude": 51.113908
                      },
                      {
                        "Longitude": -0.183115,
                        "Latitude": 51.114034
                      },
                      {
                        "Longitude": -0.183086,
                        "Latitude": 51.114187
                      },
                      {
                        "Longitude": -0.182887,
                        "Latitude": 51.114178
                      },
                      {
                        "Longitude": -0.182587,
                        "Latitude": 51.11416
                      },
                      {
                        "Longitude": -0.182558,
                        "Latitude": 51.11416
                      },
                      {
                        "Longitude": -0.182358,
                        "Latitude": 51.11416
                      },
                      {
                        "Longitude": -0.18143,
                        "Latitude": 51.114215
                      },
                      {
                        "Longitude": -0.181244,
                        "Latitude": 51.114251
                      },
                      {
                        "Longitude": -0.18123,
                        "Latitude": 51.114278
                      },
                      {
                        "Longitude": -0.181216,
                        "Latitude": 51.114296
                      },
                      {
                        "Longitude": -0.181173,
                        "Latitude": 51.114323
                      },
                      {
                        "Longitude": -0.181144,
                        "Latitude": 51.114332
                      },
                      {
                        "Longitude": -0.181101,
                        "Latitude": 51.114341
                      },
                      {
                        "Longitude": -0.181059,
                        "Latitude": 51.114341
                      },
                      {
                        "Longitude": -0.181016,
                        "Latitude": 51.11435
                      },
                      {
                        "Longitude": -0.180973,
                        "Latitude": 51.114341
                      },
                      {
                        "Longitude": -0.18093,
                        "Latitude": 51.114332
                      },
                      {
                        "Longitude": -0.180901,
                        "Latitude": 51.114323
                      },
                      {
                        "Longitude": -0.180873,
                        "Latitude": 51.114296
                      },
                      {
                        "Longitude": -0.180844,
                        "Latitude": 51.11426
                      },
                      {
                        "Longitude": -0.180458,
                        "Latitude": 51.114171
                      },
                      {
                        "Longitude": -0.178816,
                        "Latitude": 51.114109
                      },
                      {
                        "Longitude": -0.177816,
                        "Latitude": 51.114101
                      },
                      {
                        "Longitude": -0.177116,
                        "Latitude": 51.114146
                      },
                      {
                        "Longitude": -0.176902,
                        "Latitude": 51.114164
                      }
                    ]
                  }
                },
                "id": "i272_1"
              },
              {
                "From": {
                  "StopPointRef": "4400CY0239"
                },
                "To": {
                  "StopPointRef": "4400CY0241"
                },
                "Direction": "inbound",
                "Track": {
                  "Mapping": {
                    "Location": [
                      {
                        "Longitude": -0.176902,
                        "Latitude": 51.114164
                      },
                      {
                        "Longitude": -0.176031,
                        "Latitude": 51.114237
                      },
                      {
                        "Longitude": -0.175531,
                        "Latitude": 51.114273
                      },
                      {
                        "Longitude": -0.173903,
                        "Latitude": 51.114337
                      },
                      {
                        "Longitude": -0.172703,
                        "Latitude": 51.114356
                      },
                      {
                        "Longitude": -0.17256,
                        "Latitude": 51.114365
                      },
                      {
                        "Longitude": -0.172374,
                        "Latitude": 51.114365
                      },
                      {
                        "Longitude": -0.171846,
                        "Latitude": 51.114365
                      },
                      {
                        "Longitude": -0.171717,
                        "Latitude": 51.114356
                      },
                      {
                        "Longitude": -0.171017,
                        "Latitude": 51.114375
                      }
                    ]
                  }
                },
                "id": "i272_2"
              },
              {
                "From": {
                  "StopPointRef": "4400CY0241"
                },
                "To": {
                  "StopPointRef": "4400CY0205"
                },
                "Direction": "inbound",
                "Track": {
                  "Mapping": {
                    "Location": [
                      {
                        "Longitude": -0.171017,
                        "Latitude": 51.114375
                      },
                      {
                        "Longitude": -0.17056,
                        "Latitude": 51.114384
                      },
                      {
                        "Longitude": -0.170403,
                        "Latitude": 51.114375
                      },
                      {
                        "Longitude": -0.170346,
                        "Latitude": 51.114366
                      },
                      {
                        "Longitude": -0.170146,
                        "Latitude": 51.114375
                      },
                      {
                        "Longitude": -0.169875,
                        "Latitude": 51.114358
                      },
                      {
                        "Longitude": -0.169046,
                        "Latitude": 51.114394
                      },
                      {
                        "Longitude": -0.168518,
                        "Latitude": 51.114466
                      },
                      {
                        "Longitude": -0.167518,
                        "Latitude": 51.114692
                      },
                      {
                        "Longitude": -0.167176,
                        "Latitude": 51.114809
                      },
                      {
                        "Longitude": -0.166862,
                        "Latitude": 51.114908
                      },
                      {
                        "Longitude": -0.166248,
                        "Latitude": 51.115169
                      },
                      {
                        "Longitude": -0.165691,
                        "Latitude": 51.115493
                      },
                      {
                        "Longitude": -0.16542,
                        "Latitude": 51.115691
                      },
                      {
                        "Longitude": -0.165106,
                        "Latitude": 51.115997
                      },
                      {
                        "Longitude": -0.164764,
                        "Latitude": 51.116339
                      },
                      {
                        "Longitude": -0.16408,
                        "Latitude": 51.11722
                      },
                      {
                        "Longitude": -0.163909,
                        "Latitude": 51.117373
                      },
                      {
                        "Longitude": -0.163209,
                        "Latitude": 51.117859
                      },
                      {
                        "Longitude": -0.162995,
                        "Latitude": 51.117994
                      },
                      {
                        "Longitude": -0.162753,
                        "Latitude": 51.118102
                      },
                      {
                        "Longitude": -0.162196,
                        "Latitude": 51.118309
                      }
                    ]
                  }
                },
                "id": "i272_3"
              },
              {
                "From": {
                  "StopPointRef": "4400CY0205"
                },
                "To": {
                  "StopPointRef": "4400CY0523"
                },
                "Direction": "inbound",
                "Track": {
                  "Mapping": {
                    "Location": [
                      {
                        "Longitude": -0.162196,
                        "Latitude": 51.118309
                      },
                      {
                        "Longitude": -0.16191,
                        "Latitude": 51.118417
                      },
                      {
                        "Longitude": -0.161453,
                        "Latitude": 51.118534
                      },
                      {
                        "Longitude": -0.160768,
                        "Latitude": 51.11866
                      },
                      {
                        "Longitude": -0.160582,
                        "Latitude": 51.118687
                      },
                      {
                        "Longitude": -0.160282,
                        "Latitude": 51.118742
                      },
                      {
                        "Longitude": -0.160197,
                        "Latitude": 51.118751
                      },
                      {
                        "Longitude": -0.160054,
                        "Latitude": 51.11876
                      },
                      {
                        "Longitude": -0.159354,
                        "Latitude": 51.118814
                      },
                      {
                        "Longitude": -0.158897,
                        "Latitude": 51.118877
                      },
                      {
                        "Longitude": -0.15834,
                        "Latitude": 51.11894
                      },
                      {
                        "Longitude": -0.158083,
                        "Latitude": 51.119003
                      },
                      {
                        "Longitude": -0.157769,
                        "Latitude": 51.119067
                      },
                      {
                        "Longitude": -0.15734,
                        "Latitude": 51.119175
                      },
                      {
                        "Longitude": -0.156969,
                        "Latitude": 51.119301
                      },
                      {
                        "Longitude": -0.156883,
                        "Latitude": 51.119319
                      },
                      {
                        "Longitude": -0.156384,
                        "Latitude": 51.119661
                      },
                      {
                        "Longitude": -0.15587,
                        "Latitude": 51.120137
                      },
                      {
                        "Longitude": -0.155628,
                        "Latitude": 51.120353
                      }
                    ]
                  }
                },
                "id": "i272_4"
              },
              {
                "From": {
                  "StopPointRef": "4400CY0523"
                },
                "To": {
                  "StopPointRef": "4400CY0550"
                },
                "Direction": "inbound",
                "Track": {
                  "Mapping": {
                    "Location": [
                      {
                        "Longitude": -0.155628,
                        "Latitude": 51.120353
                      },
                      {
                        "Longitude": -0.155371,
                        "Latitude": 51.120578
                      },
                      {
                        "Longitude": -0.154386,
                        "Latitude": 51.121235
                      },
                      {
                        "Longitude": -0.1539,
                        "Latitude": 51.121496
                      },
                      {
                        "Longitude": -0.153272,
                        "Latitude": 51.121766
                      },
                      {
                        "Longitude": -0.152501,
                        "Latitude": 51.122081
                      },
                      {
                        "Longitude": -0.152344,
                        "Latitude": 51.122144
                      },
                      {
                        "Longitude": -0.151045,
                        "Latitude": 51.122648
                      },
                      {
                        "Longitude": -0.150802,
                        "Latitude": 51.12272
                      },
                      {
                        "Longitude": -0.150359,
                        "Latitude": 51.122846
                      },
                      {
                        "Longitude": -0.149359,
                        "Latitude": 51.122972
                      }
                    ]
                  }
                },
                "id": "i272_5"
              },
              {
                "From": {
                  "StopPointRef": "4400CY0550"
                },
                "To": {
                  "StopPointRef": "4400CY0183"
                },
                "Direction": "inbound",
                "Track": {
                  "Mapping": {
                    "Location": [
                      {
                        "Longitude": -0.149359,
                        "Latitude": 51.122972
                      },
                      {
                        "Longitude": -0.149031,
                        "Latitude": 51.122973
                      },
                      {
                        "Longitude": -0.148902,
                        "Latitude": 51.122973
                      },
                      {
                        "Longitude": -0.148716,
                        "Latitude": 51.122964
                      },
                      {
                        "Longitude": -0.148574,
                        "Latitude": 51.122964
                      },
                      {
                        "Longitude": -0.148274,
                        "Latitude": 51.123081
                      },
                      {
                        "Longitude": -0.148231,
                        "Latitude": 51.123126
                      },
                      {
                        "Longitude": -0.148174,
                        "Latitude": 51.123171
                      },
                      {
                        "Longitude": -0.148088,
                        "Latitude": 51.123189
                      },
                      {
                        "Longitude": -0.14806,
                        "Latitude": 51.123189
                      },
                      {
                        "Longitude": -0.147974,
                        "Latitude": 51.123198
                      },
                      {
                        "Longitude": -0.147902,
                        "Latitude": 51.123189
                      },
                      {
                        "Longitude": -0.147845,
                        "Latitude": 51.123171
                      },
                      {
                        "Longitude": -0.147431,
                        "Latitude": 51.123225
                      },
                      {
                        "Longitude": -0.14736,
                        "Latitude": 51.123243
                      },
                      {
                        "Longitude": -0.147231,
                        "Latitude": 51.123297
                      },
                      {
                        "Longitude": -0.146374,
                        "Latitude": 51.123594
                      },
                      {
                        "Longitude": -0.146303,
                        "Latitude": 51.123621
                      },
                      {
                        "Longitude": -0.146046,
                        "Latitude": 51.12372
                      },
                      {
                        "Longitude": -0.14506,
                        "Latitude": 51.124062
                      },
                      {
                        "Longitude": -0.14496,
                        "Latitude": 51.124098
                      }
                    ]
                  }
                },
                "id": "i272_6"
              },
              {
                "From": {
                  "StopPointRef": "4400CY0183"
                },
                "To": {
                  "StopPointRef": "4400EG0219"
                },
                "Direction": "inbound",
                "Track": {
                  "Mapping": {
                    "Location": [
                      {
                        "Longitude": -0.14496,
                        "Latitude": 51.124098
                      },
                      {
                        "Longitude": -0.144746,
                        "Latitude": 51.124179
                      },
                      {
                        "Longitude": -0.144403,
                        "Latitude": 51.124296
                      },
                      {
                        "Longitude": -0.144104,
                        "Latitude": 51.124404
                      },
                      {
                        "Longitude": -0.144061,
                        "Latitude": 51.124422
                      },
                      {
                        "Longitude": -0.143989,
                        "Latitude": 51.124449
                      },
                      {
                        "Longitude": -0.143732,
                        "Latitude": 51.124539
                      },
                      {
                        "Longitude": -0.143632,
                        "Latitude": 51.124566
                      },
                      {
                        "Longitude": -0.143161,
                        "Latitude": 51.124728
                      },
                      {
                        "Longitude": -0.141776,
                        "Latitude": 51.125187
                      },
                      {
                        "Longitude": -0.14159,
                        "Latitude": 51.125259
                      },
                      {
                        "Longitude": -0.141162,
                        "Latitude": 51.125412
                      },
                      {
                        "Longitude": -0.141104,
                        "Latitude": 51.12543
                      },
                      {
                        "Longitude": -0.140419,
                        "Latitude": 51.125673
                      },
                      {
                        "Longitude": -0.140162,
                        "Latitude": 51.125808
                      },
                      {
                        "Longitude": -0.140033,
                        "Latitude": 51.125862
                      },
                      {
                        "Longitude": -0.139548,
                        "Latitude": 51.126141
                      },
                      {
                        "Longitude": -0.139162,
                        "Latitude": 51.126429
                      },
                      {
                        "Longitude": -0.138777,
                        "Latitude": 51.126708
                      },
                      {
                        "Longitude": -0.138506,
                        "Latitude": 51.126924
                      },
                      {
                        "Longitude": -0.138234,
                        "Latitude": 51.127131
                      },
                      {
                        "Longitude": -0.137635,
                        "Latitude": 51.127598
                      },
                      {
                        "Longitude": -0.137021,
                        "Latitude": 51.128057
                      }
                    ]
                  }
                },
                "id": "i272_7"
              },
              {
                "From": {
                  "StopPointRef": "4400EG0219"
                },
                "To": {
                  "StopPointRef": "4400EG0222"
                },
                "Direction": "inbound",
                "Track": {
                  "Mapping": {
                    "Location": [
                      {
                        "Longitude": -0.137021,
                        "Latitude": 51.128057
                      },
                      {
                        "Longitude": -0.136949,
                        "Latitude": 51.128111
                      },
                      {
                        "Longitude": -0.136821,
                        "Latitude": 51.128219
                      },
                      {
                        "Longitude": -0.136421,
                        "Latitude": 51.128561
                      },
                      {
                        "Longitude": -0.135693,
                        "Latitude": 51.129289
                      },
                      {
                        "Longitude": -0.135464,
                        "Latitude": 51.129442
                      },
                      {
                        "Longitude": -0.134736,
                        "Latitude": 51.129811
                      },
                      {
                        "Longitude": -0.133293,
                        "Latitude": 51.130369
                      },
                      {
                        "Longitude": -0.132522,
                        "Latitude": 51.13063
                      },
                      {
                        "Longitude": -0.132279,
                        "Latitude": 51.130693
                      }
                    ]
                  }
                },
                "id": "i272_8"
              },
              {
                "From": {
                  "StopPointRef": "4400EG0222"
                },
                "To": {
                  "StopPointRef": "4400EG0224"
                },
                "Direction": "inbound",
                "Track": {
                  "Mapping": {
                    "Location": [
                      {
                        "Longitude": -0.132279,
                        "Latitude": 51.130693
                      },
                      {
                        "Longitude": -0.131151,
                        "Latitude": 51.130972
                      },
                      {
                        "Longitude": -0.130808,
                        "Latitude": 51.131062
                      },
                      {
                        "Longitude": -0.130494,
                        "Latitude": 51.131161
                      },
                      {
                        "Longitude": -0.130122,
                        "Latitude": 51.131296
                      },
                      {
                        "Longitude": -0.129836,
                        "Latitude": 51.131395
                      },
                      {
                        "Longitude": -0.129479,
                        "Latitude": 51.131575
                      },
                      {
                        "Longitude": -0.129265,
                        "Latitude": 51.131692
                      },
                      {
                        "Longitude": -0.127908,
                        "Latitude": 51.132636
                      },
                      {
                        "Longitude": -0.127765,
                        "Latitude": 51.132699
                      },
                      {
                        "Longitude": -0.127608,
                        "Latitude": 51.132744
                      },
                      {
                        "Longitude": -0.12738,
                        "Latitude": 51.132798
                      },
                      {
                        "Longitude": -0.126494,
                        "Latitude": 51.132906
                      },
                      {
                        "Longitude": -0.126465,
                        "Latitude": 51.132924
                      },
                      {
                        "Longitude": -0.12628,
                        "Latitude": 51.132987
                      },
                      {
                        "Longitude": -0.12618,
                        "Latitude": 51.133068
                      },
                      {
                        "Longitude": -0.126151,
                        "Latitude": 51.133113
                      },
                      {
                        "Longitude": -0.126165,
                        "Latitude": 51.133266
                      },
                      {
                        "Longitude": -0.126237,
                        "Latitude": 51.133356
                      },
                      {
                        "Longitude": -0.126266,
                        "Latitude": 51.133401
                      },
                      {
                        "Longitude": -0.126266,
                        "Latitude": 51.133445
                      },
                      {
                        "Longitude": -0.126251,
                        "Latitude": 51.133508
                      },
                      {
                        "Longitude": -0.126237,
                        "Latitude": 51.133571
                      },
                      {
                        "Longitude": -0.126194,
                        "Latitude": 51.133607
                      },
                      {
                        "Longitude": -0.126166,
                        "Latitude": 51.133625
                      },
                      {
                        "Longitude": -0.126109,
                        "Latitude": 51.13367
                      },
                      {
                        "Longitude": -0.126008,
                        "Latitude": 51.133706
                      },
                      {
                        "Longitude": -0.125908,
                        "Latitude": 51.133724
                      },
                      {
                        "Longitude": -0.125837,
                        "Latitude": 51.133724
                      },
                      {
                        "Longitude": -0.125766,
                        "Latitude": 51.133715
                      },
                      {
                        "Longitude": -0.12568,
                        "Latitude": 51.133688
                      },
                      {
                        "Longitude": -0.125594,
                        "Latitude": 51.133643
                      },
                      {
                        "Longitude": -0.125308,
                        "Latitude": 51.133662
                      },
                      {
                        "Longitude": -0.123994,
                        "Latitude": 51.133743
                      },
                      {
                        "Longitude": -0.123908,
                        "Latitude": 51.133725
                      },
                      {
                        "Longitude": -0.122851,
                        "Latitude": 51.133806
                      }
                    ]
                  }
                },
                "id": "i272_9"
              },
              {
                "From": {
                  "StopPointRef": "4400EG0224"
                },
                "To": {
                  "StopPointRef": "4400EG0227"
                },
                "Direction": "inbound",
                "Track": {
                  "Mapping": {
                    "Location": [
                      {
                        "Longitude": -0.122851,
                        "Latitude": 51.133806
                      },
                      {
                        "Longitude": -0.122122,
                        "Latitude": 51.13386
                      },
                      {
                        "Longitude": -0.119607,
                        "Latitude": 51.134058
                      },
                      {
                        "Longitude": -0.119064,
                        "Latitude": 51.13413
                      },
                      {
                        "Longitude": -0.117307,
                        "Latitude": 51.134382
                      },
                      {
                        "Longitude": -0.116549,
                        "Latitude": 51.134526
                      },
                      {
                        "Longitude": -0.115792,
                        "Latitude": 51.134751
                      },
                      {
                        "Longitude": -0.11472,
                        "Latitude": 51.135039
                      }
                    ]
                  }
                },
                "id": "i272_10"
              },
              {
                "From": {
                  "StopPointRef": "4400EG0227"
                },
                "To": {
                  "StopPointRef": "4400EG0229"
                },
                "Direction": "inbound",
                "Track": {
                  "Mapping": {
                    "Location": [
                      {
                        "Longitude": -0.11472,
                        "Latitude": 51.135039
                      },
                      {
                        "Longitude": -0.113735,
                        "Latitude": 51.1353
                      },
                      {
                        "Longitude": -0.111263,
                        "Latitude": 51.135966
                      },
                      {
                        "Longitude": -0.109891,
                        "Latitude": 51.136334
                      },
                      {
                        "Longitude": -0.109805,
                        "Latitude": 51.136361
                      },
                      {
                        "Longitude": -0.108719,
                        "Latitude": 51.136649
                      },
                      {
                        "Longitude": -0.108633,
                        "Latitude": 51.136667
                      },
                      {
                        "Longitude": -0.108505,
                        "Latitude": 51.136694
                      },
                      {
                        "Longitude": -0.108376,
                        "Latitude": 51.13673
                      },
                      {
                        "Longitude": -0.107619,
                        "Latitude": 51.136919
                      },
                      {
                        "Longitude": -0.106547,
                        "Latitude": 51.137171
                      },
                      {
                        "Longitude": -0.10579,
                        "Latitude": 51.137252
                      },
                      {
                        "Longitude": -0.105633,
                        "Latitude": 51.137261
                      },
                      {
                        "Longitude": -0.105047,
                        "Latitude": 51.137252
                      },
                      {
                        "Longitude": -0.102503,
                        "Latitude": 51.137063
                      },
                      {
                        "Longitude": -0.102117,
                        "Latitude": 51.137027
                      },
                      {
                        "Longitude": -0.101488,
                        "Latitude": 51.136964
                      }
                    ]
                  }
                },
                "id": "i272_11"
              },
              {
                "From": {
                  "StopPointRef": "4400EG0229"
                },
                "To": {
                  "StopPointRef": "4400EG0231"
                },
                "Direction": "inbound",
                "Track": {
                  "Mapping": {
                    "Location": [
                      {
                        "Longitude": -0.101488,
                        "Latitude": 51.136964
                      },
                      {
                        "Longitude": -0.099588,
                        "Latitude": 51.136776
                      },
                      {
                        "Longitude": -0.097687,
                        "Latitude": 51.136533
                      },
                      {
                        "Longitude": -0.097173,
                        "Latitude": 51.13647
                      }
                    ]
                  }
                },
                "id": "i272_12"
              },
              {
                "From": {
                  "StopPointRef": "4400EG0231"
                },
                "To": {
                  "StopPointRef": "4400EG0233"
                },
                "Direction": "inbound",
                "Track": {
                  "Mapping": {
                    "Location": [
                      {
                        "Longitude": -0.097173,
                        "Latitude": 51.13647
                      },
                      {
                        "Longitude": -0.096044,
                        "Latitude": 51.136335
                      },
                      {
                        "Longitude": -0.095258,
                        "Latitude": 51.136245
                      },
                      {
                        "Longitude": -0.094657,
                        "Latitude": 51.136173
                      },
                      {
                        "Longitude": -0.094229,
                        "Latitude": 51.136173
                      },
                      {
                        "Longitude": -0.0939,
                        "Latitude": 51.136236
                      },
                      {
                        "Longitude": -0.093629,
                        "Latitude": 51.136299
                      },
                      {
                        "Longitude": -0.093557,
                        "Latitude": 51.136389
                      },
                      {
                        "Longitude": -0.093514,
                        "Latitude": 51.136479
                      },
                      {
                        "Longitude": -0.093457,
                        "Latitude": 51.13656
                      },
                      {
                        "Longitude": -0.093414,
                        "Latitude": 51.136587
                      },
                      {
                        "Longitude": -0.0933,
                        "Latitude": 51.136668
                      },
                      {
                        "Longitude": -0.093243,
                        "Latitude": 51.136695
                      },
                      {
                        "Longitude": -0.0932,
                        "Latitude": 51.136704
                      },
                      {
                        "Longitude": -0.093171,
                        "Latitude": 51.136713
                      },
                      {
                        "Longitude": -0.093114,
                        "Latitude": 51.136722
                      },
                      {
                        "Longitude": -0.093071,
                        "Latitude": 51.136722
                      },
                      {
                        "Longitude": -0.093043,
                        "Latitude": 51.136722
                      },
                      {
                        "Longitude": -0.093,
                        "Latitude": 51.136713
                      },
                      {
                        "Longitude": -0.092928,
                        "Latitude": 51.136695
                      },
                      {
                        "Longitude": -0.092857,
                        "Latitude": 51.136659
                      },
                      {
                        "Longitude": -0.092785,
                        "Latitude": 51.136587
                      },
                      {
                        "Longitude": -0.092771,
                        "Latitude": 51.136542
                      },
                      {
                        "Longitude": -0.092785,
                        "Latitude": 51.136461
                      },
                      {
                        "Longitude": -0.0928,
                        "Latitude": 51.136434
                      },
                      {
                        "Longitude": -0.092828,
                        "Latitude": 51.13638
                      },
                      {
                        "Longitude": -0.092871,
                        "Latitude": 51.136326
                      },
                      {
                        "Longitude": -0.092928,
                        "Latitude": 51.136281
                      },
                      {
                        "Longitude": -0.092943,
                        "Latitude": 51.136128
                      },
                      {
                        "Longitude": -0.092871,
                        "Latitude": 51.136074
                      },
                      {
                        "Longitude": -0.092828,
                        "Latitude": 51.136002
                      }
                    ]
                  }
                },
                "id": "i272_13"
              },
              {
                "From": {
                  "StopPointRef": "4400EG0233"
                },
                "To": {
                  "StopPointRef": "4400EG0235"
                },
                "Direction": "inbound",
                "Track": {
                  "Mapping": {
                    "Location": [
                      {
                        "Longitude": -0.092828,
                        "Latitude": 51.136002
                      },
                      {
                        "Longitude": -0.092814,
                        "Latitude": 51.135984
                      },
                      {
                        "Longitude": -0.0927,
                        "Latitude": 51.135733
                      },
                      {
                        "Longitude": -0.092657,
                        "Latitude": 51.135589
                      },
                      {
                        "Longitude": -0.092486,
                        "Latitude": 51.135112
                      },
                      {
                        "Longitude": -0.092314,
                        "Latitude": 51.134438
                      },
                      {
                        "Longitude": -0.0923,
                        "Latitude": 51.134294
                      },
                      {
                        "Longitude": -0.092257,
                        "Latitude": 51.133962
                      },
                      {
                        "Longitude": -0.092257,
                        "Latitude": 51.133827
                      },
                      {
                        "Longitude": -0.092271,
                        "Latitude": 51.13371
                      },
                      {
                        "Longitude": -0.092386,
                        "Latitude": 51.132262
                      },
                      {
                        "Longitude": -0.092357,
                        "Latitude": 51.131984
                      },
                      {
                        "Longitude": -0.091143,
                        "Latitude": 51.129565
                      }
                    ]
                  }
                },
                "id": "i272_14"
              },
              {
                "From": {
                  "StopPointRef": "4400EG0235"
                },
                "To": {
                  "StopPointRef": "4400EG0447"
                },
                "Direction": "inbound",
                "Track": {
                  "Mapping": {
                    "Location": [
                      {
                        "Longitude": -0.091143,
                        "Latitude": 51.129565
                      },
                      {
                        "Longitude": -0.090657,
                        "Latitude": 51.128585
                      },
                      {
                        "Longitude": -0.090457,
                        "Latitude": 51.128208
                      },
                      {
                        "Longitude": -0.090414,
                        "Latitude": 51.128127
                      },
                      {
                        "Longitude": -0.0903,
                        "Latitude": 51.127893
                      },
                      {
                        "Longitude": -0.090086,
                        "Latitude": 51.127506
                      },
                      {
                        "Longitude": -0.090043,
                        "Latitude": 51.127425
                      },
                      {
                        "Longitude": -0.090015,
                        "Latitude": 51.127362
                      },
                      {
                        "Longitude": -0.089857,
                        "Latitude": 51.127066
                      },
                      {
                        "Longitude": -0.089829,
                        "Latitude": 51.126994
                      },
                      {
                        "Longitude": -0.0896,
                        "Latitude": 51.126526
                      },
                      {
                        "Longitude": -0.089486,
                        "Latitude": 51.126311
                      },
                      {
                        "Longitude": -0.089458,
                        "Latitude": 51.126239
                      }
                    ]
                  }
                },
                "id": "i272_15"
              },
              {
                "From": {
                  "StopPointRef": "4400EG0447"
                },
                "To": {
                  "StopPointRef": "4400EG0247"
                },
                "Direction": "inbound",
                "Track": {
                  "Mapping": {
                    "Location": [
                      {
                        "Longitude": -0.089458,
                        "Latitude": 51.126239
                      },
                      {
                        "Longitude": -0.089343,
                        "Latitude": 51.126023
                      },
                      {
                        "Longitude": -0.089286,
                        "Latitude": 51.125915
                      },
                      {
                        "Longitude": -0.089,
                        "Latitude": 51.125519
                      },
                      {
                        "Longitude": -0.088915,
                        "Latitude": 51.125402
                      },
                      {
                        "Longitude": -0.084014,
                        "Latitude": 51.125141
                      }
                    ]
                  }
                },
                "id": "i272_16"
              },
              {
                "From": {
                  "StopPointRef": "4400EG0247"
                },
                "To": {
                  "StopPointRef": "4400EG0245"
                },
                "Direction": "inbound",
                "Track": {
                  "Mapping": {
                    "Location": [
                      {
                        "Longitude": -0.084014,
                        "Latitude": 51.125141
                      },
                      {
                        "Longitude": -0.082886,
                        "Latitude": 51.125078
                      },
                      {
                        "Longitude": -0.082114,
                        "Latitude": 51.125033
                      },
                      {
                        "Longitude": -0.081171,
                        "Latitude": 51.124979
                      },
                      {
                        "Longitude": -0.080771,
                        "Latitude": 51.124952
                      },
                      {
                        "Longitude": -0.079514,
                        "Latitude": 51.12488
                      },
                      {
                        "Longitude": -0.079186,
                        "Latitude": 51.124871
                      }
                    ]
                  }
                },
                "id": "i272_17"
              },
              {
                "From": {
                  "StopPointRef": "4400EG0245"
                },
                "To": {
                  "StopPointRef": "4400EG0354"
                },
                "Direction": "inbound",
                "Track": {
                  "Mapping": {
                    "Location": [
                      {
                        "Longitude": -0.079186,
                        "Latitude": 51.124871
                      },
                      {
                        "Longitude": -0.078471,
                        "Latitude": 51.124862
                      },
                      {
                        "Longitude": -0.078729,
                        "Latitude": 51.12461
                      },
                      {
                        "Longitude": -0.078957,
                        "Latitude": 51.124394
                      },
                      {
                        "Longitude": -0.0788,
                        "Latitude": 51.124143
                      },
                      {
                        "Longitude": -0.078858,
                        "Latitude": 51.123711
                      },
                      {
                        "Longitude": -0.078843,
                        "Latitude": 51.123208
                      },
                      {
                        "Longitude": -0.078744,
                        "Latitude": 51.122605
                      },
                      {
                        "Longitude": -0.078658,
                        "Latitude": 51.122425
                      }
                    ]
                  }
                },
                "id": "i272_18"
              },
              {
                "From": {
                  "StopPointRef": "4400EG0354"
                },
                "To": {
                  "StopPointRef": "4400EG0688"
                },
                "Direction": "inbound",
                "Track": {
                  "Mapping": {
                    "Location": [
                      {
                        "Longitude": -0.078658,
                        "Latitude": 51.122425
                      },
                      {
                        "Longitude": -0.078415,
                        "Latitude": 51.121949
                      },
                      {
                        "Longitude": -0.077987,
                        "Latitude": 51.121418
                      },
                      {
                        "Longitude": -0.077587,
                        "Latitude": 51.121122
                      },
                      {
                        "Longitude": -0.07743,
                        "Latitude": 51.121023
                      },
                      {
                        "Longitude": -0.077287,
                        "Latitude": 51.120681
                      },
                      {
                        "Longitude": -0.077273,
                        "Latitude": 51.120519
                      },