{
  "?xml": {
    "version": "1.0",
    "encoding": "UTF-8"
  },
  "TransXChange": {
    "ServicedOrganisations": {
      "ServicedOrganisation": {
        "OrganisationCode": "Sch",
        "Name": "AnySchool",
        "WorkingDays": {
          "DateRange": [
            {
              "StartDate": "2025-03-03",
              "EndDate": "2025-03-07"
            },
            {
              "StartDate": "2025-03-10",
              "EndDate": "2025-03-14"
            },
            {
              "StartDate": "2025-03-17",
              "EndDate": "2025-03-21"
            },
            {
              "StartDate": "2025-03-24",
              "EndDate": "2025-03-28"
            },
            {
              "StartDate": "2025-03-31",
              "EndDate": "2025-04-04"
            },
            {
              "StartDate": "2025-04-22",
              "EndDate": "2025-04-25"
            },
            {
              "StartDate": "2025-04-28",
              "EndDate": "2025-05-02"
            },
            {
              "StartDate": "2025-05-06",
              "EndDate": "2025-05-09"
            },
            {
              "StartDate": "2025-05-12",
              "EndDate": "2025-05-16"
            },
            {
              "StartDate": "2025-05-19",
              "EndDate": "2025-05-23"
            }
          ]
        }
      }
    },
    "StopPoints": [
      {
        "AnnotatedStopPointRef": [
          {
            "StopPointRef": "40004407985E",
            "CommonName": "Friary Bus Station",
            "LocalityName": "Guildford",
            "Location": {
              "Longitude": -0.575993,
              "Latitude": 51.2372
            }
          },
          {
            "StopPointRef": "40004407391A",
            "CommonName": "Millbrook",
            "LocalityName": "Guildford",
            "Location": {
              "Longitude": -0.574179,
              "Latitude": 51.233576
            }
          },
          {
            "StopPointRef": "40004407390A",
            "CommonName": "Great Quarry",
            "LocalityName": "Guildford",
            "Location": {
              "Longitude": -0.572361,
              "Latitude": 51.230841
            }
          },
          {
            "StopPointRef": "40004407389A",
            "CommonName": "Pilgrims Way",
            "LocalityName": "Guildford",
            "Location": {
              "Longitude": -0.570885,
              "Latitude": 51.225228
            }
          },
          {
            "StopPointRef": "40004407388A",
            "CommonName": "St Marys Church",
            "LocalityName": "Guildford",
            "Location": {
              "Longitude": -0.569567,
              "Latitude": 51.21965
            }
          },
          {
            "StopPointRef": "40004407387A",
            "CommonName": "Orchard Road",
            "LocalityName": "Guildford",
            "Location": {
              "Longitude": -0.567415,
              "Latitude": 51.216368
            }
          },
          {
            "StopPointRef": "40004407386C",
            "CommonName": "Shalford Station",
            "LocalityName": "Guildford",
            "Location": {
              "Longitude": -0.568186,
              "Latitude": 51.213353
            }
          },
          {
            "StopPointRef": "40004407933A",
            "CommonName": "Christmas Hill",
            "LocalityName": "Guildford",
            "Location": {
              "Longitude": -0.561452,
              "Latitude": 51.212751
            }
          },
          {
            "StopPointRef": "40004407384A",
            "CommonName": "Rice's Corner",
            "LocalityName": "Guildford",
            "Location": {
              "Longitude": -0.549294,
              "Latitude": 51.2094
            }
          },
          {
            "StopPointRef": "40004407383A",
            "CommonName": "Hornhatch",
            "LocalityName": "Guildford",
            "Location": {
              "Longitude": -0.545535,
              "Latitude": 51.21284
            }
          },
          {
            "StopPointRef": "40004407382A",
            "CommonName": "Chantry Road",
            "LocalityName": "Guildford",
            "Location": {
              "Longitude": -0.542577,
              "Latitude": 51.213382
            }
          },
          {
            "StopPointRef": "40004407381A",
            "CommonName": "Chilworth Village Hall",
            "LocalityName": "Guildford",
            "Location": {
              "Longitude": -0.537184,
              "Latitude": 51.213736
            }
          },
          {
            "StopPointRef": "40004407380A",
            "CommonName": "Blacksmith Lane",
            "LocalityName": "Guildford",
            "Location": {
              "Longitude": -0.532273,
              "Latitude": 51.215112
            }
          },
          {
            "StopPointRef": "40004407379A",
            "CommonName": "Chilworth Station",
            "LocalityName": "Guildford",
            "Location": {
              "Longitude": -0.526278,
              "Latitude": 51.215404
            }
          },
          {
            "StopPointRef": "40004407378A",
            "CommonName": "Longfrey Farm",
            "LocalityName": "Guildford",
            "Location": {
              "Longitude": -0.518073,
              "Latitude": 51.216701
            }
          },
          {
            "StopPointRef": "40004407377A",
            "CommonName": "Surrey Hills",
            "LocalityName": "Guildford",
            "Location": {
              "Longitude": -0.510676,
              "Latitude": 51.220414
            }
          },
          {
            "StopPointRef": "40004407376A",
            "CommonName": "Water Lane",
            "LocalityName": "Guildford",
            "Location": {
              "Longitude": -0.504313,
              "Latitude": 51.221273
            }
          },
          {
            "StopPointRef": "40004407375A",
            "CommonName": "The Drummond",
            "LocalityName": "Guildford",
            "Location": {
              "Longitude": -0.498762,
              "Latitude": 51.220123
            }
          },
          {
            "StopPointRef": "40004407374A",
            "CommonName": "Weston Lodge",
            "LocalityName": "Guildford",
            "Location": {
              "Longitude": -0.496777,
              "Latitude": 51.220688
            }
          },
          {
            "StopPointRef": "40004407373A",
            "CommonName": "Park Gates",
            "LocalityName": "Guildford",
            "Location": {
              "Longitude": -0.48783,
              "Latitude": 51.220745
            }
          },
          {
            "StopPointRef": "40004407372C",
            "CommonName": "Silent Pool",
            "LocalityName": "Guildford",
            "Location": {
              "Longitude": -0.481839,
              "Latitude": 51.225054
            }
          },
          {
            "StopPointRef": "40004407371B",
            "CommonName": "Upper Lodge",
            "Location": {
              "Longitude": -0.470785,
              "Latitude": 51.221529
            }
          },
          {
            "StopPointRef": "40004407370A",
            "CommonName": "Shere Village Hall",
            "Location": {
              "Longitude": -0.463661,
              "Latitude": 51.2205
            }
          },
          {
            "StopPointRef": "40004407531A",
            "CommonName": "Medical Centre",
            "Location": {
              "Longitude": -0.459539,
              "Latitude": 51.220558
            }
          },
          {
            "StopPointRef": "40004407369A",
            "CommonName": "Queen Street",
            "Location": {
              "Longitude": -0.450896,
              "Latitude": 51.221196
            }
          },
          {
            "StopPointRef": "40004407368A",
            "CommonName": "The Compasses",
            "Location": {
              "Longitude": -0.447522,
              "Latitude": 51.219912
            }
          },
          {
            "StopPointRef": "40004407367A",
            "CommonName": "Gomshall Railway Station",
            "Location": {
              "Longitude": -0.445066,
              "Latitude": 51.21893
            }
          },
          {
            "StopPointRef": "40004408095A",
            "CommonName": "Clockhouse",
            "Location": {
              "Longitude": -0.432045,
              "Latitude": 51.215876
            }
          },
          {
            "StopPointRef": "40004408096A",
            "CommonName": "Paddington Farm",
            "Location": {
              "Longitude": -0.425236,
              "Latitude": 51.214591
            }
          },
          {
            "StopPointRef": "40004408097A",
            "CommonName": "Abinger Hall Lodge",
            "Location": {
              "Longitude": -0.41894,
              "Latitude": 51.214933
            }
          },
          {
            "StopPointRef": "40004408098B",
            "CommonName": "The Crossways",
            "Location": {
              "Longitude": -0.413401,
              "Latitude": 51.215056
            }
          },
          {
            "StopPointRef": "40004408099A",
            "CommonName": "Manor Farm",
            "Location": {
              "Longitude": -0.399486,
              "Latitude": 51.214904
            }
          },
          {
            "StopPointRef": "40004408100A",
            "CommonName": "Wotton Hatch",
            "Location": {
              "Longitude": -0.389293,
              "Latitude": 51.216989
            }
          },
          {
            "StopPointRef": "40004408101A",
            "CommonName": "Balchins Lane",
            "Location": {
              "Longitude": -0.378066,
              "Latitude": 51.223337
            }
          },
          {
            "StopPointRef": "40004408103A",
            "CommonName": "Parsonage Lane",
            "Location": {
              "Longitude": -0.36701,
              "Latitude": 51.225296
            }
          },
          {
            "StopPointRef": "40004408105A",
            "CommonName": "Milton Avenue",
            "Location": {
              "Longitude": -0.360428,
              "Latitude": 51.226157
            }
          },
          {
            "StopPointRef": "40004408106A",
            "CommonName": "Milton Court",
            "Location": {
              "Longitude": -0.353115,
              "Latitude": 51.226757
            }
          },
          {
            "StopPointRef": "40004408107A",
            "CommonName": "Sondes Place Drive",
            "Location": {
              "Longitude": -0.343341,
              "Latitude": 51.230474
            }
          },
          {
            "StopPointRef": "40004408108A",
            "CommonName": "Glebe Road",
            "Location": {
              "Longitude": -0.339767,
              "Latitude": 51.231596
            }
          },
          {
            "StopPointRef": "40004408110A",
            "CommonName": "West Street",
            "Location": {
              "Longitude": -0.335315,
              "Latitude": 51.231776
            }
          },
          {
            "StopPointRef": "40004408111A",
            "CommonName": "Dorking, White Horse",
            "Location": {
              "Longitude": -0.330036,
              "Latitude": 51.232821
            }
          },
          {
            "StopPointRef": "40004408112B",
            "CommonName": "Moores Road",
            "Location": {
              "Longitude": -0.327237,
              "Latitude": 51.234382
            }
          },
          {
            "StopPointRef": "40004408113B",
            "CommonName": "Council Offices",
            "Location": {
              "Longitude": -0.32475,
              "Latitude": 51.235321
            }
          },
          {
            "StopPointRef": "40004408115B",
            "CommonName": "Dorking Station",
            "LocalityName": "Mole Valley",
            "Location": {
              "Longitude": -0.324347,
              "Latitude": 51.240806
            }
          },
          {
            "StopPointRef": "40004408114A",
            "CommonName": "Deepdene Avenue",
            "Location": {
              "Longitude": -0.32383,
              "Latitude": 51.237634
            }
          },
          {
            "StopPointRef": "40004408113C",
            "CommonName": "Spital Heath",
            "Location": {
              "Longitude": -0.32073,
              "Latitude": 51.236246
            }
          },
          {
            "StopPointRef": "40004408053A",
            "CommonName": "Pixham Lane",
            "Location": {
              "Longitude": -0.315723,
              "Latitude": 51.237299
            }
          },
          {
            "StopPointRef": "40004408052A",
            "CommonName": "Watermill Inn",
            "Location": {
              "Longitude": -0.311214,
              "Latitude": 51.237981
            }
          },
          {
            "StopPointRef": "40004408051A",
            "CommonName": "Castle Gardens",
            "Location": {
              "Longitude": -0.30267,
              "Latitude": 51.239175
            }
          },
          {
            "StopPointRef": "40004408050C",
            "CommonName": "Brockham Lane",
            "Location": {
              "Longitude": -0.290832,
              "Latitude": 51.240939
            }
          },
          {
            "StopPointRef": "40004408049A",
            "CommonName": "Brockham Lane",
            "Location": {
              "Longitude": -0.289665,
              "Latitude": 51.239098
            }
          },
          {
            "StopPointRef": "40004408048C",
            "CommonName": "Kiln Lane",
            "Location": {
              "Longitude": -0.288532,
              "Latitude": 51.235351
            }
          },
          {
            "StopPointRef": "40004408029B",
            "CommonName": "Christ Church",
            "Location": {
              "Longitude": -0.286211,
              "Latitude": 51.231732
            }
          },
          {
            "StopPointRef": "40004408028B",
            "CommonName": "Oakdene Road",
            "Location": {
              "Longitude": -0.283384,
              "Latitude": 51.226656
            }
          },
          {
            "StopPointRef": "40004408027B",
            "CommonName": "Glenfield Road",
            "Location": {
              "Longitude": -0.281967,
              "Latitude": 51.223251
            }
          },
          {
            "StopPointRef": "40004408026C",
            "CommonName": "Strood Green, Tynedale Road",
            "Location": {
              "Longitude": -0.282228,
              "Latitude": 51.220707
            }
          },
          {
            "StopPointRef": "40004406999A",
            "CommonName": "Wellhouse Lane",
            "LocalityName": "Mole Valley",
            "Location": {
              "Longitude": -0.281948,
              "Latitude": 51.222173
            }
          },
          {
            "StopPointRef": "40004408027A",
            "CommonName": "Glenfield Road",
            "Location": {
              "Longitude": -0.282169,
              "Latitude": 51.22362
            }
          },
          {
            "StopPointRef": "40004408028A",
            "CommonName": "Oakdene Road",
            "Location": {
              "Longitude": -0.283555,
              "Latitude": 51.226494
            }
          },
          {
            "StopPointRef": "40004408029A",
            "CommonName": "Christ Church",
            "Location": {
              "Longitude": -0.286743,
              "Latitude": 51.232243
            }
          },
          {
            "StopPointRef": "40004408048A",
            "CommonName": "Kiln Lane",
            "Location": {
              "Longitude": -0.288716,
              "Latitude": 51.234856
            }
          },
          {
            "StopPointRef": "40004408047B",
            "CommonName": "Nutwood Avenue",
            "LocalityName": "Mole Valley",
            "Location": {
              "Longitude": -0.282364,
              "Latitude": 51.236512
            }
          },
          {
            "StopPointRef": "40004408043C",
            "CommonName": "Betchworth Post Office",
            "LocalityName": "Mole Valley",
            "Location": {
              "Longitude": -0.270763,
              "Latitude": 51.240081
            }
          },
          {
            "StopPointRef": "40004408042B",
            "CommonName": "The Street",
            "LocalityName": "Mole Valley",
            "Location": {
              "Longitude": -0.26618,
              "Latitude": 51.240321
            }
          },
          {
            "StopPointRef": "40004408041A",
            "CommonName": "The Red Lion",
            "LocalityName": "Mole Valley",
            "Location": {
              "Longitude": -0.2631,
              "Latitude": 51.240128
            }
          },
          {
            "StopPointRef": "40004408040A",
            "CommonName": "Sandy Lane",
            "LocalityName": "Mole Valley",
            "Location": {
              "Longitude": -0.26032,
              "Latitude": 51.239503
            }
          },
          {
            "StopPointRef": "40004412067A",
            "CommonName": "Old Road",
            "LocalityName": "Mole Valley",
            "Location": {
              "Longitude": -0.257932,
              "Latitude": 51.24072
            }
          },
          {
            "StopPointRef": "40004408038A",
            "CommonName": "St Mary Church",
            "LocalityName": "Mole Valley",
            "Location": {
              "Longitude": -0.252141,
              "Latitude": 51.24356
            }
          },
          {
            "StopPointRef": "40004408037A",
            "CommonName": "The Pheasant",
            "LocalityName": "Mole Valley",
            "Location": {
              "Longitude": -0.240624,
              "Latitude": 51.243484
            }
          },
          {
            "StopPointRef": "40004408036A",
            "CommonName": "Chesterfield Park",
            "LocalityName": "Mole Valley",
            "Location": {
              "Longitude": -0.235895,
              "Latitude": 51.242636
            }
          },
          {
            "StopPointRef": "40004409097A",
            "CommonName": "Buckland Corner",
            "LocalityName": "Reigate and Banstead",
            "Location": {
              "Longitude": -0.231179,
              "Latitude": 51.241365
            }
          },
          {
            "StopPointRef": "40004409098A",
            "CommonName": "Reigate Heath",
            "LocalityName": "Reigate and Banstead",
            "Location": {
              "Longitude": -0.222053,
              "Latitude": 51.240503
            }
          },
          {
            "StopPointRef": "40004409099B",
            "CommonName": "Evesham Road",
            "LocalityName": "Reigate and Banstead",
            "Location": {
              "Longitude": -0.216378,
              "Latitude": 51.239511
            }
          },
          {
            "StopPointRef": "40004409100A",
            "CommonName": "Reigate, Red Cross",
            "Location": {
              "Longitude": -0.209773,
              "Latitude": 51.238565
            }
          },
          {
            "StopPointRef": "40004409120A",
            "CommonName": "Chart Lane",
            "Location": {
              "Longitude": -0.19714,
              "Latitude": 51.237965
            }
          },
          {
            "StopPointRef": "40004409121A",
            "CommonName": "Reigate Grammar School",
            "Location": {
              "Longitude": -0.191897,
              "Latitude": 51.23725
            }
          },
          {
            "StopPointRef": "40004409122A",
            "CommonName": "Police Station",
            "Location": {
              "Longitude": -0.188531,
              "Latitude": 51.237217
            }
          },
          {
            "StopPointRef": "40004409128A",
            "CommonName": "Doran Drive",
            "LocalityName": "Reigate and Banstead",
            "Location": {
              "Longitude": -0.183591,
              "Latitude": 51.23776
            }
          },
          {
            "StopPointRef": "40004409129A",
            "CommonName": "Donyngs Leisure Centre",
            "Location": {
              "Longitude": -0.178023,
              "Latitude": 51.239562
            }
          },
          {
            "StopPointRef": "40004409130A",
            "CommonName": "St Matthews Church",
            "Location": {
              "Longitude": -0.17221,
              "Latitude": 51.240447
            }
          },
          {
            "StopPointRef": "40004406938A",
            "CommonName": "Redhill High Street",
            "Location": {
              "Longitude": -0.168784,
              "Latitude": 51.238588
            }
          },
          {
            "StopPointRef": "40004409222C",
            "CommonName": "Redhill Bus Station",
            "Location": {
              "Longitude": -0.16671,
              "Latitude": 51.240783
            }
          },
          {
            "StopPointRef": "40004408097B",
            "CommonName": "Abinger Hall Lodge",
            "Location": {
              "Longitude": -0.418996,
              "Latitude": 51.214816
            }
          },
          {
            "StopPointRef": "40004408101B",
            "CommonName": "Balchins Lane",
            "Location": {
              "Longitude": -0.377607,
              "Latitude": 51.223248
            }
          },
          {
            "StopPointRef": "40004408043B",
            "CommonName": "Betchworth Post Office",
            "LocalityName": "Mole Valley",
            "Location": {
              "Longitude": -0.270677,
              "Latitude": 51.240027
            }
          },
          {
            "StopPointRef": "40004407380B",
            "CommonName": "Blacksmith Lane",
            "LocalityName": "Guildford",
            "Location": {
              "Longitude": -0.5318,
              "Latitude": 51.215077
            }
          },
          {
            "StopPointRef": "40004408049B",
            "CommonName": "The Avenue",
            "Location": {
              "Longitude": -0.289721,
              "Latitude": 51.238837
            }
          },
          {
            "StopPointRef": "40004408050B",
            "CommonName": "Brockham Lane",
            "Location": {
              "Longitude": -0.291536,
              "Latitude": 51.24128
            }
          },
          {
            "StopPointRef": "40004409097B",
            "CommonName": "Buckland Corner",
            "LocalityName": "Reigate and Banstead",
            "Location": {
              "Longitude": -0.230992,
              "Latitude": 51.240988
            }
          },
          {
            "StopPointRef": "40004408051B",
            "CommonName": "Castle Gardens",
            "Location": {
              "Longitude": -0.303241,
              "Latitude": 51.238805
            }
          },
          {
            "StopPointRef": "40004407382B",
            "CommonName": "Chantry Road",
            "LocalityName": "Guildford",
            "Location": {
              "Longitude": -0.542062,
              "Latitude": 51.21342
            }
          },
          {
            "StopPointRef": "40004409120B",
            "CommonName": "Chart Lane",
            "Location": {
              "Longitude": -0.196825,
              "Latitude": 51.237848
            }
          },
          {
            "StopPointRef": "40004408036B",
            "CommonName": "Chesterfield Park",
            "LocalityName": "Mole Valley",
            "Location": {
              "Longitude": -0.235293,
              "Latitude": 51.242358
            }
          },
          {
            "StopPointRef": "40004407379B",
            "CommonName": "Chilworth Station",
            "LocalityName": "Guildford",
            "Location": {
              "Longitude": -0.525318,
              "Latitude": 51.215398
            }
          },
          {
            "StopPointRef": "40004407933B",
            "CommonName": "Christmas Hill",
            "LocalityName": "Guildford",
            "Location": {
              "Longitude": -0.560533,
              "Latitude": 51.212548
            }
          },
          {
            "StopPointRef": "40004408095B",
            "CommonName": "Clockhouse",
            "Location": {
              "Longitude": -0.432489,
              "Latitude": 51.215901
            }
          },
          {
            "StopPointRef": "40004408113A",
            "CommonName": "Council Offices",
            "Location": {
              "Longitude": -0.32329,
              "Latitude": 51.23545
            }
          },
          {
            "StopPointRef": "40004409129B",
            "CommonName": "Donyngs Leisure Centre",
            "Location": {
              "Longitude": -0.178352,
              "Latitude": 51.239301
            }
          },
          {
            "StopPointRef": "40004408111B",
            "CommonName": "Dorking, White Horse",
            "Location": {
              "Longitude": -0.330207,
              "Latitude": 51.232596
            }
          },
          {
            "StopPointRef": "40004408085A",
            "CommonName": "Dorking, Townfield Court",
            "Location": {
              "Longitude": -0.335505,
              "Latitude": 51.227128
            }
          },
          {
            "StopPointRef": "40004409099A",
            "CommonName": "Evesham Road",
            "LocalityName": "Reigate and Banstead",
            "Location": {
              "Longitude": -0.215648,
              "Latitude": 51.239368
            }
          },
          {
            "StopPointRef": "40004407400B",
            "CommonName": "Friary Bus Station",
            "LocalityName": "Guildford",
            "Location": {
              "Longitude": -0.575744,
              "Latitude": 51.236644
            }
          },
          {
            "StopPointRef": "40004408108B",
            "CommonName": "Glebe Road",
            "Location": {
              "Longitude": -0.341026,
              "Latitude": 51.231243
            }
          },
          {
            "StopPointRef": "40004407367B",
            "CommonName": "Gomshall Railway Station",
            "Location": {
              "Longitude": -0.44594,
              "Latitude": 51.219008
            }
          },
          {
            "StopPointRef": "40004407390B",
            "CommonName": "Great Quarry",
            "LocalityName": "Guildford",
            "Location": {
              "Longitude": -0.572371,
              "Latitude": 51.230472
            }
          },
          {
            "StopPointRef": "40004407383B",
            "CommonName": "Hornhatch",
            "LocalityName": "Guildford",
            "Location": {
              "Longitude": -0.545863,
              "Latitude": 51.212704
            }
          },
          {
            "StopPointRef": "40004407378B",
            "CommonName": "Longfrey Farm",
            "LocalityName": "Guildford",
            "Location": {
              "Longitude": -0.518299,
              "Latitude": 51.216404
            }
          },
          {
            "StopPointRef": "40004408099B",
            "CommonName": "Manor Farm",
            "Location": {
              "Longitude": -0.400001,
              "Latitude": 51.214813
            }
          },
          {
            "StopPointRef": "40004407530A",
            "CommonName": "Medical Centre",
            "LocalityName": "Guildford",
            "Location": {
              "Longitude": -0.459838,
              "Latitude": 51.220377
            }
          },
          {
            "StopPointRef": "40004407391B",
            "CommonName": "Millbrook",
            "LocalityName": "Guildford",
            "Location": {
              "Longitude": -0.574526,
              "Latitude": 51.233862
            }
          },
          {
            "StopPointRef": "40004408105B",
            "CommonName": "Milton Avenue",
            "Location": {
              "Longitude": -0.360342,
              "Latitude": 51.226076
            }
          },
          {
            "StopPointRef": "40004408106B",
            "CommonName": "Milton Court",
            "Location": {
              "Longitude": -0.353473,
              "Latitude": 51.226694
            }
          },
          {
            "StopPointRef": "40004408112A",
            "CommonName": "Moores Road",
            "Location": {
              "Longitude": -0.326865,
              "Latitude": 51.234382
            }
          },
          {
            "StopPointRef": "40004408047A",
            "CommonName": "Nutwood Avenue",
            "LocalityName": "Mole Valley",
            "Location": {
              "Longitude": -0.282306,
              "Latitude": 51.236422
            }
          },
          {
            "StopPointRef": "40004407387B",
            "CommonName": "Orchard Road",
            "LocalityName": "Guildford",
            "Location": {
              "Longitude": -0.567749,
              "Latitude": 51.216825
            }
          },
          {
            "StopPointRef": "40004408096B",
            "CommonName": "Paddington Farm",
            "Location": {
              "Longitude": -0.425823,
              "Latitude": 51.214581
            }
          },
          {
            "StopPointRef": "40004407373B",
            "CommonName": "Park Gates",
            "LocalityName": "Guildford",
            "Location": {
              "Longitude": -0.487714,
              "Latitude": 51.220593
            }
          },
          {
            "StopPointRef": "40004407389B",
            "CommonName": "Pilgrims Way",
            "LocalityName": "Guildford",
            "Location": {
              "Longitude": -0.571205,
              "Latitude": 51.225739
            }
          },
          {
            "StopPointRef": "40004409122B",
            "CommonName": "Police Station",
            "Location": {
              "Longitude": -0.189061,
              "Latitude": 51.2371
            }
          },
          {
            "StopPointRef": "40004407369B",
            "CommonName": "Queen Street",
            "Location": {
              "Longitude": -0.449678,
              "Latitude": 51.220966
            }
          },
          {
            "StopPointRef": "40004409165A",
            "CommonName": "Redhill High Street",
            "Location": {
              "Longitude": -0.168841,
              "Latitude": 51.238552
            }
          },
          {
            "StopPointRef": "40004409100C",
            "CommonName": "Reigate High Street",
            "LocalityName": "Reigate and Banstead",
            "Location": {
              "Longitude": -0.209815,
              "Latitude": 51.237935
            }
          },
          {
            "StopPointRef": "40004409098B",
            "CommonName": "Reigate Heath",
            "LocalityName": "Reigate and Banstead",
            "Location": {
              "Longitude": -0.222768,
              "Latitude": 51.24035
            }
          },
          {
            "StopPointRef": "40004409121B",
            "CommonName": "Reigate Grammar School",
            "Location": {
              "Longitude": -0.192627,
              "Latitude": 51.23725
            }
          },
          {
            "StopPointRef": "40004409261A",
            "CommonName": "Reigate, Bell Street",
            "Location": {
              "Longitude": -0.205401,
              "Latitude": 51.236969
            }
          },
          {
            "StopPointRef": "40004407384B",
            "CommonName": "Rice's Corner",
            "LocalityName": "Guildford",
            "Location": {
              "Longitude": -0.54882,
              "Latitude": 51.209178
            }
          },
          {
            "StopPointRef": "40004408040B",
            "CommonName": "Sandy Lane",
            "LocalityName": "Mole Valley",
            "Location": {
              "Longitude": -0.260377,
              "Latitude": 51.239458
            }
          },
          {
            "StopPointRef": "40004407386B",
            "CommonName": "Shalford Station",
            "LocalityName": "Guildford",
            "Location": {
              "Longitude": -0.568229,
              "Latitude": 51.213452
            }
          },
          {
            "StopPointRef": "40004407370B",
            "CommonName": "Shere Village Hall",
            "LocalityName": "Guildford",
            "Location": {
              "Longitude": -0.462973,
              "Latitude": 51.220341
            }
          },
          {
            "StopPointRef": "40004407372A",
            "CommonName": "Silent Pool",
            "LocalityName": "Guildford",
            "Location": {
              "Longitude": -0.48069,
              "Latitude": 51.224662
            }
          },
          {
            "StopPointRef": "40004408107B",
            "CommonName": "Sondes Place Drive",
            "Location": {
              "Longitude": -0.343827,
              "Latitude": 51.230203
            }
          },
          {
            "StopPointRef": "40004408086A",
            "CommonName": "South Street",
            "Location": {
              "Longitude": -0.333806,
              "Latitude": 51.230889
            }
          },
          {
            "StopPointRef": "40004408054A",
            "CommonName": "Cemetery",
            "Location": {
              "Longitude": -0.318497,
              "Latitude": 51.236403
            }
          },
          {
            "StopPointRef": "40004408038B",
            "CommonName": "St Mary Church",
            "LocalityName": "Mole Valley",
            "Location": {
              "Longitude": -0.252427,
              "Latitude": 51.243415
            }
          },
          {
            "StopPointRef": "40004407388B",
            "CommonName": "St Marys Church",
            "LocalityName": "Guildford",
            "Location": {
              "Longitude": -0.570131,
              "Latitude": 51.220142
            }
          },
          {
            "StopPointRef": "40004409166A",
            "CommonName": "St Matthews Road",
            "Location": {
              "Longitude": -0.171823,
              "Latitude": 51.240394
            }
          },
          {
            "StopPointRef": "40004407377B",
            "CommonName": "Surrey Hills",
            "LocalityName": "Guildford",
            "Location": {
              "Longitude": -0.511419,
              "Latitude": 51.220205
            }
          },
          {
            "StopPointRef": "40004408098A",
            "CommonName": "The Crossways",
            "Location": {
              "Longitude": -0.413272,
              "Latitude": 51.214984
            }
          },
          {
            "StopPointRef": "40004407368B",
            "CommonName": "The Compasses",
            "Location": {
              "Longitude": -0.447954,
              "Latitude": 51.220234
            }
          },
          {
            "StopPointRef": "40004408104B",
            "CommonName": "Broomfield Park",
            "Location": {
              "Longitude": -0.363446,
              "Latitude": 51.225547
            }
          },
          {
            "StopPointRef": "40004407375B",
            "CommonName": "The Drummond",
            "LocalityName": "Guildford",
            "Location": {
              "Longitude": -0.498633,
              "Latitude": 51.220079
            }
          },
          {
            "StopPointRef": "40004408037B",
            "CommonName": "The Pheasant",
            "LocalityName": "Mole Valley",
            "Location": {
              "Longitude": -0.240179,
              "Latitude": 51.243179
            }
          },
          {
            "StopPointRef": "40004408041B",
            "CommonName": "The Red Lion",
            "LocalityName": "Mole Valley",
            "Location": {
              "Longitude": -0.263258,
              "Latitude": 51.240029
            }
          },
          {
            "StopPointRef": "40004408042A",
            "CommonName": "The Street",
            "LocalityName": "Mole Valley",
            "Location": {
              "Longitude": -0.266166,
              "Latitude": 51.240258
            }
          },
          {
            "StopPointRef": "40004407371A",
            "CommonName": "Upper Lodge",
            "LocalityName": "Guildford",
            "Location": {
              "Longitude": -0.470668,
              "Latitude": 51.221233
            }
          },
          {
            "StopPointRef": "40004407381B",
            "CommonName": "Chilworth Village Hall",
            "LocalityName": "Guildford",
            "Location": {
              "Longitude": -0.537355,
              "Latitude": 51.213663
            }
          },
          {
            "StopPointRef": "40004408088A",
            "CommonName": "Vincent Lane",
            "Location": {
              "Longitude": -0.337379,
              "Latitude": 51.229506
            }
          },
          {
            "StopPointRef": "40004407376B",
            "CommonName": "Water Lane",
            "LocalityName": "Guildford",
            "Location": {
              "Longitude": -0.504469,
              "Latitude": 51.22111
            }
          },
          {
            "StopPointRef": "40004408052B",
            "CommonName": "Watermill Inn",
            "Location": {
              "Longitude": -0.313161,
              "Latitude": 51.237726
            }
          },
          {
            "StopPointRef": "40004407374B",
            "CommonName": "Weston Lodge",
            "LocalityName": "Guildford",
            "Location": {
              "Longitude": -0.493312,
              "Latitude": 51.22061
            }
          },
          {
            "StopPointRef": "40004408103B",
            "CommonName": "Westcott Green",
            "Location": {
              "Longitude": -0.367066,
              "Latitude": 51.22517
            }
          },
          {
            "StopPointRef": "40004408100B",
            "CommonName": "Wotton Hatch",
            "Location": {
              "Longitude": -0.389178,
              "Latitude": 51.216935
            }
          }
        ]
      }
    ],
    "RouteSections": [
      {
        "RouteSection": [
          {
            "RouteLink": [
              {
                "From": {
                  "StopPointRef": "40004407985E"
                },
                "To": {
                  "StopPointRef": "40004407391A"
                },
                "Direction": "inbound",
                "Track": {
                  "Mapping": {
                    "Location": [
                      {
                        "Longitude": -0.575964,
                        "Latitude": 51.2372
                      },
                      {
                        "Longitude": -0.575967,
                        "Latitude": 51.237407
                      },
                      {
                        "Longitude": -0.575871,
                        "Latitude": 51.237812
                      },
                      {
                        "Longitude": -0.575715,
                        "Latitude": 51.23802
                      },
                      {
                        "Longitude": -0.575616,
                        "Latitude": 51.238173
                      },
                      {
                        "Longitude": -0.575603,
                        "Latitude": 51.238263
                      },
                      {
                        "Longitude": -0.575676,
                        "Latitude": 51.238424
                      },
                      {
                        "Longitude": -0.575734,
                        "Latitude": 51.23846
                      },
                      {
                        "Longitude": -0.575778,
                        "Latitude": 51.238514
                      },
                      {
                        "Longitude": -0.575992,
                        "Latitude": 51.238504
                      },
                      {
                        "Longitude": -0.576078,
                        "Latitude": 51.238477
                      },
                      {
                        "Longitude": -0.576149,
                        "Latitude": 51.238431
                      },
                      {
                        "Longitude": -0.57622,
                        "Latitude": 51.238368
                      },
                      {
                        "Longitude": -0.576433,
                        "Latitude": 51.238161
                      },
                      {
                        "Longitude": -0.576716,
                        "Latitude": 51.237899
                      },
                      {
                        "Longitude": -0.576731,
                        "Latitude": 51.237881
                      },
                      {
                        "Longitude": -0.576943,
                        "Latitude": 51.237637
                      },
                      {
                        "Longitude": -0.577112,
                        "Latitude": 51.237367
                      },
                      {
                        "Longitude": -0.577138,
                        "Latitude": 51.237097
                      },
                      {
                        "Longitude": -0.57715,
                        "Latitude": 51.236953
                      },
                      {
                        "Longitude": -0.577032,
                        "Latitude": 51.236567
                      },
                      {
                        "Longitude": -0.577003,
                        "Latitude": 51.236522
                      },
                      {
                        "Longitude": -0.576973,
                        "Latitude": 51.236396
                      },
                      {
                        "Longitude": -0.576943,
                        "Latitude": 51.236333
                      },
                      {
                        "Longitude": -0.576986,
                        "Latitude": 51.236243
                      },
                      {
                        "Longitude": -0.576985,
                        "Latitude": 51.236234
                      },
                      {
                        "Longitude": -0.577111,
                        "Latitude": 51.23591
                      },
                      {
                        "Longitude": -0.577036,
                        "Latitude": 51.235587
                      },
                      {
                        "Longitude": -0.576992,
                        "Latitude": 51.235533
                      },
                      {
                        "Longitude": -0.576804,
                        "Latitude": 51.235336
                      },
                      {
                        "Longitude": -0.576775,
                        "Latitude": 51.2353
                      },
                      {
                        "Longitude": -0.576761,
                        "Latitude": 51.235282
                      },
                      {
                        "Longitude": -0.576516,
                        "Latitude": 51.235148
                      },
                      {
                        "Longitude": -0.576242,
                        "Latitude": 51.234997
                      },
                      {
                        "Longitude": -0.575882,
                        "Latitude": 51.234791
                      },
                      {
                        "Longitude": -0.575593,
                        "Latitude": 51.234541
                      },
                      {
                        "Longitude": -0.574844,
                        "Latitude": 51.234184
                      },
                      {
                        "Longitude": -0.5747,
                        "Latitude": 51.234095
                      },
                      {
                        "Longitude": -0.574614,
                        "Latitude": 51.234014
                      },
                      {
                        "Longitude": -0.574469,
                        "Latitude": 51.23388
                      },
                      {
                        "Longitude": -0.574222,
                        "Latitude": 51.233566
                      }
                    ]
                  }
                },
                "id": "i32_1"
              },
              {
                "From": {
                  "StopPointRef": "40004407391A"
                },
                "To": {
                  "StopPointRef": "40004407390A"
                },
                "Direction": "inbound",
                "Track": {
                  "Mapping": {
                    "Location": [
                      {
                        "Longitude": -0.574222,
                        "Latitude": 51.233566
                      },
                      {
                        "Longitude": -0.5737,
                        "Latitude": 51.232903
                      },
                      {
                        "Longitude": -0.573453,
                        "Latitude": 51.232581
                      },
                      {
                        "Longitude": -0.573032,
                        "Latitude": 51.232025
                      },
                      {
                        "Longitude": -0.572815,
                        "Latitude": 51.231846
                      },
                      {
                        "Longitude": -0.572757,
                        "Latitude": 51.231774
                      },
                      {
                        "Longitude": -0.57267,
                        "Latitude": 51.231622
                      },
                      {
                        "Longitude": -0.572477,
                        "Latitude": 51.231029
                      },
                      {
                        "Longitude": -0.572418,
                        "Latitude": 51.230832
                      }
                    ]
                  }
                },
                "id": "i32_2"
              },
              {
                "From": {
                  "StopPointRef": "40004407390A"
                },
                "To": {
                  "StopPointRef": "40004407389A"
                },
                "Direction": "inbound",
                "Track": {
                  "Mapping": {
                    "Location": [
                      {
                        "Longitude": -0.572418,
                        "Latitude": 51.230832
                      },
                      {
                        "Longitude": -0.572344,
                        "Latitude": 51.230607
                      },
                      {
                        "Longitude": -0.572252,
                        "Latitude": 51.230059
                      },
                      {
                        "Longitude": -0.572236,
                        "Latitude": 51.229888
                      },
                      {
                        "Longitude": -0.572175,
                        "Latitude": 51.229484
                      },
                      {
                        "Longitude": -0.572188,
                        "Latitude": 51.229394
                      },
                      {
                        "Longitude": -0.572215,
                        "Latitude": 51.229196
                      },
                      {
                        "Longitude": -0.572227,
                        "Latitude": 51.229016
                      },
                      {
                        "Longitude": -0.572227,
                        "Latitude": 51.228998
                      },
                      {
                        "Longitude": -0.572165,
                        "Latitude": 51.22854
                      },
                      {
                        "Longitude": -0.571843,
                        "Latitude": 51.227831
                      },
                      {
                        "Longitude": -0.571578,
                        "Latitude": 51.22714
                      },
                      {
                        "Longitude": -0.571239,
                        "Latitude": 51.226233
                      },
                      {
                        "Longitude": -0.570972,
                        "Latitude": 51.225371
                      },
                      {
                        "Longitude": -0.570942,
                        "Latitude": 51.225228
                      }
                    ]
                  }
                },
                "id": "i32_3"
              },
              {
                "From": {
                  "StopPointRef": "40004407389A"
                },
                "To": {
                  "StopPointRef": "40004407388A"
                },
                "Direction": "inbound",
                "Track": {
                  "Mapping": {
                    "Location": [
                      {
                        "Longitude": -0.570942,
                        "Latitude": 51.225228
                      },
                      {
                        "Longitude": -0.570837,
                        "Latitude": 51.224706
                      },
                      {
                        "Longitude": -0.570659,
                        "Latitude": 51.224159
                      },
                      {
                        "Longitude": -0.570321,
                        "Latitude": 51.223315
                      },
                      {
                        "Longitude": -0.570292,
                        "Latitude": 51.223252
                      },
                      {
                        "Longitude": -0.570292,
                        "Latitude": 51.223225
                      },
                      {
                        "Longitude": -0.570204,
                        "Latitude": 51.223073
                      },
                      {
                        "Longitude": -0.570058,
                        "Latitude": 51.222768
                      },
                      {
                        "Longitude": -0.569927,
                        "Latitude": 51.222534
                      },
                      {
                        "Longitude": -0.569939,
                        "Latitude": 51.222382
                      },
                      {
                        "Longitude": -0.57015,
                        "Latitude": 51.221985
                      },
                      {
                        "Longitude": -0.570192,
                        "Latitude": 51.221913
                      },
                      {
                        "Longitude": -0.570276,
                        "Latitude": 51.221751
                      },
                      {
                        "Longitude": -0.570332,
                        "Latitude": 51.221562
                      },
                      {
                        "Longitude": -0.5704,
                        "Latitude": 51.221292
                      },
                      {
                        "Longitude": -0.570414,
                        "Latitude": 51.221238
                      },
                      {
                        "Longitude": -0.570414,
                        "Latitude": 51.221193
                      },
                      {
                        "Longitude": -0.570413,
                        "Latitude": 51.221148
                      },
                      {
                        "Longitude": -0.570398,
                        "Latitude": 51.221058
                      },
                      {
                        "Longitude": -0.570383,
                        "Latitude": 51.220959
                      },
                      {
                        "Longitude": -0.570219,
                        "Latitude": 51.220367
                      },
                      {
                        "Longitude": -0.569726,
                        "Latitude": 51.219766
                      },
                      {
                        "Longitude": -0.569625,
                        "Latitude": 51.219632
                      }
                    ]
                  }
                },
                "id": "i32_4"
              },
              {
                "From": {
                  "StopPointRef": "40004407388A"
                },
                "To": {
                  "StopPointRef": "40004407387A"
                },
                "Direction": "inbound",
                "Track": {
                  "Mapping": {
                    "Location": [
                      {
                        "Longitude": -0.569625,
                        "Latitude": 51.219632
                      },
                      {
                        "Longitude": -0.569508,
                        "Latitude": 51.21947
                      },
                      {
                        "Longitude": -0.569334,
                        "Latitude": 51.219237
                      },
                      {
                        "Longitude": -0.5689,
                        "Latitude": 51.218817
                      },
                      {
                        "Longitude": -0.568509,
                        "Latitude": 51.218342
                      },
                      {
                        "Longitude": -0.567911,
                        "Latitude": 51.217283
                      },
                      {
                        "Longitude": -0.56756,
                        "Latitude": 51.216565
                      },
                      {
                        "Longitude": -0.567486,
                        "Latitude": 51.216359
                      }
                    ]
                  }
                },
                "id": "i32_5"
              },
              {
                "From": {
                  "StopPointRef": "40004407387A"
                },
                "To": {
                  "StopPointRef": "40004407386C"
                },
                "Direction": "inbound",
                "Track": {
                  "Mapping": {
                    "Location": [
                      {
                        "Longitude": -0.567486,
                        "Latitude": 51.216359
                      },
                      {
                        "Longitude": -0.567324,
                        "Latitude": 51.215919
                      },
                      {
                        "Longitude": -0.56725,
                        "Latitude": 51.215676
                      },
                      {
                        "Longitude": -0.567249,
                        "Latitude": 51.215596
                      },
                      {
                        "Longitude": -0.567249,
                        "Latitude": 51.215524
                      },
                      {
                        "Longitude": -0.567472,
                        "Latitude": 51.214974
                      },
                      {
                        "Longitude": -0.567696,
                        "Latitude": 51.214461
                      },
                      {
                        "Longitude": -0.567794,
                        "Latitude": 51.214245
                      },
                      {
                        "Longitude": -0.567906,
                        "Latitude": 51.214029
                      },
                      {
                        "Longitude": -0.567948,
                        "Latitude": 51.213938
                      },
                      {
                        "Longitude": -0.568004,
                        "Latitude": 51.213839
                      },
                      {
                        "Longitude": -0.568089,
                        "Latitude": 51.213668
                      },
                      {
                        "Longitude": -0.568257,
                        "Latitude": 51.213371
                      }
                    ]
                  }
                },
                "id": "i32_6"
              },
              {
                "From": {
                  "StopPointRef": "40004407386C"
                },
                "To": {
                  "StopPointRef": "40004407933A"
                },
                "Direction": "inbound",
                "Track": {
                  "Mapping": {
                    "Location": [
                      {
                        "Longitude": -0.568257,
                        "Latitude": 51.213371
                      },
                      {
                        "Longitude": -0.568314,
                        "Latitude": 51.213272
                      },
                      {
                        "Longitude": -0.56827,
                        "Latitude": 51.213254
                      },
                      {
                        "Longitude": -0.568242,
                        "Latitude": 51.213245
                      },
                      {
                        "Longitude": -0.568213,
                        "Latitude": 51.213218
                      },
                      {
                        "Longitude": -0.568198,
                        "Latitude": 51.213182
                      },
                      {
                        "Longitude": -0.568198,
                        "Latitude": 51.213155
                      },
                      {
                        "Longitude": -0.568012,
                        "Latitude": 51.213138
                      },
                      {
                        "Longitude": -0.567511,
                        "Latitude": 51.21323
                      },
                      {
                        "Longitude": -0.567369,
                        "Latitude": 51.213258
                      },
                      {
                        "Longitude": -0.567054,
                        "Latitude": 51.21325
                      },
                      {
                        "Longitude": -0.566853,
                        "Latitude": 51.213224
                      },
                      {
                        "Longitude": -0.566767,
                        "Latitude": 51.213206
                      },
                      {
                        "Longitude": -0.566136,
                        "Latitude": 51.213083
                      },
                      {
                        "Longitude": -0.564817,
                        "Latitude": 51.212944
                      },
                      {
                        "Longitude": -0.563529,
                        "Latitude": 51.21294
                      },
                      {
                        "Longitude": -0.563056,
                        "Latitude": 51.212906
                      },
                      {
                        "Longitude": -0.561465,
                        "Latitude": 51.212706
                      }
                    ]
                  }
                },
                "id": "i32_7"
              },
              {
                "From": {
                  "StopPointRef": "40004407933A"
                },
                "To": {
                  "StopPointRef": "40004407384A"
                },
                "Direction": "inbound",
                "Track": {
                  "Mapping": {
                    "Location": [
                      {
                        "Longitude": -0.561465,
                        "Latitude": 51.212706
                      },
                      {
                        "Longitude": -0.561121,
                        "Latitude": 51.212662
                      },
                      {
                        "Longitude": -0.561021,
                        "Latitude": 51.212654
                      },
                      {
                        "Longitude": -0.560806,
                        "Latitude": 51.212619
                      },
                      {
                        "Longitude": -0.558326,
                        "Latitude": 51.212269
                      },
                      {
                        "Longitude": -0.556104,
                        "Latitude": 51.211945
                      },
                      {
                        "Longitude": -0.556004,
                        "Latitude": 51.211936
                      },
                      {
                        "Longitude": -0.553437,
                        "Latitude": 51.211416
                      },
                      {
                        "Longitude": -0.552805,
                        "Latitude": 51.211257
                      },
                      {
                        "Longitude": -0.552273,
                        "Latitude": 51.210989
                      },
                      {
                        "Longitude": -0.551568,
                        "Latitude": 51.210614
                      },
                      {
                        "Longitude": -0.551107,
                        "Latitude": 51.21031
                      },
                      {
                        "Longitude": -0.550645,
                        "Latitude": 51.209953
                      },
                      {
                        "Longitude": -0.5503,
                        "Latitude": 51.209819
                      },
                      {
                        "Longitude": -0.549797,
                        "Latitude": 51.209614
                      },
                      {
                        "Longitude": -0.549481,
                        "Latitude": 51.209445
                      },
                      {
                        "Longitude": -0.549365,
                        "Latitude": 51.209364
                      }
                    ]
                  }
                },
                "id": "i32_8"
              },
              {
                "From": {
                  "StopPointRef": "40004407384A"
                },
                "To": {
                  "StopPointRef": "40004407383A"
                },
                "Direction": "inbound",
                "Track": {
                  "Mapping": {
                    "Location": [
                      {
                        "Longitude": -0.549365,
                        "Latitude": 51.209364
                      },
                      {
                        "Longitude": -0.549048,
                        "Latitude": 51.209132
                      },
                      {
                        "Longitude": -0.548564,
                        "Latitude": 51.209331
                      },
                      {
                        "Longitude": -0.548492,
                        "Latitude": 51.209359
                      },
                      {
                        "Longitude": -0.548165,
                        "Latitude": 51.209531
                      },
                      {
                        "Longitude": -0.547994,
                        "Latitude": 51.209648
                      },
                      {
                        "Longitude": -0.547839,
                        "Latitude": 51.209838
                      },
                      {
                        "Longitude": -0.547755,
                        "Latitude": 51.210063
                      },
                      {
                        "Longitude": -0.547688,
                        "Latitude": 51.210486
                      },
                      {
                        "Longitude": -0.547637,
                        "Latitude": 51.211115
                      },
                      {
                        "Longitude": -0.547573,
                        "Latitude": 51.211978
                      },
                      {
                        "Longitude": -0.547545,
                        "Latitude": 51.212033
                      },
                      {
                        "Longitude": -0.547517,
                        "Latitude": 51.212087
                      },
                      {
                        "Longitude": -0.547447,
                        "Latitude": 51.212222
                      },
                      {
                        "Longitude": -0.547277,
                        "Latitude": 51.212366
                      },
                      {
                        "Longitude": -0.547234,
                        "Latitude": 51.212384
                      },
                      {
                        "Longitude": -0.546963,
                        "Latitude": 51.212502
                      },
                      {
                        "Longitude": -0.546449,
                        "Latitude": 51.212594
                      },
                      {
                        "Longitude": -0.546006,
                        "Latitude": 51.212722
                      },
                      {
                        "Longitude": -0.54552,
                        "Latitude": 51.212814
                      }
                    ]
                  }
                },
                "id": "i32_9"
              },
              {
                "From": {
                  "StopPointRef": "40004407383A"
                },
                "To": {
                  "StopPointRef": "40004407382A"
                },
                "Direction": "inbound",
                "Track": {
                  "Mapping": {
                    "Location": [
                      {
                        "Longitude": -0.54552,
                        "Latitude": 51.212814
                      },
                      {
                        "Longitude": -0.544263,
                        "Latitude": 51.213061
                      },
                      {
                        "Longitude": -0.543706,
                        "Latitude": 51.213144
                      },
                      {
                        "Longitude": -0.543148,
                        "Latitude": 51.213218
                      },
                      {
                        "Longitude": -0.542563,
                        "Latitude": 51.213355
                      }
                    ]
                  }
                },
                "id": "i32_10"
              },
              {
                "From": {
                  "StopPointRef": "40004407382A"
                },
                "To": {
                  "StopPointRef": "40004407381A"
                },
                "Direction": "inbound",
                "Track": {
                  "Mapping": {
                    "Location": [
                      {
                        "Longitude": -0.542563,
                        "Latitude": 51.213355
                      },
                      {
                        "Longitude": -0.542348,
                        "Latitude": 51.213401
                      },
                      {
                        "Longitude": -0.54192,
                        "Latitude": 51.213502
                      },
                      {
                        "Longitude": -0.540791,
                        "Latitude": 51.213668
                      },
                      {
                        "Longitude": -0.538772,
                        "Latitude": 51.213676
                      },
                      {
                        "Longitude": -0.538157,
                        "Latitude": 51.213678
                      },
                      {
                        "Longitude": -0.537184,
                        "Latitude": 51.2137
                      }
                    ]
                  }
                },
                "id": "i32_11"
              },
              {
                "From": {
                  "StopPointRef": "40004407381A"
                },
                "To": {
                  "StopPointRef": "40004407380A"
                },
                "Direction": "inbound",
                "Track": {
                  "Mapping": {
                    "Location": [
                      {
                        "Longitude": -0.537184,
                        "Latitude": 51.2137
                      },
                      {
                        "Longitude": -0.53694,
                        "Latitude": 51.213709
                      },
                      {
                        "Longitude": -0.535953,
                        "Latitude": 51.213713
                      },
                      {
                        "Longitude": -0.535152,
                        "Latitude": 51.213797
                      },
                      {
                        "Longitude": -0.534852,
                        "Latitude": 51.213834
                      },
                      {
                        "Longitude": -0.53448,
                        "Latitude": 51.213899
                      },
                      {
                        "Longitude": -0.534124,
                        "Latitude": 51.214053
                      },
                      {
                        "Longitude": -0.534081,
                        "Latitude": 51.214089
                      },
                      {
                        "Longitude": -0.53384,
                        "Latitude": 51.214279
                      },
                      {
                        "Longitude": -0.53367,
                        "Latitude": 51.214504
                      },
                      {
                        "Longitude": -0.533557,
                        "Latitude": 51.21472
                      },
                      {
                        "Longitude": -0.533515,
                        "Latitude": 51.214765
                      },
                      {
                        "Longitude": -0.533387,
                        "Latitude": 51.214892
                      },
                      {
                        "Longitude": -0.533031,
                        "Latitude": 51.215019
                      },
                      {
                        "Longitude": -0.532587,
                        "Latitude": 51.215074
                      },
                      {
                        "Longitude": -0.532273,
                        "Latitude": 51.215076
                      }
                    ]
                  }
                },
                "id": "i32_12"
              },
              {
                "From": {
                  "StopPointRef": "40004407380A"
                },
                "To": {
                  "StopPointRef": "40004407379A"
                },
                "Direction": "inbound",
                "Track": {
                  "Mapping": {
                    "Location": [
                      {
                        "Longitude": -0.532273,
                        "Latitude": 51.215076
                      },
                      {
                        "Longitude": -0.532158,
                        "Latitude": 51.215076
                      },
                      {
                        "Longitude": -0.530142,
                        "Latitude": 51.215353
                      },
                      {
                        "Longitude": -0.529112,
                        "Latitude": 51.215402
                      },
                      {
                        "Longitude": -0.528224,
                        "Latitude": 51.215387
                      },
                      {
                        "Longitude": -0.527666,
                        "Latitude": 51.215381
                      },
                      {
                        "Longitude": -0.526277,
                        "Latitude": 51.215368
                      }
                    ]
                  }
                },
                "id": "i32_13"
              },
              {
                "From": {
                  "StopPointRef": "40004407379A"
                },
                "To": {
                  "StopPointRef": "40004407378A"
                },
                "Direction": "inbound",
                "Track": {
                  "Mapping": {
                    "Location": [
                      {
                        "Longitude": -0.526277,
                        "Latitude": 51.215368
                      },
                      {
                        "Longitude": -0.526077,
                        "Latitude": 51.215368
                      },
                      {
                        "Longitude": -0.525533,
                        "Latitude": 51.215406
                      },
                      {
                        "Longitude": -0.525147,
                        "Latitude": 51.215471
                      },
                      {
                        "Longitude": -0.524733,
                        "Latitude": 51.215544
                      },
                      {
                        "Longitude": -0.52379,
                        "Latitude": 51.21571
                      },
                      {
                        "Longitude": -0.523332,
                        "Latitude": 51.215783
                      },
                      {
                        "Longitude": -0.522344,
                        "Latitude": 51.215769
                      },
                      {
                        "Longitude": -0.521571,
                        "Latitude": 51.215763
                      },
                      {
                        "Longitude": -0.521385,
                        "Latitude": 51.215772
                      },
                      {
                        "Longitude": -0.520584,
                        "Latitude": 51.215829
                      },
                      {
                        "Longitude": -0.519812,
                        "Latitude": 51.215976
                      },
                      {
                        "Longitude": -0.519427,
                        "Latitude": 51.216094
                      },
                      {
                        "Longitude": -0.518585,
                        "Latitude": 51.216421
                      },
                      {
                        "Longitude": -0.518158,
                        "Latitude": 51.216611
                      },
                      {
                        "Longitude": -0.518029,
                        "Latitude": 51.216639
                      },
                      {
                        "Longitude": -0.518029,
                        "Latitude": 51.216648
                      }
                    ]
                  }
                },
                "id": "i32_14"
              },
              {
                "From": {
                  "StopPointRef": "40004407378A"
                },
                "To": {
                  "StopPointRef": "40004407377A"
                },
                "Direction": "inbound",
                "Track": {
                  "Mapping": {
                    "Location": [
                      {
                        "Longitude": -0.518029,
                        "Latitude": 51.216648
                      },
                      {
                        "Longitude": -0.518029,
                        "Latitude": 51.216639
                      },
                      {
                        "Longitude": -0.517372,
                        "Latitude": 51.216812
                      },
                      {
                        "Longitude": -0.516973,
                        "Latitude": 51.216966
                      },
                      {
                        "Longitude": -0.516617,
                        "Latitude": 51.217156
                      },
                      {
                        "Longitude": -0.516218,
                        "Latitude": 51.217445
                      },
                      {
                        "Longitude": -0.515565,
                        "Latitude": 51.217969
                      },
                      {
                        "Longitude": -0.51528,
                        "Latitude": 51.218141
                      },
                      {
                        "Longitude": -0.5136,
                        "Latitude": 51.219145
                      },
                      {
                        "Longitude": -0.513288,
                        "Latitude": 51.219461
                      },
                      {
                        "Longitude": -0.513146,
                        "Latitude": 51.219596
                      },
                      {
                        "Longitude": -0.512763,
                        "Latitude": 51.219966
                      },
                      {
                        "Longitude": -0.51262,
                        "Latitude": 51.220048
                      },
                      {
                        "Longitude": -0.51202,
                        "Latitude": 51.220194
                      },
                      {
                        "Longitude": -0.511963,
                        "Latitude": 51.220194
                      },
                      {
                        "Longitude": -0.511248,
                        "Latitude": 51.220286
                      },
                      {
                        "Longitude": -0.510662,
                        "Latitude": 51.22036
                      }
                    ]
                  }
                },
                "id": "i32_15"
              },
              {
                "From": {
                  "StopPointRef": "40004407377A"
                },
                "To": {
                  "StopPointRef": "40004407376A"
                },
                "Direction": "inbound",
                "Track": {
                  "Mapping": {
                    "Location": [
                      {
                        "Longitude": -0.510662,
                        "Latitude": 51.22036
                      },
                      {
                        "Longitude": -0.508659,
                        "Latitude": 51.220601
                      },
                      {
                        "Longitude": -0.508373,
                        "Latitude": 51.220638
                      },
                      {
                        "Longitude": -0.508259,
                        "Latitude": 51.220647
                      },
                      {
                        "Longitude": -0.507773,
                        "Latitude": 51.220712
                      },
                      {
                        "Longitude": -0.507701,
                        "Latitude": 51.220712
                      },
                      {
                        "Longitude": -0.507472,
                        "Latitude": 51.220713
                      },
                      {
                        "Longitude": -0.507186,
                        "Latitude": 51.220714
                      },
                      {
                        "Longitude": -0.507057,
                        "Latitude": 51.220715
                      },
                      {
                        "Longitude": -0.506957,
                        "Latitude": 51.220715
                      },
                      {
                        "Longitude": -0.506599,
                        "Latitude": 51.220734
                      },
                      {
                        "Longitude": -0.505699,
                        "Latitude": 51.220971
                      },
                      {
                        "Longitude": -0.504284,
                        "Latitude": 51.221201
                      }
                    ]
                  }
                },
                "id": "i32_16"
              },
              {
                "From": {
                  "StopPointRef": "40004407376A"
                },
                "To": {
                  "StopPointRef": "40004407375A"
                },
                "Direction": "inbound",
                "Track": {
                  "Mapping": {
                    "Location": [
                      {
                        "Longitude": -0.504284,
                        "Latitude": 51.221201
                      },
                      {
                        "Longitude": -0.504155,
                        "Latitude": 51.221219
                      },
                      {
                        "Longitude": -0.503398,
                        "Latitude": 51.22142
                      },
                      {
                        "Longitude": -0.502554,
                        "Latitude": 51.221441
                      },
                      {
                        "Longitude": -0.502468,
                        "Latitude": 51.221414
                      },
                      {
                        "Longitude": -0.502265,
                        "Latitude": 51.22119
                      },
                      {
                        "Longitude": -0.502101,
                        "Latitude": 51.22039
                      },
                      {
                        "Longitude": -0.501999,
                        "Latitude": 51.220229
                      },
                      {
                        "Longitude": -0.501754,
                        "Latitude": 51.220041
                      },
                      {
                        "Longitude": -0.501581,
                        "Latitude": 51.21997
                      },
                      {
                        "Longitude": -0.501266,
                        "Latitude": 51.219899
                      },
                      {
                        "Longitude": -0.500736,
                        "Latitude": 51.219838
                      },
                      {
                        "Longitude": -0.500192,
                        "Latitude": 51.21984
                      },
                      {
                        "Longitude": -0.500091,
                        "Latitude": 51.21984
                      },
                      {
                        "Longitude": -0.499834,
                        "Latitude": 51.219877
                      },
                      {
                        "Longitude": -0.499406,
                        "Latitude": 51.220013
                      },
                      {
                        "Longitude": -0.498748,
                        "Latitude": 51.220087
                      }
                    ]
                  }
                },
                "id": "i32_17"
              },
              {
                "From": {
                  "StopPointRef": "40004407375A"
                },
                "To": {
                  "StopPointRef": "40004407374A"
                },
                "Direction": "inbound",
                "Track": {
                  "Mapping": {
                    "Location": [
                      {
                        "Longitude": -0.498748,
                        "Latitude": 51.220087
                      },
                      {
                        "Longitude": -0.498548,
                        "Latitude": 51.220115
                      },
                      {
                        "Longitude": -0.497877,
                        "Latitude": 51.220315
                      },
                      {
                        "Longitude": -0.497534,
                        "Latitude": 51.220424
                      },
                      {
                        "Longitude": -0.497006,
                        "Latitude": 51.220597
                      },
                      {
                        "Longitude": -0.496763,
                        "Latitude": 51.220652
                      }
                    ]
                  }
                },
                "id": "i32_18"
              },
              {
                "From": {
                  "StopPointRef": "40004407374A"
                },
                "To": {
                  "StopPointRef": "40004407373A"
                },
                "Direction": "inbound",
                "Track": {
                  "Mapping": {
                    "Location": [
                      {
                        "Longitude": -0.496763,
                        "Latitude": 51.220652
                      },
                      {
                        "Longitude": -0.496348,
                        "Latitude": 51.220734
                      },
                      {
                        "Longitude": -0.496248,
                        "Latitude": 51.220752
                      },
                      {
                        "Longitude": -0.49589,
                        "Latitude": 51.220763
                      },
                      {
                        "Longitude": -0.494601,
                        "Latitude": 51.220686
                      },
                      {
                        "Longitude": -0.494257,
                        "Latitude": 51.220669
                      },
                      {
                        "Longitude": -0.493412,
                        "Latitude": 51.220618
                      },
                      {
                        "Longitude": -0.492727,
                        "Latitude": 51.220782
                      },
                      {
                        "Longitude": -0.492355,
                        "Latitude": 51.220883
                      },
                      {
                        "Longitude": -0.491898,
                        "Latitude": 51.220938
                      },
                      {
                        "Longitude": -0.491067,
                        "Latitude": 51.220914
                      },
                      {
                        "Longitude": -0.490007,
                        "Latitude": 51.22089
                      },
                      {
                        "Longitude": -0.489121,
                        "Latitude": 51.220992
                      },
                      {
                        "Longitude": -0.488791,
                        "Latitude": 51.220976
                      },
                      {
                        "Longitude": -0.48849,
                        "Latitude": 51.220905
                      },
                      {
                        "Longitude": -0.48793,
                        "Latitude": 51.2207
                      }
                    ]
                  }
                },
                "id": "i32_19"
              },
              {
                "From": {
                  "StopPointRef": "40004407373A"
                },
                "To": {
                  "StopPointRef": "40004407372C"
                },
                "Direction": "inbound",
                "Track": {
                  "Mapping": {
                    "Location": [
                      {
                        "Longitude": -0.48793,
                        "Latitude": 51.2207
                      },
                      {
                        "Longitude": -0.487599,
                        "Latitude": 51.220584
                      },
                      {
                        "Longitude": -0.487356,
                        "Latitude": 51.220549
                      },
                      {
                        "Longitude": -0.487098,
                        "Latitude": 51.220523
                      },
                      {
                        "Longitude": -0.487041,
                        "Latitude": 51.220523
                      },
                      {
                        "Longitude": -0.486998,
                        "Latitude": 51.220532
                      },
                      {
                        "Longitude": -0.486955,
                        "Latitude": 51.220541
                      },
                      {
                        "Longitude": -0.486926,
                        "Latitude": 51.220568
                      },
                      {
                        "Longitude": -0.486898,
                        "Latitude": 51.220586
                      },
                      {
                        "Longitude": -0.48687,
                        "Latitude": 51.220604
                      },
                      {
                        "Longitude": -0.486841,
                        "Latitude": 51.220622
                      },
                      {
                        "Longitude": -0.486727,
                        "Latitude": 51.220731
                      },
                      {
                        "Longitude": -0.486642,
                        "Latitude": 51.220839
                      },
                      {
                        "Longitude": -0.486487,
                        "Latitude": 51.221064
                      },
                      {
                        "Longitude": -0.486388,
                        "Latitude": 51.22119
                      },
                      {
                        "Longitude": -0.486274,
                        "Latitude": 51.221308
                      },
                      {
                        "Longitude": -0.486104,
                        "Latitude": 51.221452
                      },
                      {
                        "Longitude": -0.48599,
                        "Latitude": 51.221533
                      },
                      {
                        "Longitude": -0.484325,
                        "Latitude": 51.222717
                      },
                      {
                        "Longitude": -0.482722,
                        "Latitude": 51.224547
                      },
                      {
                        "Longitude": -0.482666,
                        "Latitude": 51.224628
                      },
                      {
                        "Longitude": -0.482637,
                        "Latitude": 51.224673
                      },
                      {
                        "Longitude": -0.482582,
                        "Latitude": 51.224862
                      },
                      {
                        "Longitude": -0.483083,
                        "Latitude": 51.224933
                      },
                      {
                        "Longitude": -0.483886,
                        "Latitude": 51.225065
                      },
                      {
                        "Longitude": -0.483944,
                        "Latitude": 51.225073
                      },
                      {
                        "Longitude": -0.48393,
                        "Latitude": 51.22511
                      },
                      {
                        "Longitude": -0.483901,
                        "Latitude": 51.225137
                      },
                      {
                        "Longitude": -0.483788,
                        "Latitude": 51.225245
                      },
                      {
                        "Longitude": -0.482569,
                        "Latitude": 51.225078
                      },
                      {
                        "Longitude": -0.48224,
                        "Latitude": 51.225034
                      },
                      {
                        "Longitude": -0.481981,
                        "Latitude": 51.22499
                      },
                      {
                        "Longitude": -0.481867,
                        "Latitude": 51.224973
                      }
                    ]
                  }
                },
                "id": "i32_20"
              },
              {
                "From": {
                  "StopPointRef": "40004407372C"
                },
                "To": {
                  "StopPointRef": "40004407371B"
                },
                "Direction": "inbound",
                "Track": {
                  "Mapping": {
                    "Location": [
                      {
                        "Longitude": -0.481867,
                        "Latitude": 51.224973
                      },
                      {
                        "Longitude": -0.481551,
                        "Latitude": 51.224929
                      },
                      {
                        "Longitude": -0.481494,
                        "Latitude": 51.224902
                      },
                      {
                        "Longitude": -0.481235,
                        "Latitude": 51.224822
                      },
                      {
                        "Longitude": -0.479371,
                        "Latitude": 51.224441
                      },
                      {
                        "Longitude": -0.478166,
                        "Latitude": 51.224185
                      },
                      {
                        "Longitude": -0.476617,
                        "Latitude": 51.223884
                      },
                      {
                        "Longitude": -0.476417,
                        "Latitude": 51.22384
                      },
                      {
                        "Longitude": -0.475929,
                        "Latitude": 51.223742
                      },
                      {
                        "Longitude": -0.475226,
                        "Latitude": 51.223601
                      },
                      {
                        "Longitude": -0.473376,
                        "Latitude": 51.223229
                      },
                      {
                        "Longitude": -0.472215,
                        "Latitude": 51.223017
                      },
                      {
                        "Longitude": -0.471684,
                        "Latitude": 51.222956
                      },
                      {
                        "Longitude": -0.471725,
                        "Latitude": 51.222713
                      },
                      {
                        "Longitude": -0.471667,
                        "Latitude": 51.222578
                      },
                      {
                        "Longitude": -0.471278,
                        "Latitude": 51.22222
                      },
                      {
                        "Longitude": -0.470973,
                        "Latitude": 51.221745
                      },
                      {
                        "Longitude": -0.470828,
                        "Latitude": 51.22152
                      }
                    ]
                  }
                },
                "id": "i32_21"
              },
              {
                "From": {
                  "StopPointRef": "40004407371B"
                },
                "To": {
                  "StopPointRef": "40004407370A"
                },
                "Direction": "inbound",
                "Track": {
                  "Mapping": {
                    "Location": [
                      {
                        "Longitude": -0.470828,
                        "Latitude": 51.22152
                      },
                      {
                        "Longitude": -0.470698,
                        "Latitude": 51.221332
                      },
                      {
                        "Longitude": -0.470539,
                        "Latitude": 51.221189
                      },
                      {
                        "Longitude": -0.470424,
                        "Latitude": 51.221099
                      },
                      {
                        "Longitude": -0.470323,
                        "Latitude": 51.221045
                      },
                      {
                        "Longitude": -0.47015,
                        "Latitude": 51.220956
                      },
                      {
                        "Longitude": -0.469906,
                        "Latitude": 51.22084
                      },
                      {
                        "Longitude": -0.46959,
                        "Latitude": 51.220742
                      },
                      {
                        "Longitude": -0.469418,
                        "Latitude": 51.220725
                      },
                      {
                        "Longitude": -0.469232,
                        "Latitude": 51.220725
                      },
                      {
                        "Longitude": -0.468331,
                        "Latitude": 51.220818
                      },
                      {
                        "Longitude": -0.466212,
                        "Latitude": 51.220825
                      },
                      {
                        "Longitude": -0.464907,
                        "Latitude": 51.220568
                      },
                      {
                        "Longitude": -0.464678,
                        "Latitude": 51.220506
                      },
                      {
                        "Longitude": -0.464477,
                        "Latitude": 51.220435
                      },
                      {
                        "Longitude": -0.464205,
                        "Latitude": 51.220454
                      },
                      {
                        "Longitude": -0.463661,
                        "Latitude": 51.220464
                      }
                    ]
                  }
                },
                "id": "i32_22"
              },
              {
                "From": {
                  "StopPointRef": "40004407370A"
                },
                "To": {
                  "StopPointRef": "40004407531A"
                },
                "Direction": "inbound",
                "Track": {
                  "Mapping": {
                    "Location": [
                      {
                        "Longitude": -0.463661,
                        "Latitude": 51.220464
                      },
                      {
                        "Longitude": -0.463547,
                        "Latitude": 51.220465
                      },
                      {
                        "Longitude": -0.463217,
                        "Latitude": 51.220412
                      },